Car.Distance,Car.FxFL,Car.FxFR,Car.FxRL,Car.FxRR,Car.FyFL,Car.FyFR,Car.FyRL,Car.FyRR,Car.FzFL,Car.FzFR,Car.FzRL,Car.FzRR,Car.Pitch,Car.Roll,Car.SlipAngleFL,Car.SlipAngleFR,Car.SlipAngleRL,Car.SlipAngleRR,Car.TrackRadius,Car.Yaw,Car.YawRate,Car.ax,Car.ay,Car.tx,Car.ty,Car.vx,Car.vy,Time
m,N,N,N,N,N,N,N,N,N,N,N,N,rad,rad,rad,rad,rad,rad,m,rad,rad/s,m/s^2,m/s^2,m,m,m/s,m/s,s
1.62E-10,0.007831318,0.00783141,0.009277102,0.009277039,-0.000325769,0.000324436,0.000326859,-0.000329264,642.0627441,642.0627441,706.2649536,706.2650146,-0.000379072,3.39E-10,-1.82E-09,1.81E-09,2.37E-09,-2.38E-09,2.63E-07,0.93658483,3.76E-11,0.000118026,1.69E-08,-96.65717316,-13.94838238,1.62E-07,1.43E-11,0.001
4.76E-09,0.000772799,0.000773085,-0.000927539,-0.000927591,0.001059237,-0.001049985,-0.00123054,0.001239317,642.0696411,642.0696411,706.2580566,706.2581177,-0.000379053,2.60E-10,-4.15E-08,4.12E-08,4.38E-08,-4.42E-08,1.71E-06,0.93658483,3.37E-11,2.13E-06,4.44E-08,-96.65717316,-13.94838238,4.14E-07,4.39E-10,0.011
1.16E-08,0.005620398,0.005624352,0.005823158,0.005820714,0.000885854,-0.000872737,-0.000825979,0.000839315,642.0772095,642.0772095,706.2507935,706.2507935,-0.000378999,1.23E-10,-3.35E-08,3.31E-08,2.97E-08,-3.02E-08,8.14E-06,0.93658483,-5.39E-11,8.80E-05,9.89E-08,-96.65717316,-13.94838238,9.02E-07,1.41E-09,0.021
2.55E-08,0.002678183,0.002682791,0.002487913,0.002482627,-0.000278449,0.000289243,0.000502742,-0.000491539,642.081543,642.081543,706.2460938,706.2460938,-0.000378931,-1.22E-11,2.38E-09,-2.72E-09,-7.83E-09,7.51E-09,2.32E-05,0.93658483,-1.65E-10,3.90E-05,7.89E-08,-96.65717316,-13.94838238,1.52E-06,2.46E-09,0.031
4.33E-08,-0.000161514,-0.000156652,-0.001725331,-0.001733307,-0.0010481,0.00105079,0.00149941,-0.00150147,642.083252,642.083252,706.2433472,706.2433472,-0.00037887,-1.11E-10,2.44E-08,-2.45E-08,-3.45E-08,3.45E-08,2.61E-05,0.93658483,-1.79E-10,-1.42E-05,-2.68E-08,-96.65717316,-13.94838238,1.61E-06,2.90E-09,0.041
6.07E-08,-0.00165142,-0.001646946,-0.003879843,-0.003887815,-0.001269198,0.001263386,0.001870877,-0.001880915,642.0830688,642.0830688,706.2423096,706.2422485,-0.000378827,-1.64E-10,2.91E-08,-2.89E-08,-4.25E-08,4.27E-08,1.73E-05,0.93658483,-1.93E-10,-4.17E-05,-1.43E-07,-96.65717316,-13.94838238,1.31E-06,2.67E-09,0.051
7.50E-08,-0.002178501,-0.002178002,-0.004256508,-0.004252122,-0.001150739,0.001136292,0.001743353,-0.001754416,642.0817261,642.0817261,706.2423706,706.2423096,-0.000378806,-1.37E-10,2.37E-08,-2.33E-08,-3.64E-08,3.68E-08,7.34E-06,0.93658483,1.70E-10,-4.87E-05,-1.26E-07,-96.65717316,-13.94838238,8.57E-07,1.56E-09,0.061
8.56E-08,-0.002123866,-0.002125803,-0.00365701,-0.003644683,-0.000861449,0.00084097,0.001362948,-0.001375129,642.079834,642.079834,706.243103,706.243042,-0.000378804,-4.58E-11,1.37E-08,-1.31E-08,-2.39E-08,2.43E-08,1.59E-06,0.93658483,3.07E-10,-4.41E-05,-1.14E-07,-96.65717316,-13.94838238,3.99E-07,3.97E-10,0.071
9.30E-08,-0.001730902,-0.001733547,-0.002665952,-0.002655571,-0.000518795,0.000504881,0.000933202,-0.000944776,642.0778809,642.0778809,706.2441406,706.2441406,-0.000378817,5.02E-11,2.92E-09,-2.46E-09,-1.08E-08,1.11E-08,4.11E-09,0.93658483,4.72E-11,-3.33E-05,-1.33E-07,-96.65717316,-13.94838238,2.05E-08,-7.13E-10,0.081
9.82E-08,-0.001124863,-0.001128664,-0.001676699,-0.001670126,-0.000163846,0.000155851,0.000571998,-0.000578469,642.076416,642.076416,706.2453613,706.2453613,-0.00037884,1.35E-10,-7.57E-09,7.79E-09,-2.40E-10,4.48E-10,5.94E-07,0.93658483,-1.19E-10,-2.18E-05,-5.59E-08,-96.65717316,-13.94838238,-2.44E-07,-1.43E-09,0.091
1.03E-07,-0.0004828,-0.00048715,-0.000872425,-0.00086751,0.000124409,-0.000125753,0.000344381,-0.000347169,642.0755005,642.0755615,706.246582,706.246582,-0.000378866,2.04E-10,-1.54E-08,1.54E-08,5.86E-09,-5.78E-09,1.56E-06,0.93658483,-4.39E-11,-1.07E-05,-1.76E-08,-96.65717316,-13.94838238,-3.95E-07,-1.76E-09,0.101
1.07E-07,3.38E-06,-4.90E-07,-0.000137069,-0.000132419,0.000262235,-0.000260248,0.000197441,-0.000195846,642.0751343,642.0751343,706.2477417,706.2477417,-0.000378891,2.53E-10,-1.83E-08,1.82E-08,9.42E-09,-9.47E-09,2.01E-06,0.93658483,7.68E-11,-1.39E-06,3.15E-08,-96.65717316,-13.94838238,-4.48E-07,-1.74E-09,0.111
1.12E-07,0.000301211,0.000298451,0.000503032,0.000507143,0.000254764,-0.000253443,0.000102903,-9.75E-05,642.0750122,642.0750122,706.2485962,706.2485962,-0.000378912,2.84E-10,-1.69E-08,1.68E-08,1.14E-08,-1.15E-08,1.77E-06,0.93658483,7.65E-11,5.83E-06,6.20E-08,-96.65717316,-13.94838238,-4.21E-07,-1.50E-09,0.121
1.16E-07,0.000455034,0.000453636,0.000963793,0.000967022,0.000164839,-0.000160904,5.89E-05,-5.17E-05,642.0750732,642.0750732,706.2491455,706.2490845,-0.000378928,2.98E-10,-1.32E-08,1.30E-08,1.18E-08,-1.20E-08,1.13E-06,0.93658483,1.55E-11,1.06E-05,2.42E-08,-96.65717316,-13.94838238,-3.36E-07,-1.11E-09,0.131
1.21E-07,0.000509651,0.000509975,0.001211668,0.001212136,3.66E-05,-3.59E-05,6.33E-05,-6.00E-05,642.0752563,642.0753174,706.2493286,706.2493286,-0.000378937,2.94E-10,-8.65E-09,8.50E-09,1.09E-08,-1.10E-08,-3.70E-07,0.93658483,-1.66E-10,1.30E-05,1.63E-07,-96.65717316,-13.94838238,-2.18E-07,-5.94E-10,0.141
1.25E-07,0.000488312,0.000492462,0.001265472,0.00125504,-9.32E-05,0.000102833,0.000111288,-0.000104705,642.0756226,642.0756226,706.2492676,706.2492676,-0.000378941,2.27E-10,-4.39E-09,4.04E-09,8.86E-09,-9.05E-09,7.60E-08,0.93658483,-4.19E-10,1.33E-05,5.48E-08,-96.65717316,-13.94838238,-8.74E-08,-4.18E-12,0.151
1.29E-07,0.000412859,0.000416485,0.00114948,0.001140172,-0.000209527,0.00021924,0.00018094,-0.000173873,642.0760498,642.0760498,706.2490234,706.2490234,-0.000378939,1.51E-10,-7.91E-10,4.46E-10,6.35E-09,-6.53E-09,1.37E-08,0.93658483,-2.69E-10,1.20E-05,1.19E-07,-96.65717316,-13.94838238,3.68E-08,5.97E-10,0.161
1.34E-07,0.000296079,0.000299356,0.000911454,0.0009042,-0.000297021,0.000303386,0.000260307,-0.000253481,642.0765991,642.0765991,706.2487183,706.2487183,-0.000378934,7.76E-11,1.66E-09,-1.90E-09,3.83E-09,-3.97E-09,1.97E-07,0.93658483,-1.28E-10,9.28E-06,6.40E-08,-96.65717316,-13.94838238,1.40E-07,1.11E-09,0.171
1.38E-07,0.00013283,0.000136329,0.000621617,0.000615858,-0.000365308,0.000369103,0.000331475,-0.000328208,642.0770874,642.0770874,706.2484131,706.2484131,-0.000378927,1.22E-11,3.48E-09,-3.60E-09,1.65E-09,-1.72E-09,4.55E-07,0.93658483,-8.87E-11,5.84E-06,5.35E-08,-96.65717316,-13.94838238,2.13E-07,1.46E-09,0.181
1.42E-07,-4.68E-05,-4.32E-05,0.000334724,0.000329328,-0.000422095,0.000421683,0.000385599,-0.000384109,642.0775146,642.0774536,706.2481079,706.2481079,-0.00037892,-4.13E-11,4.78E-09,-4.80E-09,2.53E-11,-1.12E-11,6.31E-07,0.93658483,-1.16E-10,2.22E-06,5.70E-08,-96.65717316,-13.94838238,2.51E-07,1.55E-09,0.191
1.46E-07,-0.0001978,-0.000194331,8.05E-05,7.53E-05,-0.000459181,0.000455978,0.000425761,-0.000430686,642.0777588,642.0777588,706.2479248,706.2479248,-0.000378913,-8.24E-11,5.41E-09,-5.38E-09,-1.14E-09,1.23E-09,6.56E-07,0.93658483,-1.22E-10,-8.37E-07,-2.19E-08,-96.65717316,-13.94838238,2.56E-07,1.45E-09,0.201
1.49E-07,-0.00029727,-0.000294198,-9.60E-05,-0.000100296,-0.000469649,0.000466626,0.000447543,-0.000451103,642.0778198,642.0778198,706.2478638,706.2478638,-0.000378908,-1.12E-10,5.34E-09,-5.28E-09,-1.66E-09,1.76E-09,5.57E-07,0.93658483,-7.74E-11,-2.93E-06,-3.59E-08,-96.65717316,-13.94838238,2.36E-07,1.22E-09,0.211
1.52E-07,-0.000340249,-0.000338402,-0.00018072,-0.000183013,-0.000463455,0.000458829,0.000446871,-0.000448773,642.0778198,642.0778198,706.2478638,706.2478638,-0.000378904,-1.27E-10,4.71E-09,-4.62E-09,-1.50E-09,1.61E-09,4.04E-07,0.93658483,-9.42E-11,-3.93E-06,4.10E-09,-96.65717316,-13.94838238,2.01E-07,9.00E-10,0.221
1.55E-07,-0.000332927,-0.000331751,-0.000197525,-0.000198664,-0.000436829,0.000433392,0.000426759,-0.000430185,642.0776978,642.0776978,706.2478638,706.2478638,-0.000378902,-1.33E-10,3.63E-09,-3.55E-09,-9.42E-10,1.04E-09,2.60E-07,0.93658483,-2.34E-11,-4.04E-06,-3.86E-08,-96.65717316,-13.94838238,1.61E-07,6.03E-10,0.231
1.56E-07,-0.000288065,-0.000287306,-0.000174758,-0.000175263,-0.000405136,0.000402329,0.000406062,-0.000409633,642.0775146,642.0775146,706.2479248,706.2479248,-0.000378902,-1.36E-10,2.37E-09,-2.31E-09,-3.14E-10,3.89E-10,1.54E-07,0.93658483,-1.88E-11,-3.56E-06,-3.06E-08,-96.65717316,-13.94838238,1.24E-07,3.67E-10,0.241
1.57E-07,-0.000218372,-0.00021825,-0.000136137,-0.000136441,-0.000371112,0.000367795,0.000389626,-0.000390996,642.0773926,642.0773926,706.2480469,706.2480469,-0.000378903,-1.35E-10,1.16E-09,-1.12E-09,1.35E-10,-9.52E-11,8.83E-08,0.93658483,7.10E-11,-2.71E-06,-5.59E-09,-96.65717316,-13.94838238,9.39E-08,1.85E-10,0.251
1.58E-07,-0.000138133,-0.000138228,-9.20E-05,-9.22E-05,-0.000340311,0.000337431,0.00038069,-0.000383541,642.0772095,642.0772095,706.2481079,706.2481079,-0.000378904,-1.33E-10,1.41E-10,-1.09E-10,3.66E-10,-3.39E-10,5.24E-08,0.93658483,2.07E-11,-1.76E-06,-3.40E-08,-96.65717316,-13.94838238,7.24E-08,8.98E-11,0.261
1.59E-07,-6.01E-05,-5.99E-05,-4.78E-05,-4.76E-05,-0.000311094,0.000312007,0.000376397,-0.000379007,642.0770874,642.0770874,706.2481079,706.2481079,-0.000378905,-1.32E-10,-6.85E-10,6.86E-10,4.62E-10,-4.43E-10,3.62E-08,0.93658483,-2.93E-11,-8.04E-07,-2.24E-08,-96.65717316,-13.94838238,6.02E-08,-1.71E-11,0.271
1.60E-07,5.82E-06,5.71E-06,-1.41E-05,-1.41E-05,-0.000290676,0.000290092,0.000377251,-0.00037703,642.0770264,642.0770264,706.2481689,706.2481689,-0.000378906,-1.32E-10,-1.32E-09,1.31E-09,4.38E-10,-4.44E-10,3.17E-08,0.93658483,6.80E-12,-6.00E-08,-1.73E-08,-96.65717316,-13.94838238,5.63E-08,-7.73E-11,0.281
1.60E-07,4.82E-05,4.82E-05,5.74E-06,5.88E-06,-0.000277673,0.000276443,0.000379585,-0.000382179,642.0770264,642.0770264,706.2481079,706.2481689,-0.000378907,-1.31E-10,-1.64E-09,1.62E-09,3.13E-10,-3.23E-10,3.40E-08,0.93658483,1.71E-12,4.06E-07,-3.62E-08,-96.65717316,-13.94838238,5.83E-08,-9.45E-11,0.291
1.61E-07,6.87E-05,6.87E-05,1.27E-05,1.28E-05,-0.000273348,0.000273972,0.000386604,-0.000386312,642.0769653,642.0769653,706.2481079,706.2481079,-0.000378908,-1.30E-10,-1.66E-09,1.64E-09,1.10E-10,-1.18E-10,4.03E-08,0.93658483,-3.62E-11,6.22E-07,-1.40E-08,-96.65717316,-13.94838238,6.35E-08,-8.49E-11,0.301
1.62E-07,7.53E-05,7.55E-05,8.37E-06,8.74E-06,-0.000276094,0.000276461,0.000395065,-0.000395469,642.0769653,642.0769653,706.2480469,706.2480469,-0.000378908,-1.27E-10,-1.51E-09,1.50E-09,-1.35E-10,1.47E-10,4.86E-08,0.93658483,-6.82E-11,6.36E-07,-5.26E-08,-96.65717316,-13.94838238,6.98E-08,-4.75E-11,0.311
1.63E-07,7.62E-05,7.63E-05,-4.84E-06,-4.44E-06,-0.000280018,0.000278331,0.000405341,-0.000405742,642.0769653,642.0769653,706.2479858,706.2480469,-0.000378909,-1.23E-10,-1.33E-09,1.32E-09,-4.33E-10,4.45E-10,5.70E-08,0.93658483,-1.88E-11,5.40E-07,-1.01E-11,-96.65717316,-13.94838238,7.55E-08,-6.79E-11,0.321
1.65E-07,7.37E-05,7.37E-05,-1.85E-05,-1.82E-05,-0.000283092,0.000283676,0.00041642,-0.000417076,642.0769653,642.0769653,706.2479858,706.2479858,-0.000378908,-1.23E-10,-1.18E-09,1.16E-09,-6.98E-10,6.89E-10,6.43E-08,0.93658483,4.58E-12,4.25E-07,-1.43E-08,-96.65717316,-13.94838238,8.02E-08,-9.78E-11,0.331
1.66E-07,6.78E-05,6.77E-05,-2.77E-05,-2.77E-05,-0.000287128,0.0002871,0.0004239,-0.000424905,642.0769653,642.0769653,706.2479248,706.2479248,-0.000378908,-1.24E-10,-1.05E-09,1.02E-09,-8.59E-10,8.32E-10,7.01E-08,0.93658483,1.44E-11,3.18E-07,-4.71E-08,-96.65717316,-13.94838238,8.37E-08,-1.07E-10,0.341
1.67E-07,5.81E-05,5.83E-05,-3.27E-05,-3.26E-05,-0.000286641,0.000287853,0.000427436,-0.000428593,642.0769653,642.0769653,706.2479248,706.2479248,-0.000378908,-1.26E-10,-9.43E-10,9.05E-10,-9.06E-10,8.83E-10,7.42E-08,0.93658483,3.28E-13,1.96E-07,1.16E-09,-96.65717316,-13.94838238,8.61E-08,-9.09E-11,0.351
1.68E-07,4.60E-05,4.60E-05,-3.41E-05,-3.43E-05,-0.000291855,0.000292605,0.000431009,-0.000428424,642.0769653,642.0769653,706.2478638,706.2478638,-0.000378907,-1.27E-10,-8.41E-10,8.17E-10,-8.71E-10,8.51E-10,7.65E-08,0.93658483,7.86E-12,9.68E-08,9.56E-09,-96.65717316,-13.94838238,8.75E-08,-6.36E-11,0.361
1.69E-07,3.25E-05,3.26E-05,-3.33E-05,-3.33E-05,-0.000291669,0.000293098,0.000426582,-0.000426591,642.0769653,642.0769653,706.2478638,706.2478638,-0.000378907,-1.26E-10,-7.55E-10,7.41E-10,-7.70E-10,7.70E-10,7.72E-08,0.93658483,-1.71E-11,-9.75E-09,1.15E-09,-96.65717316,-13.94838238,8.79E-08,-4.72E-11,0.371
1.70E-07,1.93E-05,1.95E-05,-3.02E-05,-3.00E-05,-0.000294932,0.000297177,0.000421995,-0.000422443,642.0769653,642.0769653,706.2478638,706.2478638,-0.000378907,-1.23E-10,-6.84E-10,6.75E-10,-6.37E-10,6.50E-10,7.64E-08,0.93658483,9.62E-12,-8.49E-08,1.53E-08,-96.65717316,-13.94838238,8.74E-08,-3.14E-11,0.381
1.71E-07,7.79E-06,7.51E-06,-2.43E-05,-2.43E-05,-0.000296918,0.000295868,0.000417979,-0.000417823,642.0769653,642.0769653,706.2478638,706.2478638,-0.000378907,-1.21E-10,-6.22E-10,6.24E-10,-4.93E-10,4.88E-10,7.46E-08,0.93658483,1.16E-10,-1.30E-07,5.52E-08,-96.65717316,-13.94838238,8.63E-08,-5.62E-11,0.391
1.71E-07,-1.86E-06,-2.24E-06,-1.65E-05,-1.67E-05,-0.000298294,0.000296516,0.000413612,-0.000411042,642.0769653,642.0769653,706.2478638,706.2478638,-0.000378907,-1.21E-10,-5.79E-10,5.73E-10,-3.39E-10,3.19E-10,7.22E-08,0.93658483,4.34E-11,-1.47E-07,3.37E-08,-96.65717316,-13.94838238,8.50E-08,-4.29E-11,0.401
1.72E-07,-9.20E-06,-9.29E-06,-8.05E-06,-8.11E-06,-0.000299311,0.00029965,0.000409859,-0.000408764,642.0769653,642.0769653,706.2478638,706.2479248,-0.000378907,-1.21E-10,-5.47E-10,5.36E-10,-1.75E-10,1.70E-10,7.00E-08,0.93658483,-3.18E-11,-1.42E-07,-1.12E-08,-96.65717316,-13.94838238,8.36E-08,4.37E-13,0.411
1.73E-07,-1.37E-05,-1.36E-05,-6.04E-07,-5.73E-07,-0.000299421,0.000300682,0.000403728,-0.00040391,642.0769653,642.0769653,706.2479248,706.2479248,-0.000378907,-1.20E-10,-5.13E-10,5.04E-10,-5.19E-11,5.72E-11,6.80E-08,0.93658483,1.23E-11,-1.06E-07,7.93E-09,-96.65717316,-13.94838238,8.24E-08,2.46E-11,0.421
1.74E-07,-1.58E-05,-1.58E-05,7.15E-06,7.16E-06,-0.000303398,0.000299788,0.000400491,-0.000402487,642.0770264,642.0770264,706.2479248,706.2479248,-0.000378907,-1.21E-10,-4.80E-10,4.71E-10,4.19E-11,-3.89E-11,6.65E-08,0.93658483,-3.22E-11,-7.49E-08,1.16E-08,-96.65717316,-13.94838238,8.16E-08,2.63E-11,0.431
1.75E-07,-1.66E-05,-1.66E-05,1.50E-05,1.49E-05,-0.000304445,0.000302904,0.000396983,-0.000395747,642.0770264,642.0770264,706.2479858,706.2479858,-0.000378907,-1.23E-10,-4.47E-10,4.35E-10,1.16E-10,-1.24E-10,6.59E-08,0.93658483,-1.38E-11,-1.76E-08,-1.61E-08,-96.65717316,-13.94838238,8.12E-08,2.08E-11,0.441
1.76E-07,-1.64E-05,-1.64E-05,2.12E-05,2.11E-05,-0.000305505,0.000303989,0.000395062,-0.000393859,642.0770264,642.0770264,706.2479858,706.2479858,-0.000378907,-1.25E-10,-4.14E-10,4.01E-10,1.72E-10,-1.79E-10,6.61E-08,0.93658483,-1.44E-11,3.33E-08,4.87E-08,-96.65717316,-13.94838238,8.13E-08,1.32E-11,0.451
1.77E-07,-1.57E-05,-1.55E-05,2.51E-05,2.51E-05,-0.000304357,0.000306914,0.000392113,-0.000392964,642.0770264,642.0770264,706.2479858,706.2479858,-0.000378907,-1.26E-10,-3.89E-10,3.70E-10,2.02E-10,-2.05E-10,6.71E-08,0.93658483,7.68E-12,6.97E-08,-2.05E-08,-96.65717316,-13.94838238,8.19E-08,2.11E-12,0.461
1.78E-07,-1.44E-05,-1.45E-05,2.63E-05,2.60E-05,-0.000305284,0.000305349,0.000391247,-0.000390096,642.0770264,642.0770264,706.2479858,706.2480469,-0.000378907,-1.26E-10,-3.60E-10,3.58E-10,2.00E-10,-2.05E-10,6.84E-08,0.93658483,4.22E-11,7.81E-08,-2.63E-09,-96.65717316,-13.94838238,8.27E-08,7.66E-12,0.471
1.78E-07,-1.31E-05,-1.30E-05,2.47E-05,2.46E-05,-0.000308288,0.00030796,0.000392202,-0.000391911,642.0770264,642.0770264,706.2480469,706.2480469,-0.000378907,-1.27E-10,-3.58E-10,3.37E-10,1.72E-10,-1.80E-10,6.99E-08,0.93658483,-7.17E-11,8.85E-08,-2.29E-08,-96.65717316,-13.94838238,8.36E-08,-6.16E-11,0.481
1.79E-07,-1.15E-05,-1.15E-05,2.09E-05,2.09E-05,-0.000306449,0.00030797,0.000391823,-0.000391658,642.0770264,642.0770264,706.2480469,706.2480469,-0.000378907,-1.26E-10,-3.54E-10,3.37E-10,1.27E-10,-1.32E-10,7.12E-08,0.93658483,9.82E-12,7.50E-08,-2.12E-08,-96.65717316,-13.94838238,8.44E-08,-4.34E-11,0.491
1.80E-07,-9.81E-06,-9.75E-06,1.61E-05,1.61E-05,-0.000311086,0.000308578,0.000391714,-0.000392691,642.0770874,642.0770264,706.2480469,706.2480469,-0.000378907,-1.25E-10,-3.61E-10,3.48E-10,7.44E-11,-7.41E-11,7.22E-08,0.93658483,-4.17E-11,4.79E-08,-5.52E-08,-96.65717316,-13.94838238,8.50E-08,-3.07E-11,0.501
1.81E-07,-7.99E-06,-7.89E-06,1.06E-05,1.07E-05,-0.000309368,0.000308094,0.000395803,-0.00039364,642.0770874,642.0770264,706.2479858,706.2480469,-0.000378907,-1.24E-10,-3.84E-10,3.64E-10,1.18E-11,-1.86E-11,7.28E-08,0.93658483,-4.10E-11,1.91E-08,4.33E-08,-96.65717316,-13.94838238,8.53E-08,-7.45E-11,0.511
1.82E-07,-6.18E-06,-5.94E-06,4.97E-06,5.23E-06,-0.0003084,0.00030837,0.000397791,-0.000399495,642.0770874,642.0770264,706.2479858,706.2479858,-0.000378907,-1.25E-10,-4.14E-10,3.85E-10,-4.59E-11,3.97E-11,7.29E-08,0.93658483,-3.81E-11,-7.87E-10,-2.90E-08,-96.65717316,-13.94838238,8.54E-08,-6.44E-11,0.521
1.83E-07,-4.08E-06,-3.98E-06,-2.24E-09,1.65E-07,-0.000308418,0.000308185,0.000399633,-0.00039838,642.0770264,642.0770264,706.2479858,706.2479858,-0.000378907,-1.24E-10,-4.44E-10,4.21E-10,-9.93E-11,9.09E-11,7.26E-08,0.93658483,-1.94E-11,-3.50E-08,-6.21E-09,-96.65717316,-13.94838238,8.52E-08,-4.59E-11,0.531
1.84E-07,-1.87E-06,-1.83E-06,-4.43E-06,-4.30E-06,-0.000304541,0.000305942,0.00040215,-0.000401113,642.0770264,642.0770264,706.2479858,706.2479858,-0.000378907,-1.23E-10,-4.75E-10,4.61E-10,-1.44E-10,1.42E-10,7.19E-08,0.93658483,2.28E-11,-4.42E-08,3.28E-08,-96.65717316,-13.94838238,8.48E-08,-3.58E-11,0.541
1.84E-07,6.62E-07,3.73E-07,-7.85E-06,-8.02E-06,-0.000304506,0.000304724,0.000403886,-0.000402376,642.0770264,642.0770264,706.2479858,706.2479858,-0.000378907,-1.23E-10,-5.06E-10,4.99E-10,-1.95E-10,1.79E-10,7.10E-08,0.93658483,7.27E-11,-5.15E-08,1.49E-08,-96.65717316,-13.94838238,8.43E-08,-4.12E-11,0.551
1.85E-07,2.95E-06,2.84E-06,-1.01E-05,-1.02E-05,-0.000302369,0.000302734,0.000403846,-0.000402661,642.0770264,642.0770264,706.2479858,706.2479858,-0.000378907,-1.23E-10,-5.43E-10,5.31E-10,-2.21E-10,2.15E-10,7.01E-08,0.93658483,3.24E-13,-5.63E-08,1.93E-08,-96.65717316,-13.94838238,8.37E-08,-1.22E-11,0.561
1.86E-07,5.06E-06,4.91E-06,-1.09E-05,-1.11E-05,-0.000302281,0.000302477,0.000402366,-0.000403204,642.0770264,642.0770264,706.2479858,706.2479858,-0.000378907,-1.22E-10,-5.76E-10,5.69E-10,-2.34E-10,2.31E-10,6.93E-08,0.93658483,3.77E-11,-4.54E-08,-3.69E-08,-96.65717316,-13.94838238,8.33E-08,8.68E-14,0.571
1.87E-07,6.39E-06,6.23E-06,-1.10E-05,-1.12E-05,-0.000303342,0.000303443,0.000406321,-0.000406215,642.0770264,642.0770264,706.2479858,706.2479858,-0.000378907,-1.22E-10,-6.03E-10,5.99E-10,-2.38E-10,2.35E-10,6.87E-08,0.93658483,1.26E-11,-2.52E-08,-5.69E-09,-96.65717316,-13.94838238,8.29E-08,1.52E-11,0.581
1.88E-07,6.76E-06,6.79E-06,-1.08E-05,-1.08E-05,-0.00030176,0.000299021,0.000404067,-0.000406236,642.0770264,642.0770264,706.2479858,706.2479858,-0.000378907,-1.21E-10,-6.22E-10,6.17E-10,-2.28E-10,2.35E-10,6.81E-08,0.93658483,-3.17E-11,-2.82E-08,-2.82E-08,-96.65717316,-13.94838238,8.25E-08,2.71E-11,0.591
1.89E-07,6.54E-06,6.84E-06,-1.04E-05,-1.02E-05,-0.00029829,0.00030112,0.000405999,-0.000405874,642.0770264,642.0770264,706.2479858,706.2479858,-0.000378907,-1.23E-10,-6.40E-10,6.12E-10,-2.28E-10,2.25E-10,6.77E-08,0.93658483,-2.92E-11,-1.76E-08,-4.22E-08,-96.65717316,-13.94838238,8.23E-08,-1.49E-11,0.601
1.89E-07,6.31E-06,6.52E-06,-9.46E-06,-9.35E-06,-0.00030026,0.000299032,0.000403783,-0.000403598,642.0770264,642.0770264,706.2479858,706.2479858,-0.000378907,-1.25E-10,-6.39E-10,6.17E-10,-2.20E-10,2.14E-10,6.73E-08,0.93658483,-3.40E-11,-3.21E-08,8.02E-09,-96.65717316,-13.94838238,8.20E-08,1.05E-11,0.611
1.90E-07,5.79E-06,6.30E-06,-8.45E-06,-8.10E-06,-0.000300258,0.000299131,0.000405046,-0.000405371,642.0770264,642.0770264,706.2479858,706.2479858,-0.000378907,-1.25E-10,-6.39E-10,6.13E-10,-2.01E-10,2.10E-10,6.69E-08,0.93658483,-1.27E-10,-2.01E-08,-5.45E-09,-96.65717316,-13.94838238,8.18E-08,7.75E-12,0.621
1.91E-07,5.30E-06,5.74E-06,-7.03E-06,-6.68E-06,-0.000301503,0.000301165,0.000406433,-0.000404931,642.0770264,642.0770264,706.2479858,706.2479858,-0.000378907,-1.25E-10,-6.30E-10,6.10E-10,-1.85E-10,1.97E-10,6.67E-08,0.93658483,-9.53E-11,-2.57E-10,6.28E-09,-96.65717316,-13.94838238,8.17E-08,1.37E-11,0.631
1.92E-07,4.66E-06,5.07E-06,-5.49E-06,-5.11E-06,-0.000300869,0.000299518,0.000403035,-0.000404424,642.0770264,642.0770264,706.2479858,706.2479858,-0.000378907,-1.25E-10,-6.20E-10,6.01E-10,-1.70E-10,1.83E-10,6.66E-08,0.93658483,-8.03E-11,-5.29E-09,-2.34E-08,-96.65717316,-13.94838238,8.16E-08,2.98E-12,0.641
1.93E-07,4.03E-06,4.27E-06,-3.80E-06,-3.62E-06,-0.000300125,0.000300135,0.00040392,-0.000405401,642.0770264,642.0770264,706.2479858,706.2479858,-0.000378907,-1.27E-10,-6.13E-10,5.82E-10,-1.68E-10,1.56E-10,6.66E-08,0.93658483,8.47E-12,1.36E-08,-8.33E-09,-96.65717316,-13.94838238,8.16E-08,-6.62E-11,0.651
1.94E-07,3.46E-06,3.25E-06,-1.96E-06,-2.21E-06,-0.000301674,0.000302475,0.000403768,-0.00040545,642.0770264,642.0770264,706.2479858,706.2479858,-0.000378907,-1.29E-10,-5.95E-10,5.69E-10,-1.64E-10,1.29E-10,6.67E-08,0.93658483,1.30E-10,2.10E-08,-1.00E-08,-96.65717316,-13.94838238,8.17E-08,-7.51E-11,0.661
1.94E-07,2.69E-06,2.51E-06,-6.72E-07,-9.92E-07,-0.000300278,0.00030287,0.000403149,-0.000402364,642.0770264,642.0770264,706.2479858,706.2479858,-0.000378907,-1.30E-10,-5.78E-10,5.57E-10,-1.46E-10,1.23E-10,6.69E-08,0.93658483,2.52E-11,1.28E-08,-1.37E-08,-96.65717316,-13.94838238,8.18E-08,-5.75E-11,0.671
1.95E-07,1.92E-06,1.76E-06,2.55E-07,-2.41E-08,-0.000300876,0.000301349,0.000402652,-0.000403218,642.0770264,642.0770264,706.2479858,706.2479858,-0.000378907,-1.28E-10,-5.59E-10,5.44E-10,-1.31E-10,1.20E-10,6.71E-08,0.93658483,5.27E-11,1.74E-08,2.61E-08,-96.65717316,-13.94838238,8.19E-08,-7.75E-11,0.681
1.96E-07,1.27E-06,1.04E-06,9.84E-07,6.84E-07,-0.000302231,0.000302763,0.000400573,-0.000401871,642.0770264,642.0770264,706.2479858,706.2479858,-0.000378907,-1.27E-10,-5.47E-10,5.30E-10,-1.27E-10,1.09E-10,6.74E-08,0.93658483,6.18E-11,1.52E-08,-4.19E-08,-96.65717316,-13.94838238,8.21E-08,-9.70E-11,0.691
1.97E-07,6.21E-07,3.86E-07,1.44E-06,1.18E-06,-0.000303467,0.000302182,0.000402337,-0.000401545,642.0770264,642.0770264,706.2479858,706.2479858,-0.000378907,-1.26E-10,-5.38E-10,5.18E-10,-1.22E-10,9.91E-11,6.76E-08,0.93658483,-1.07E-11,1.56E-08,1.15E-08,-96.65717316,-13.94838238,8.22E-08,-1.31E-10,0.701
1.98E-07,-1.09E-07,-1.34E-07,1.40E-06,1.45E-06,-0.00030181,0.000301539,0.000401012,-0.000401649,642.0770264,642.0770264,706.2479858,706.2479858,-0.000378907,-1.25E-10,-5.30E-10,5.08E-10,-1.11E-10,1.02E-10,6.78E-08,0.93658483,2.36E-12,1.08E-08,-2.15E-08,-96.65717316,-13.94838238,8.23E-08,-8.15E-11,0.711
1.99E-07,-7.03E-07,-5.56E-07,1.31E-06,1.55E-06,-0.000303966,0.000302792,0.000402718,-0.000399768,642.0770264,642.0770264,706.2479858,706.2479858,-0.000378907,-1.22E-10,-5.23E-10,4.99E-10,-1.05E-10,1.03E-10,6.79E-08,0.93658483,-1.03E-10,9.31E-09,6.35E-08,-96.65717316,-13.94838238,8.24E-08,-8.28E-11,0.721
1.99E-07,-1.30E-06,-6.66E-07,8.97E-07,1.65E-06,-0.000303909,0.000305035,0.000401376,-0.000399065,642.0770264,642.0770264,706.2479858,706.2479858,-0.000378907,-1.21E-10,-5.25E-10,4.89E-10,-9.42E-11,1.11E-10,6.80E-08,0.93658483,-1.89E-10,-7.03E-09,4.32E-08,-96.65717316,-13.94838238,8.25E-08,-4.07E-11,0.731
2.00E-07,-1.43E-06,-1.06E-06,6.08E-07,1.23E-06,-0.000303125,0.000305921,0.000399641,-0.000401756,642.0770264,642.0770264,706.2479858,706.2479858,-0.000378907,-1.20E-10,-5.19E-10,4.92E-10,-9.95E-11,1.05E-10,6.80E-08,0.93658483,4.09E-11,-2.68E-09,-1.38E-08,-96.65717316,-13.94838238,8.25E-08,-2.74E-11,0.741
2.01E-07,-1.18E-06,-1.42E-06,3.83E-07,3.31E-07,-0.000303201,0.000304842,0.000402268,-0.000402208,642.0770264,642.0770264,706.2479858,706.2479858,-0.000378907,-1.22E-10,-5.17E-10,4.96E-10,-1.20E-10,9.06E-11,6.79E-08,0.93658483,1.13E-10,-7.17E-09,-1.27E-08,-96.65717316,-13.94838238,8.24E-08,-3.24E-11,0.751
2.02E-07,-1.01E-06,-1.31E-06,3.21E-10,-3.22E-07,-0.000304127,0.000304724,0.000400481,-0.000401386,642.0770264,642.0770264,706.2479858,706.2479858,-0.000378907,-1.24E-10,-5.18E-10,4.99E-10,-1.24E-10,9.45E-11,6.78E-08,0.93658483,6.49E-11,-6.90E-09,-3.03E-08,-96.65717316,-13.94838238,8.23E-08,-1.35E-11,0.761
2.03E-07,-6.32E-07,-9.63E-07,-3.90E-07,-9.11E-07,-0.000303996,0.000303607,0.000402594,-0.000401545,642.0770264,642.0770264,706.2479858,706.2479858,-0.000378907,-1.27E-10,-5.22E-10,5.04E-10,-1.30E-10,9.91E-11,6.76E-08,0.93658483,8.37E-11,-1.09E-08,2.26E-08,-96.65717316,-13.94838238,8.22E-08,-2.00E-11,0.771
2.03E-07,-2.47E-07,-4.59E-07,-7.65E-07,-1.25E-06,-0.000303896,0.000304338,0.000402533,-0.000401922,642.0770264,642.0770264,706.2479858,706.2479858,-0.000378907,-1.28E-10,-5.25E-10,5.11E-10,-1.28E-10,1.10E-10,6.74E-08,0.93658483,6.70E-12,-5.74E-09,-3.47E-08,-96.65717316,-13.94838238,8.21E-08,-2.31E-12,0.781
2.04E-07,-4.17E-08,2.97E-07,-1.36E-06,-1.29E-06,-0.000303636,0.000303217,0.000400213,-0.000400686,642.0770264,642.0770264,706.2479858,706.2479858,-0.000378907,-1.26E-10,-5.33E-10,5.16E-10,-1.16E-10,1.30E-10,6.73E-08,0.93658483,-1.20E-10,-1.81E-08,-2.58E-08,-96.65717316,-13.94838238,8.20E-08,3.65E-12,0.791
2.05E-07,2.86E-07,8.42E-07,-1.97E-06,-1.50E-06,-0.00030529,0.000304083,0.000402183,-0.000401957,642.0770264,642.0770264,706.2479858,706.2479858,-0.000378907,-1.24E-10,-5.42E-10,5.19E-10,-1.18E-10,1.39E-10,6.72E-08,0.93658483,-1.17E-10,-7.78E-09,2.24E-08,-96.65717316,-13.94838238,8.19E-08,-6.41E-12,0.801
2.06E-07,6.22E-07,1.21E-06,-2.39E-06,-1.71E-06,-0.000303213,0.000302002,0.000401353,-0.000401175,642.0770264,642.0770264,706.2479858,706.2479858,-0.000378907,-1.22E-10,-5.46E-10,5.24E-10,-1.21E-10,1.44E-10,6.70E-08,0.93658483,-1.34E-10,-1.45E-08,7.99E-09,-96.65717316,-13.94838238,8.19E-08,-6.29E-12,0.811
2.07E-07,9.57E-07,1.63E-06,-2.82E-06,-1.99E-06,-0.000301855,0.000304022,0.000402662,-0.00040309,642.0770264,642.0770264,706.2479858,706.2479858,-0.000378907,-1.21E-10,-5.59E-10,5.21E-10,-1.32E-10,1.44E-10,6.69E-08,0.93658483,-1.28E-10,-7.55E-09,-3.47E-08,-96.65717316,-13.94838238,8.18E-08,-2.90E-11,0.821
2.08E-07,1.39E-06,1.82E-06,-2.97E-06,-2.35E-06,-0.000305564,0.000301964,0.000403091,-0.000401017,642.0770264,642.0770264,706.2479858,706.2479858,-0.000378907,-1.23E-10,-5.63E-10,5.25E-10,-1.44E-10,1.39E-10,6.68E-08,0.93658483,-1.06E-10,3.19E-09,7.26E-08,-96.65717316,-13.94838238,8.17E-08,-3.30E-11,0.831
2.08E-07,1.58E-06,2.17E-06,-3.15E-06,-2.59E-06,-0.000302413,0.000303939,0.00040322,-0.000401131,642.0770264,642.0770264,706.2479858,706.2479858,-0.000378907,-1.25E-10,-5.71E-10,5.24E-10,-1.48E-10,1.43E-10,6.66E-08,0.93658483,-1.35E-10,-1.16E-08,1.46E-08,-96.65717316,-13.94838238,8.16E-08,-1.01E-11,0.841
2.09E-07,1.87E-06,2.17E-06,-3.05E-06,-2.80E-06,-0.000302638,0.000303555,0.000401304,-0.000403145,642.0770264,642.0770264,706.2479858,706.2479858,-0.000378907,-1.26E-10,-5.64E-10,5.36E-10,-1.48E-10,1.46E-10,6.65E-08,0.93658483,3.60E-12,-9.57E-09,-8.11E-08,-96.65717316,-13.94838238,8.16E-08,2.58E-11,0.851
2.10E-07,2.04E-06,2.05E-06,-2.81E-06,-2.92E-06,-0.000302807,0.000303344,0.000401433,-0.000401102,642.0770264,642.0770264,706.2479858,706.2479858,-0.000378907,-1.27E-10,-5.59E-10,5.42E-10,-1.51E-10,1.42E-10,6.64E-08,0.93658483,3.41E-11,-6.29E-09,2.14E-08,-96.65717316,-13.94838238,8.15E-08,-7.68E-12,0.861
2.11E-07,2.03E-06,2.10E-06,-2.79E-06,-2.88E-06,-0.000302778,0.000301448,0.000400367,-0.000403164,642.0770264,642.0770264,706.2479858,706.2479858,-0.000378907,-1.27E-10,-5.60E-10,5.41E-10,-1.49E-10,1.46E-10,6.63E-08,0.93658483,1.66E-11,-5.46E-09,1.01E-08,-96.65717316,-13.94838238,8.14E-08,-1.06E-11,0.871
2.12E-07,2.05E-06,2.08E-06,-2.61E-06,-2.74E-06,-0.000301682,0.000302547,0.000401446,-0.000401047,642.0770264,642.0770264,706.2479858,706.2479858,-0.000378907,-1.28E-10,-5.64E-10,5.37E-10,-1.52E-10,1.40E-10,6.62E-08,0.93658483,1.41E-11,-1.21E-08,1.88E-08,-96.65717316,-13.94838238,8.14E-08,-5.15E-11,0.881
2.12E-07,2.16E-06,1.88E-06,-2.41E-06,-2.73E-06,-0.000301815,0.000301423,0.000401571,-0.000400827,642.0770264,642.0770264,706.2479858,706.2479858,-0.000378907,-1.28E-10,-5.60E-10,5.42E-10,-1.56E-10,1.34E-10,6.62E-08,0.93658483,7.16E-11,-9.72E-09,2.18E-08,-96.65717316,-13.94838238,8.13E-08,-7.19E-11,0.891
2.13E-07,2.14E-06,1.72E-06,-2.30E-06,-2.75E-06,-0.000301849,0.000303402,0.000401724,-0.000400653,642.0770264,642.0770264,706.2479858,706.2479858,-0.000378907,-1.28E-10,-5.59E-10,5.40E-10,-1.60E-10,1.29E-10,6.61E-08,0.93658483,1.02E-10,-5.92E-09,2.27E-08,-96.65717316,-13.94838238,8.13E-08,-8.36E-11,0.901
2.14E-07,2.00E-06,1.61E-06,-2.14E-06,-2.55E-06,-0.000300939,0.00030148,0.00040156,-0.000400676,642.0770264,642.0770264,706.2479858,706.2479858,-0.000378907,-1.27E-10,-5.57E-10,5.40E-10,-1.55E-10,1.30E-10,6.60E-08,0.93658483,7.61E-11,-1.27E-08,3.36E-08,-96.65717316,-13.94838238,8.13E-08,-8.94E-11,0.911
2.15E-07,1.80E-06,1.45E-06,-1.95E-06,-2.35E-06,-0.000302863,0.000303553,0.000400541,-0.000400553,642.0770264,642.0770264,706.2479858,706.2479858,-0.000378907,-1.27E-10,-5.57E-10,5.36E-10,-1.54E-10,1.26E-10,6.60E-08,0.93658483,5.47E-11,-8.98E-09,-4.37E-09,-96.65717316,-13.94838238,8.12E-08,-1.09E-10,0.921
2.16E-07,1.70E-06,1.28E-06,-1.86E-06,-2.25E-06,-0.000302961,0.000303567,0.000401474,-0.000402408,642.0770264,642.0770264,706.2479858,706.2479858,-0.000378907,-1.26E-10,-5.54E-10,5.35E-10,-1.53E-10,1.24E-10,6.59E-08,0.93658483,1.08E-10,-2.90E-09,-6.11E-09,-96.65717316,-13.94838238,8.12E-08,-1.05E-10,0.931
2.17E-07,1.62E-06,1.11E-06,-1.67E-06,-2.15E-06,-0.000303006,0.000301657,0.000399607,-0.000402191,642.0770264,642.0770264,706.2479858,706.2479858,-0.000378907,-1.25E-10,-5.53E-10,5.34E-10,-1.54E-10,1.18E-10,6.58E-08,0.93658483,1.15E-10,-7.23E-09,-4.12E-08,-96.65717316,-13.94838238,8.11E-08,-1.23E-10,0.941
2.17E-07,1.43E-06,1.04E-06,-1.55E-06,-1.98E-06,-0.000302895,0.000303814,0.000400572,-0.000402056,642.0770264,642.0770264,706.2479858,706.2479858,-0.000378907,-1.26E-10,-5.56E-10,5.28E-10,-1.54E-10,1.14E-10,6.58E-08,0.93658483,8.45E-11,-5.92E-09,-7.34E-09,-96.65717316,-13.94838238,8.11E-08,-1.31E-10,0.951
2.18E-07,1.34E-06,9.37E-07,-1.45E-06,-1.92E-06,-0.000302864,0.000303926,0.000401612,-0.00040189,642.0770264,642.0770264,706.2479858,706.2479858,-0.000378907,-1.27E-10,-5.57E-10,5.24E-10,-1.57E-10,1.09E-10,6.57E-08,0.93658483,1.11E-10,-2.73E-09,8.55E-09,-96.65717316,-13.94838238,8.11E-08,-1.40E-10,0.961
2.19E-07,1.33E-06,8.44E-07,-1.36E-06,-1.90E-06,-0.000302072,0.000303789,0.000401488,-0.000400988,642.0770264,642.0770264,706.2479858,706.2479858,-0.000378907,-1.26E-10,-5.52E-10,5.28E-10,-1.53E-10,1.11E-10,6.56E-08,0.93658483,1.14E-10,-5.29E-09,8.96E-10,-96.65717316,-13.94838238,8.10E-08,-1.18E-10,0.971
2.20E-07,1.26E-06,8.12E-07,-1.33E-06,-1.82E-06,-0.000302221,0.000303718,0.000401302,-0.000401134,642.0770264,642.0770264,706.2479858,706.2479858,-0.000378907,-1.25E-10,-5.47E-10,5.31E-10,-1.48E-10,1.15E-10,6.56E-08,0.93658483,1.14E-10,-5.60E-09,2.01E-08,-96.65717316,-13.94838238,8.10E-08,-1.05E-10,0.981
2.21E-07,1.18E-06,8.77E-07,-1.32E-06,-1.68E-06,-0.000301188,0.000303834,0.000399311,-0.000400206,642.0770264,642.0770264,706.2479858,706.2479858,-0.000378907,-1.24E-10,-5.49E-10,5.27E-10,-1.46E-10,1.16E-10,6.55E-08,0.93658483,7.27E-11,-1.00E-08,-2.67E-08,-96.65717316,-13.94838238,8.09E-08,-1.11E-10,0.991
2.21E-07,1.18E-06,8.64E-07,-1.25E-06,-1.59E-06,-0.000303054,0.000303938,0.00040326,-0.000401963,642.0770264,642.0770264,706.2479858,706.2479858,-0.000378907,-1.23E-10,-5.51E-10,5.24E-10,-1.49E-10,1.11E-10,6.55E-08,0.93658483,4.83E-11,1.56E-09,4.17E-08,-96.65717316,-13.94838238,8.09E-08,-1.26E-10,1.001
2.22E-07,1.15E-06,8.09E-07,-1.26E-06,-1.58E-06,-0.000303086,0.000303923,0.000401321,-0.000401946,642.0770264,642.0770264,706.2479858,706.2479858,-0.000378907,-1.23E-10,-5.50E-10,5.24E-10,-1.48E-10,1.11E-10,6.54E-08,0.93658483,7.47E-11,4.82E-09,-2.50E-08,-96.65717316,-13.94838238,8.09E-08,-1.02E-10,1.011
2.23E-07,1.15E-06,8.21E-07,-1.37E-06,-1.69E-06,-0.000301191,0.000302934,0.000401339,-0.000400091,642.0770264,642.0770264,706.2479858,706.2479858,-0.000378907,-1.23E-10,-5.49E-10,5.25E-10,-1.49E-10,1.13E-10,6.54E-08,0.93658483,9.42E-11,-9.72E-09,4.92E-08,-96.65717316,-13.94838238,8.09E-08,-8.12E-11,1.021
2.24E-07,1.24E-06,8.13E-07,-1.37E-06,-1.79E-06,-0.000302274,0.000303778,0.000401353,-0.000402041,642.0770264,642.0770264,706.2479858,706.2479858,-0.000378907,-1.23E-10,-5.46E-10,5.29E-10,-1.49E-10,1.13E-10,6.53E-08,0.93658483,1.08E-10,8.15E-10,-4.37E-08,-96.65717316,-13.94838238,8.08E-08,-7.04E-11,1.031
2.25E-07,1.22E-06,9.12E-07,-1.45E-06,-1.82E-06,-0.000303158,0.000303833,0.000401331,-0.000401145,642.0770264,642.0770264,706.2479858,706.2479858,-0.000378907,-1.23E-10,-5.48E-10,5.27E-10,-1.49E-10,1.15E-10,6.52E-08,0.93658483,6.54E-11,-6.04E-09,1.77E-08,-96.65717316,-13.94838238,8.08E-08,-6.60E-11,1.041
2.25E-07,1.24E-06,9.47E-07,-1.53E-06,-1.89E-06,-0.000302192,0.000302861,0.000403281,-0.00040214,642.0770264,642.0770264,706.2479858,706.2479858,-0.000378907,-1.23E-10,-5.48E-10,5.27E-10,-1.49E-10,1.16E-10,6.52E-08,0.93658483,8.17E-11,5.40E-09,5.67E-08,-96.65717316,-13.94838238,8.07E-08,-5.64E-11,1.051
2.26E-07,1.30E-06,9.56E-07,-1.52E-06,-1.97E-06,-0.000303155,0.000303774,0.000399499,-0.000401126,642.0770264,642.0770264,706.2479858,706.2479858,-0.000378907,-1.24E-10,-5.48E-10,5.29E-10,-1.51E-10,1.15E-10,6.51E-08,0.93658483,5.93E-11,-1.44E-09,-6.53E-08,-96.65717316,-13.94838238,8.07E-08,-6.81E-11,1.061
2.27E-07,1.19E-06,1.14E-06,-1.75E-06,-1.98E-06,-0.00030093,0.000304009,0.000401457,-0.000402128,642.0770264,642.0770264,706.2479858,706.2479858,-0.000378907,-1.26E-10,-5.57E-10,5.22E-10,-1.52E-10,1.16E-10,6.50E-08,0.93658483,4.66E-11,-6.66E-09,-3.68E-08,-96.65717316,-13.94838238,8.06E-08,-6.77E-11,1.071
2.28E-07,1.29E-06,1.09E-06,-1.79E-06,-2.10E-06,-0.000302101,0.000301873,0.000402392,-0.000401273,642.0770264,642.0770264,706.2479858,706.2479858,-0.000378907,-1.26E-10,-5.51E-10,5.28E-10,-1.51E-10,1.19E-10,6.49E-08,0.93658483,1.74E-11,-3.63E-09,-4.43E-09,-96.65717316,-13.94838238,8.06E-08,-5.11E-11,1.081
2.29E-07,1.31E-06,1.22E-06,-1.86E-06,-2.08E-06,-0.00030307,0.000301809,0.00040131,-0.000400469,642.0770264,642.0770264,706.2479858,706.2479858,-0.000378907,-1.25E-10,-5.51E-10,5.30E-10,-1.48E-10,1.24E-10,6.48E-08,0.93658483,-2.95E-12,-1.12E-08,3.88E-08,-96.65717316,-13.94838238,8.05E-08,-5.48E-11,1.091
2.29E-07,1.32E-06,1.29E-06,-1.91E-06,-2.02E-06,-0.000302006,0.000303804,0.000401331,-0.000401414,642.0770264,642.0770264,706.2479858,706.2479858,-0.000378907,-1.25E-10,-5.54E-10,5.28E-10,-1.49E-10,1.23E-10,6.48E-08,0.93658483,4.96E-11,-7.86E-09,1.54E-08,-96.65717316,-13.94838238,8.05E-08,-7.21E-11,1.101
3.10E-06,-1.446878433,-1.446878552,2.750269651,2.750269413,0.143297091,-0.143297166,-1.707517385,1.70751822,641.968811,641.968811,698.8156738,698.8156738,-0.000389792,-1.24E-10,-4.21E-06,4.21E-06,4.52E-05,-4.52E-05,0.034066692,0.93658483,5.06E-11,0.029608954,5.98E-09,-96.65717316,-13.94838238,5.81E-05,-2.33E-11,1.111
1.35E-05,-4.278621197,-4.278621197,1.90372014,1.903721094,0.405003727,-0.405003935,-2.846168518,2.846169472,641.5335693,641.5335693,691.4229126,691.4229126,-0.000422549,-1.23E-10,-1.15E-05,1.15E-05,7.22E-05,-7.22E-05,0.020207994,0.93658483,6.60E-12,-0.019674832,7.12E-10,-96.65717316,-13.94838142,4.44E-05,-8.92E-12,1.121
3.39E-05,-6.578547001,-6.578547001,-0.636565089,-0.63656348,0.703136444,-0.703136981,-2.984661579,2.984662056,640.7145386,640.7145386,688.2072144,688.2072144,-0.000479306,-1.20E-10,-1.95E-05,1.95E-05,7.02E-05,-7.02E-05,1.099063516,0.93658483,1.64E-12,-0.055281084,-8.22E-10,-96.65717316,-13.94838238,-0.000332751,-7.20E-12,1.131
6.88E-05,-7.91196394,-7.911964417,-1.139513612,-1.139511704,1.013533473,-1.013534427,-3.568477154,3.568477392,639.5291748,639.5291748,688.0053711,688.0053711,-0.000563132,-1.14E-10,-2.76E-05,2.76E-05,8.06E-05,-8.06E-05,9.191134453,0.93658483,-2.96E-12,-0.068552427,-1.76E-09,-96.65718079,-13.9483881,-0.00096099,-2.42E-11,1.141
0.000120913,-8.538809776,-8.538809776,0.192546696,0.192548722,1.292314529,-1.292315722,-4.561397552,4.561398029,638.1536865,638.1536865,689.8052368,689.8052368,-0.000672782,-1.05E-10,-3.44E-05,3.44E-05,0.000101389,-0.000101389,26.18174553,0.93658483,3.01E-14,-0.063643247,1.20E-08,-96.65718842,-13.94839859,-0.001621903,-3.77E-11,1.151
0.000190581,-8.783380508,-8.783379555,2.643587351,2.643589973,1.501487732,-1.501490355,-6.262151718,6.262152195,636.8701172,636.8701172,692.7505493,692.7505493,-0.000803317,-9.31E-11,-3.89E-05,3.89E-05,0.000140939,-0.000140939,46.89535141,0.93658483,-1.33E-11,-0.047399141,-3.63E-09,-96.65719604,-13.9484148,-0.002171389,-4.76E-11,1.161
0.000276404,-8.943862915,-8.943862915,5.760589123,5.760593414,1.607054234,-1.607057691,-8.318008423,8.318008423,635.9423828,635.9423828,696.2220459,696.2220459,-0.000947754,-7.48E-11,-4.02E-05,4.02E-05,0.000188684,-0.000188684,63.35190201,0.93658483,-7.58E-11,-0.025405997,-7.25E-09,-96.6572113,-13.94843388,-0.002525279,-1.01E-10,1.171
0.000375994,-9.268403053,-9.268404007,8.933581352,8.933588028,1.586723804,-1.586727262,-10.40961266,10.40961266,635.5372925,635.5372925,699.7310181,699.7310181,-0.001098782,-5.16E-11,-3.76E-05,3.76E-05,0.000235479,-0.000235479,70.17433167,0.93658483,-9.38E-11,-0.004081771,-5.40E-09,-96.65722656,-13.94845486,-0.002660051,-1.56E-10,1.181
0.000486546,-9.828398705,-9.828400612,11.70240211,11.70240974,1.429708242,-1.429711819,-12.3256464,12.3256464,635.7022095,635.7022095,702.8799438,702.8799438,-0.001249865,-2.48E-11,-3.11E-05,3.11E-05,0.000275626,-0.000275626,67.1379776,0.93658483,-7.86E-11,0.012629448,-4.15E-09,-96.65724182,-13.94847584,-0.002604892,-1.99E-10,1.191
0.000605225,-10.56672382,-10.56672668,13.81854439,13.81855297,1.143944502,-1.143948436,-13.9457655,13.9457655,636.3844604,636.3844604,705.3937988,705.3937988,-0.001395936,5.61E-12,-2.11E-05,2.11E-05,0.00030621,-0.00030621,57.55815887,0.93658483,-6.21E-11,0.023255741,-5.87E-09,-96.65725708,-13.94849586,-0.002415591,-2.48E-10,1.201
0.000729386,-11.38185596,-11.38185883,15.19061279,15.19062138,0.761053383,-0.761057615,-15.22376728,15.22376728,637.4696655,637.4696655,707.1425781,707.1425781,-0.001533812,3.94E-11,-8.76E-06,8.76E-06,0.00032645,-0.00032645,45.60223007,0.93658483,-4.66E-11,0.02822746,1.92E-09,-96.65727234,-13.94851398,-0.002154336,-3.16E-10,1.211
0.000856638,-12.11737061,-12.11737251,15.78050995,15.78051853,0.384046525,-0.384050727,-16.17204475,16.17204475,638.8986206,638.8986206,708.1329956,708.1329346,-0.001662595,7.37E-11,2.78E-06,-2.78E-06,0.000337123,-0.000337123,34.46595001,0.93658483,-4.92E-11,0.027172115,-1.03E-08,-96.65727997,-13.9485302,-0.001877399,-4.01E-10,1.221
0.000983083,-18.30341911,-18.30342102,62.1546936,62.15469742,0.285623759,-0.285627127,-14.89002037,14.89001942,640.4678955,640.4678955,713.4539795,713.4539795,-0.001789102,1.11E-10,5.43E-06,-5.43E-06,0.000283577,-0.000283577,0.643366277,0.93658483,-2.95E-10,0.323154628,-1.76E-08,-96.6572876,-13.94854069,-0.000507944,-5.28E-10,1.231
0.00110144,-70.63150787,-70.63150787,154.9428864,154.9429016,1.935728073,-1.935728192,-15.85463428,15.85462761,642.6848755,642.6848755,730.0690308,730.0690308,-0.001939577,1.50E-10,-4.40E-05,4.40E-05,0.000296661,-0.000296661,231.300415,0.93658483,-1.95E-10,0.599119365,-4.66E-09,-96.65727997,-13.94852448,0.004788842,-7.37E-10,1.241
0.001218947,-154.0283813,-154.0283813,200.0500946,200.0501099,7.33950758,-7.339508533,-19.07539368,19.07539177,649.5470581,649.5470581,749.7004395,749.7003784,-0.002109281,1.81E-10,-0.000203019,0.000203019,0.000373492,-0.000373492,824.1564331,0.93658483,-1.41E-10,0.32598412,4.47E-08,-96.65723419,-13.94846535,0.009062587,-8.91E-10,1.251
0.001338588,-207.1925659,-207.1925507,242.9180756,242.9180756,11.78491402,-11.78491497,-20.80957985,20.80958366,657.2079468,657.2080078,763.6303101,763.6303101,-0.00225923,2.04E-10,-0.000327551,0.000327551,0.000410997,-0.000410997,1000,0.93658483,-1.59E-10,0.245007247,2.46E-08,-96.65717316,-13.94837952,0.012027829,-8.43E-10,1.261
0.001470806,-229.2993774,-229.2993774,254.3651886,254.3651886,12.02725983,-12.02726078,-19.92868042,19.92868614,661.0058594,661.0058594,768.0626831,768.0626831,-0.002360288,2.19E-10,-0.000324037,0.000324037,0.000381089,-0.000381089,1000,0.93658483,-1.25E-10,0.187645286,1.35E-08,-96.65709686,-13.94827366,0.013952159,-6.68E-10,1.271
0.001633294,-238.3518524,-238.3518372,268.891449,268.891449,10.42648125,-10.42648029,-15.40585518,15.40586185,659.5716553,659.5717163,763.7312622,763.7312012,-0.002401458,2.25E-10,-0.000268762,0.000268762,0.000257632,-0.000257633,1000,0.93658483,-9.70E-11,0.22952649,3.07E-08,-96.65700531,-13.94815254,0.016041415,-4.10E-10,1.281
0.001843302,-252.0224609,-252.0224457,286.0549622,286.0549622,11.24041462,-11.24041462,-6.372158527,6.372166634,655.9268799,655.9268799,754.1644287,754.1644287,-0.002391899,2.21E-10,-0.00028973,0.00028973,1.27E-05,-1.27E-05,1000,0.93658483,-7.64E-11,0.254426509,3.08E-08,-96.6568985,-13.94801331,0.018391075,-1.03E-10,1.291
0.002106607,-277.7845154,-277.7845154,316.1929321,316.1929321,15.2089653,-15.20896435,10.77120304,-10.77120018,652.7175903,652.7176514,744.8979492,744.8979492,-0.002343682,2.13E-10,-0.000408149,0.000408149,-0.000460121,0.000460121,1000,0.93658483,-2.16E-10,0.283742726,1.71E-09,-96.65678406,-13.94785309,0.021170618,1.17E-10,1.301
0.002421051,-313.7539673,-313.7539673,342.6710815,342.6710815,21.28303528,-21.28303528,32.67466736,-32.67466354,651.3969727,651.3969727,737.5094604,737.5094604,-0.002270529,1.96E-10,-0.000590546,0.000590546,-0.001072167,0.001072167,1000,0.93658483,1.07E-11,0.21469909,2.66E-08,-96.65665436,-13.94767189,0.023664646,3.22E-10,1.311
0.002776334,-347.6215515,-347.621521,362.7189636,362.7189636,26.84085083,-26.84086037,50.33048248,-50.33047485,650.8844604,650.8844604,730.1859131,730.1859131,-0.002182297,1.69E-10,-0.000755602,0.000755602,-0.001569574,0.001569573,1000,0.93658483,2.33E-10,0.113756187,6.64E-09,-96.65650177,-13.94747257,0.025422387,4.82E-10,1.321
0.003159182,-368.6882629,-368.6882324,377.2240601,377.2240601,29.95581245,-29.95582581,58.8586235,-58.85861206,649.1635132,649.1635132,720.6575317,720.6575317,-0.002085713,1.34E-10,-0.000844524,0.000844524,-0.001813483,0.001813483,1000,0.93658483,3.99E-10,0.067164682,5.26E-10,-96.65634918,-13.94726467,0.026292365,4.96E-10,1.331
0.003558215,-385.5375977,-385.5375671,390.5615845,390.5615845,31.53894615,-31.53896141,62.5941658,-62.59415436,645.3067017,645.3067017,709.9684448,709.9684448,-0.001989442,9.51E-11,-0.000888497,0.000888497,-0.00192432,0.00192432,1000,0.93658483,5.04E-10,0.040137291,2.63E-09,-96.65619659,-13.94705105,0.026795594,4.98E-10,1.341
0.003963999,-401.0400391,-401.0400085,403.4020691,403.4020691,33.45380783,-33.45382309,65.34523773,-65.34522247,640.2562256,640.2562866,699.9527588,699.9526978,-0.00190325,4.99E-11,-0.000945733,0.000945733,-0.002007851,0.002007851,1000,0.93658483,5.79E-10,0.019122656,1.23E-08,-96.65603638,-13.94683361,0.027069565,5.63E-10,1.351
0.004367125,-416.1117249,-416.1116638,415.9567871,415.9567871,35.95225525,-35.95227432,66.63604736,-66.63602448,635.0413208,635.0413208,691.8192749,691.8192749,-0.001834682,-3.02E-12,-0.001023253,0.001023254,-0.002045935,0.002045935,1000,0.93658483,6.29E-10,-0.000893655,2.50E-08,-96.65587616,-13.94661617,0.027155032,7.44E-10,1.361
0.004758703,-430.47052,-430.470459,428.0482178,428.0482178,38.23973083,-38.23974609,65.0545578,-65.05453491,630.3292236,630.3292236,686.0583496,686.0583496,-0.001787374,-6.48E-11,-0.001094359,0.00109436,-0.00199282,0.001992819,1000,0.93658483,6.58E-10,-0.018665526,3.41E-08,-96.65571594,-13.94639778,0.027059413,1.04E-09,1.371
0.005131778,-444.8606567,-444.8606262,443.3575745,443.357605,39.55605698,-39.55608368,60.41385269,-60.41383362,626.4248657,626.4248657,682.8633423,682.8633423,-0.001761204,-1.22E-10,-0.001133422,0.001133423,-0.001842292,0.001842291,1000,0.93658483,7.97E-10,-0.012990475,-2.08E-08,-96.65555573,-13.9461813,0.02689922,1.14E-09,1.381
0.005483418,-461.6868896,-461.6868286,459.6698914,459.6698914,39.93349075,-39.93352127,54.30335236,-54.3033371,623.7605591,623.7605591,682.5039063,682.5039063,-0.001753795,-1.34E-10,-0.001140469,0.00114047,-0.001641353,0.001641353,1000,0.93658483,-1.86E-10,-0.017282387,-7.72E-08,-96.65539551,-13.94596481,0.026772842,4.38E-10,1.391
0.005812992,-476.5241699,-476.5241394,474.6145935,474.6145935,39.03917313,-39.03919601,46.53217697,-46.53216553,622.3660278,622.3660889,683.9717407,683.9716797,-0.001759741,-1.32E-10,-0.001102976,0.001102976,-0.001386681,0.001386681,1000,0.93658483,-5.40E-11,-0.016299173,-4.26E-08,-96.65523529,-13.94575024,0.026618972,7.71E-11,1.401
0.006122224,-489.6644897,-489.6644592,488.4129944,488.4129944,36.72352219,-36.72354507,37.80324173,-37.80323792,621.9779053,621.9779053,686.3481445,686.3481445,-0.001772736,-1.21E-10,-0.00101649,0.001016491,-0.001103269,0.001103269,1000,0.93658483,3.02E-11,-0.011115797,-4.63E-08,-96.6550827,-13.94553661,0.026495842,-3.66E-10,1.411
0.0064148,-501.3400574,-501.3400574,501.0926208,501.0926208,33.37311935,-33.3731308,29.5360508,-29.53604698,622.4769897,622.4769897,689.0689697,689.0689697,-0.001786976,-1.04E-10,-0.000894529,0.000894529,-0.000836462,0.000836462,1000,0.93658483,-1.52E-11,-0.003272289,-2.94E-08,-96.65492249,-13.94532394,0.026435481,-7.66E-10,1.421
0.00669521,-511.3691101,-511.3691101,509.8967896,509.8967896,29.45702553,-29.45703125,22.51787376,-22.51787376,623.798584,623.798584,691.7250977,691.7250977,-0.001797975,-7.98E-11,-0.000753443,0.000753443,-0.000610689,0.000610689,1000,0.93658483,-1.59E-10,-0.011626814,-5.01E-09,-96.6547699,-13.94511127,0.02639924,-9.47E-10,1.431
0.006966751,-517.2185059,-517.2185059,516.4502563,516.4502563,25.050354,-25.0503521,16.35811615,-16.35811615,625.6191406,625.6191406,693.6578369,693.6578369,-0.001802451,-5.46E-11,-0.000596589,0.000596588,-0.000414663,0.000414663,1000,0.93658483,-3.17E-10,-0.005740099,1.95E-08,-96.65460968,-13.94489861,0.026313337,-8.57E-10,1.441
0.00723275,-523.1097412,-523.1097412,522.6056519,522.6056519,20.62391281,-20.62390518,11.65487862,-11.65487766,627.7670288,627.7670898,695.263855,695.263855,-0.001799883,-3.56E-11,-0.000441244,0.000441243,-0.000265642,0.000265642,1000,0.93658483,-3.91E-10,-0.00369435,3.71E-08,-96.65445709,-13.94468689,0.026263958,-5.39E-10,1.451
0.007495899,-528.9921265,-528.9921265,528.3867188,528.3867188,16.73616982,-16.73616219,8.512705803,-8.512705803,630.3043823,630.3044434,697.0007935,697.0007935,-0.00179145,-2.85E-11,-0.00030593,0.000305929,-0.000165829,0.000165829,1000,0.93658483,-3.72E-10,-0.004385218,4.16E-08,-96.65429688,-13.94447613,0.026220309,-1.20E-10,1.461
0.00775782,-534.8170166,-534.8170166,533.8082886,533.8082886,13.47802734,-13.47802067,6.26455164,-6.264553547,633.0994263,633.0994873,699.0333862,699.0333862,-0.00177912,-3.44E-11,-0.000193566,0.000193565,-9.44E-05,9.44E-05,1000,0.93658483,-2.98E-10,-0.007349846,3.45E-08,-96.65414429,-13.94426537,0.026156858,2.70E-10,1.471
0.008019221,-540.0112305,-540.0112305,538.8435059,538.8435059,10.98847294,-10.98846912,4.352749825,-4.352752686,635.9772339,635.9772339,701.3062744,701.3062744,-0.001765235,-5.06E-11,-0.000108485,0.000108484,-3.42E-05,3.42E-05,1000,0.93658483,-2.16E-10,-0.008345032,1.99E-08,-96.6539917,-13.9440546,0.02606947,5.40E-10,1.481
0.008280304,-544.8204956,-544.8204956,543.5038452,543.5038452,9.373737335,-9.373735428,2.62779355,-2.627797365,638.7739258,638.7739258,703.6882324,703.6881714,-0.001752208,-7.13E-11,-5.38E-05,5.38E-05,1.94E-05,-1.94E-05,1000,0.93658483,-1.61E-10,-0.010023988,3.14E-09,-96.65383911,-13.9438448,0.02597489,6.41E-10,1.491
0.00854088,-548.9468994,-548.9468994,547.7977295,547.7977295,8.22797966,-8.227981567,1.415781617,-1.415786266,641.2059937,641.2059937,706.0896606,706.0895996,-0.001741101,-9.13E-11,-1.56E-05,1.56E-05,5.67E-05,-5.67E-05,1000,0.93658483,-1.50E-10,-0.008760483,-8.90E-09,-96.65368652,-13.94363594,0.025876461,5.99E-10,1.501
0.00880072,-552.461792,-552.461792,551.7296753,551.7296753,7.50970602,-7.509708405,0.595488846,-0.595493794,643.0567017,643.0567017,708.3426514,708.3426514,-0.001732545,-1.08E-10,7.57E-06,-7.57E-06,8.16E-05,-8.16E-05,1000,0.93658483,-1.44E-10,-0.005819219,-1.60E-08,-96.65352631,-13.94342804,0.025799191,4.69E-10,1.511
0.009059804,-555.3099365,-555.3099976,555.3077393,555.3077393,7.276879787,-7.276882172,0.072037265,-0.072042316,644.2470703,644.2470703,710.2639771,710.2639771,-0.001726719,-1.19E-10,1.42E-05,-1.42E-05,9.72E-05,-9.72E-05,1000,0.93658483,-1.57E-10,-0.000546574,-1.81E-08,-96.65337372,-13.94322014,0.025764203,2.91E-10,1.521
0.009318446,-557.6754761,-557.6754761,558.5204468,558.5204468,7.519292355,-7.519294262,-0.096710704,0.096705861,644.809021,644.809021,711.7290649,711.7290649,-0.001723225,-1.25E-10,4.91E-06,-4.91E-06,0.000101874,-0.000101874,1000,0.93658483,-1.82E-10,0.005613277,-1.52E-08,-96.65322113,-13.94301319,0.025789378,1.23E-10,1.531
0.009577537,-547.3759766,-547.3760376,561.0197754,561.0197754,8.078920364,-8.078922272,0.018004743,-0.018007662,644.562561,644.562561,712.6577148,712.6577148,-0.001721719,-1.26E-10,-1.46E-05,1.46E-05,9.80E-05,-9.80E-05,1000,0.93658483,-1.74E-11,0.103584938,1.22E-08,-96.65306854,-13.94280434,0.026046608,-9.23E-12,1.541
0.009845937,-529.4887695,-529.4887695,562.8501587,562.8501587,8.411448479,-8.411452293,-0.98528862,0.985287368,641.5744629,641.5745239,713.3341064,713.3341064,-0.001730421,-1.23E-10,-2.84E-05,2.84E-05,0.000127453,-0.000127453,1000,0.93658483,-4.59E-11,0.243637294,-6.00E-09,-96.65290833,-13.94258881,0.027679708,-1.08E-10,1.551
0.01013812,-511.8735962,-511.8735962,563.9937744,563.9937744,10.11080551,-10.11080837,-3.016348362,3.016347647,636.3690796,636.3690796,714.739502,714.739502,-0.001761328,-1.18E-10,-8.85E-05,8.85E-05,0.000187329,-0.000187329,1000,0.93658483,-8.45E-12,0.376866788,-9.80E-11,-96.65274048,-13.94235325,0.030673049,-1.63E-10,1.561
0.0104679,-493.1141663,-493.1141663,564.6715088,564.6715088,13.90585232,-13.90585518,-6.049218178,6.049217224,629.7600708,629.7600708,717.4740601,717.4740601,-0.001819257,-1.11E-10,-0.000219009,0.000219009,0.000276394,-0.000276394,1000,0.93658483,-4.15E-11,0.517130911,-6.74E-09,-96.65254211,-13.94208717,0.035075571,-2.13E-10,1.571
0.010849446,-474.5943298,-474.5943298,565.0628662,565.0628662,20.26543808,-20.26544189,-10.79628277,10.79628181,622.7147827,622.7147827,721.5366211,721.5366211,-0.001902895,-1.03E-10,-0.000436368,0.000436368,0.000415034,-0.000415034,1000,0.93658483,-4.78E-11,0.653398275,-5.12E-09,-96.65232086,-13.94178009,0.040880617,-2.67E-10,1.581
0.011296587,-456.3902893,-456.3902893,565.2810059,565.2810059,27.93644333,-27.93644714,-17.5443306,17.54432869,615.8387451,615.8387451,726.5643311,726.56427,-0.002005535,-9.21E-11,-0.000699886,0.000699886,0.000610503,-0.000610503,1000,0.93658483,-6.63E-11,0.787031233,-8.06E-09,-96.65205383,-13.9414196,0.048049353,-3.35E-10,1.591
0.01182279,-438.5465698,-438.5465698,565.3585205,565.3585205,35.350914,-35.35091782,-26.07299042,26.07298851,609.5133667,609.5133667,732.0262451,732.0262451,-0.00211739,-7.88E-11,-0.000956909,0.000956909,0.000855141,-0.000855141,1000,0.93658483,-7.49E-11,0.917732179,-1.02E-08,-96.65174103,-13.94099617,0.056544371,-4.26E-10,1.601
0.012441146,-421.1106567,-421.1106567,565.3103027,565.3103027,41.53499603,-41.53499603,-35.75780487,35.75780487,604.0525513,604.0526123,737.4031982,737.4031982,-0.002228317,-6.22E-11,-0.001173276,0.001173276,0.001130138,-0.001130138,1000,0.93658483,-8.33E-11,1.044981122,-1.10E-08,-96.65137482,-13.94049835,0.066326648,-5.35E-10,1.611
0.013164331,-404.1048279,-404.1048279,565.1502075,565.1502075,45.99675369,-45.99675751,-45.81985474,45.81985474,599.6659546,599.6660156,742.300354,742.300354,-0.002329839,-4.20E-11,-0.00133055,0.00133055,0.001413156,-0.001413156,1000,0.93658483,-9.92E-11,1.168426275,-1.13E-08,-96.65094757,-13.93991566,0.077355221,-6.49E-10,1.621
0.014004557,-387.5271912,-387.5271912,564.4556885,564.4556885,48.56300354,-48.56300735,-55.67051315,55.67051315,596.3930054,596.3930054,746.4848022,746.4848022,-0.002416457,-1.85E-11,-0.001421541,0.001421541,0.001687999,-0.001687999,1000,0.93658483,-1.23E-10,1.284655213,-9.00E-09,-96.65045166,-13.9392395,0.089579269,-7.51E-10,1.631
0.014973353,-371.3964844,-371.3964844,563.5661621,563.5661621,49.33319473,-49.33319855,-65.10387421,65.10387421,594.0974121,594.0974121,749.8823853,749.8823853,-0.002486024,7.50E-12,-0.001449321,0.001449321,0.001949846,-0.001949846,1000,0.93658483,-1.51E-10,1.396033525,-5.11E-09,-96.64987183,-13.9384594,0.102928624,-8.20E-10,1.641
0.016081731,-360.531311,-360.531311,562.3352051,562.3352661,48.88870239,-48.88870621,-73.99167633,73.99167633,592.4898682,592.4898682,752.7021484,752.7021484,-0.0025397,3.45E-11,-0.001435641,0.001435641,0.002195478,-0.002195478,1000,0.93658483,-1.75E-10,1.465961933,-2.04E-08,-96.6492157,-13.93756676,0.117378235,-8.45E-10,1.651
0.017341113,1001.427551,1001.427612,319.2023926,319.2027893,41.10440445,-41.10439301,-97.11196899,97.11194611,589.2128296,589.2128296,756.6952515,756.6952515,-0.002595915,6.25E-11,-0.001503967,0.001503967,0.002776116,-0.002776116,-1000,0.93658483,1.48E-09,9.544424057,-6.91E-06,-96.64847565,-13.93655205,0.133020043,-8.64E-10,1.661
0.018793683,-618.871521,-618.8754272,585.3457642,585.4719849,58.24726486,-58.29333878,-152.4478912,152.4434662,567.4257813,567.4248047,766.0247803,766.0245972,-0.002757216,-4.12E-09,-0.001977504,0.001979264,0.004396795,-0.004396744,-16.03618813,0.93658483,-2.85E-07,-0.31840995,-0.001560954,-96.64761353,-13.93538284,0.158222884,-2.20E-07,1.671
0.020433576,-1427.082275,-1425.780884,1662.092163,1749.624512,51.47838211,-48.00588226,-135.8784332,118.3312988,561.380249,561.3309937,778.1112061,777.6895752,-0.002964063,-6.37E-08,-0.003611377,0.003338554,0.005516964,-0.005161978,-0.013703686,0.936584592,0.000190335,0.894824386,-2.048100948,-96.64663696,-13.934062,0.167511225,-1.80E-05,1.681
0.022254622,1502.334229,-1476.549927,1862.94104,2051.231201,7.663845062,-101.9077225,-153.5379333,104.1798325,566.5407104,556.6867065,786.2301636,792.7352295,-0.003150427,3.02E-06,-0.000706983,0.01073276,0.007296477,-0.007400263,0.000617618,0.936589539,-0.00419838,13.93923283,54.4342308,-96.64556122,-13.93259525,0.183315843,0.000192607,1.691
0.024292761,-1437.764648,1486.905029,622.7333984,1459.484009,91.53990936,-7.094396591,-619.5201416,28.34541512,553.5582886,561.0493774,796.7957153,793.1496582,-0.003275506,1.63E-06,-0.0133425,0.000506963,0.017640285,-0.001022885,-0.00053083,0.936578929,0.004687163,7.697095394,-82.7015686,-96.64435577,-13.93095398,0.209514752,0.000160911,1.701
0.026537598,-1418.825806,1134.023926,-2038.231812,2007.273682,106.3308563,50.76035309,-427.2937012,-118.3840866,553.661377,561.8651733,806.477478,799.2498779,-0.003307575,-1.03E-05,-0.016908243,-0.002800478,0.02595106,0.006690011,-0.001520075,0.936594009,0.03310198,-1.973283529,-38.6145401,-96.64302063,-13.92914677,0.242252916,0.000302752,1.711
0.029027432,-1477.123413,1497.832397,2039.996704,-2075.758789,37.92050552,-51.2932663,-101.1364288,129.7937775,558.0941772,570.3806763,784.9116821,800.5361938,-0.003303163,-1.37E-05,-0.004371419,0.004571516,0.007952454,-0.009125293,0.001197509,0.936589241,0.002303014,-0.636980474,55.5620842,-96.64154816,-13.92714119,0.257936746,0.000868317,1.721
0.031756405,-1464.422119,-1484.695068,1013.418823,1770.570068,12.61065865,-42.37223434,-353.7375183,15.4915123,567.4875488,559.2883911,785.3341675,778.0709229,-0.003260206,-7.62E-06,-0.001595854,0.004524236,0.010766317,-0.000700466,-0.002128004,0.936586499,-0.00089519,-0.019029614,-39.32196045,-96.63993073,-13.92494202,0.289256781,-0.000323647,1.731
0.034720155,-1476.582031,-1454.722412,742.7192993,1894.942383,13.6825428,-13.35867214,-300.3755798,6.620014668,573.8182373,568.1647339,769.5380249,778.0632935,-0.003211961,-3.41E-05,-0.001753909,0.001785819,0.008767379,-0.000357773,0.003839568,0.936594188,0.017132377,-2.21745944,24.47139549,-96.63817596,-13.92255783,0.306556076,0.000857139,1.741
0.037914963,-1485.322632,-1394.133179,-1291.999268,1963.385742,72.114151,104.8802414,-429.6976929,-55.59091568,573.0509644,574.3857422,774.3861694,762.6849976,-0.003206271,-4.81E-05,-0.01002279,-0.006923313,0.014522139,0.005961146,-0.002477783,0.936557174,0.0052318,-8.58093071,-42.40864182,-96.63627625,-13.91998768,0.324229956,-0.00079713,1.751
0.041351931,1551.909912,952.4732056,-1996.01355,1934.325684,93.06385803,92.94450378,-178.2045898,-104.3627396,586.4273071,577.8150024,789.9013672,759.8314209,-0.00324283,-3.05E-06,-0.010132893,-0.00421135,0.018163607,0.012412003,-0.001882603,0.936536908,-0.006581019,9.001731873,-63.26552963,-96.6342392,-13.91722107,0.344964266,-0.001951751,1.761
0.045028574,1542.006836,1534.050537,-1910.411255,905.8787842,61.75183105,-10.09614563,-231.531601,-160.9953003,585.064209,580.7212524,787.0963745,776.9284668,-0.003314388,-1.48E-05,-0.007941023,0.001043068,0.011398626,0.004788477,-0.002058167,0.936553121,-0.002837855,7.568174839,-66.73475647,-96.63205719,-13.91426277,0.37056452,-0.000759643,1.771
0.048955132,1487.338257,-1428.185425,-1818.722778,430.4812317,-12.72102833,-57.70738983,-129.4105682,70.4082489,568.2565308,550.3693237,795.9662476,786.9420776,-0.003392883,1.10E-05,0.001399199,0.008366406,0.00555093,-0.001930002,-0.013636285,0.936564028,-0.005188799,-4.939948082,-12.5115099,-96.6297226,-13.91110325,0.413190156,-0.000743735,1.781
0.053116475,-470.7773438,-1451.356445,1684.5354,712.5874023,56.17422104,-59.81067276,-182.3266449,19.15049744,555.2442017,548.0684814,799.1963501,796.7582397,-0.003452604,2.94E-05,-0.0018573,0.005700777,0.007080627,-0.000547594,0.012236224,0.936545014,-0.010754785,1.575749278,15.99085522,-96.62725067,-13.90775394,0.442317903,0.000368105,1.791
0.057543602,-873.3964233,1227.967407,48.87225723,1040.448242,198.5358124,-3.743659019,-273.4121399,39.26644516,563.1192017,560.0643311,800.4370117,796.0685425,-0.003486021,1.97E-05,-0.008243315,-4.46E-05,0.007275836,-0.001181636,-0.009789118,0.936553538,0.018746525,4.898233414,-21.2182827,-96.62462616,-13.90419102,0.455577701,-0.001429673,1.801
0.062232053,-800.9943848,746.3347778,-190.8441162,385.0193481,143.1547546,-62.81750107,-209.1366425,86.27275085,565.0802002,562.505127,797.6607056,795.2679443,-0.003485174,1.79E-05,-0.005616954,0.002268827,0.005586058,-0.002333107,-0.012466269,0.936544538,0.014048541,0.308802337,-18.32444,-96.62184143,-13.90041828,0.477935612,-0.001057135,1.811
0.067183907,1280.471191,-1281.197754,1119.88208,89.15242004,54.25849152,-73.03340912,-101.1823196,155.4838104,568.8131104,556.4775391,792.3580933,794.1101074,-0.003456396,8.36E-06,-0.00284375,0.004097109,0.003110669,-0.004149271,0.004755175,0.936516762,-0.010823343,4.390660286,53.78435516,-96.61890411,-13.89643383,0.505755305,-0.001025393,1.821
0.072409091,1087.261963,-799.300293,694.8474731,504.3361511,44.23866653,-103.1258698,-111.3860397,149.6192932,564.9408569,557.749939,790.2072144,789.5419922,-0.003411137,3.80E-06,-0.001884943,0.004034609,0.00313621,-0.004112576,0.012072211,0.93650949,-0.009776345,5.412888527,23.59627724,-96.61579895,-13.89222813,0.533826888,-0.00097901,1.831
0.077914437,-215.52388,-1154.549561,785.4403076,191.3210297,48.13462067,-78.82889557,-91.9445343,155.4354858,560.1828003,556.7033081,786.4805908,787.1399536,-0.003365578,1.97E-06,-0.001476377,0.003853069,0.002638243,-0.00418528,0.013716178,0.936503232,-0.005897844,-1.433853865,23.27163887,-96.61253357,-13.88779831,0.564944089,-0.000793306,1.841
0.08370115,-941.3463135,-998.3727417,570.5122681,389.2326965,65.18016052,-64.91624451,-115.4828415,127.7422333,556.8693848,556.1124268,784.8452759,785.0310059,-0.003333175,-4.22E-06,-0.002674859,0.002761598,0.003212623,-0.00348706,0.065087438,0.936492503,-0.001539371,-3.565798759,5.436006546,-96.60909271,-13.88314152,0.594549775,-0.000810326,1.851
0.089775098,-825.8153076,-845.1323242,459.2731323,550.0612183,72.73168182,-70.86380005,-124.0498657,118.801712,555.3735352,554.4875488,785.6480713,784.8308105,-0.003322175,-9.74E-06,-0.002839456,0.002785045,0.003405986,-0.003296342,-0.353066415,0.936478853,-0.00120245,-2.411264896,-1.096277952,-96.60549164,-13.87825489,0.623203158,-0.000978103,1.861
