Car.Distance,Car.FxFL,Car.FxFR,Car.FxRL,Car.FxRR,Car.FyFL,Car.FyFR,Car.FyRL,Car.FyRR,Car.FzFL,Car.FzFR,Car.FzRL,Car.FzRR,Car.Pitch,Car.Roll,Car.SlipAngleFL,Car.SlipAngleFR,Car.SlipAngleRL,Car.SlipAngleRR,Car.TrackRadius,Car.Yaw,Car.YawRate,Car.ax,Car.ay,Car.tx,Car.ty,Car.vx,Car.vy,Time
m,N,N,N,N,N,N,N,N,N,N,N,N,rad,rad,rad,rad,rad,rad,m,rad,rad/s,m/s^2,m/s^2,m,m,m/s,m/s,s
1.62E-10,0.007831318,0.00783141,0.009277102,0.009277039,-0.000325769,0.000324436,0.000326859,-0.000329264,642.0627441,642.0627441,706.2649536,706.2650146,-0.000379072,3.39E-10,-1.82E-09,1.81E-09,2.37E-09,-2.38E-09,2.63E-07,0.93658483,3.76E-11,0.000118026,1.69E-08,-96.65717316,-13.94838238,1.62E-07,1.43E-11,0.001
4.76E-09,0.000772799,0.000773085,-0.000927539,-0.000927591,0.001059237,-0.001049985,-0.00123054,0.001239317,642.0696411,642.0696411,706.2580566,706.2581177,-0.000379053,2.60E-10,-4.15E-08,4.12E-08,4.38E-08,-4.42E-08,1.71E-06,0.93658483,3.37E-11,2.13E-06,4.44E-08,-96.65717316,-13.94838238,4.14E-07,4.39E-10,0.011
1.05E-08,-0.00049702,-0.000496786,-9.27E-05,-9.30E-05,0.000905304,-0.000887312,-0.000838395,0.000855231,642.0776978,642.0776978,706.2503052,706.2503052,-0.000378997,1.24E-10,-3.38E-08,3.33E-08,3.01E-08,-3.06E-08,2.31E-06,0.93658483,-6.05E-11,9.34E-07,1.15E-07,-96.65717316,-13.94838238,5.11E-07,1.46E-09,0.021
1.73E-08,-0.000121123,-0.000121124,-0.000409201,-0.000409616,-0.000322243,0.000333711,0.000470007,-0.000461225,642.0826416,642.0826416,706.2446289,706.2446289,-0.000378922,-1.34E-11,3.95E-09,-4.30E-09,-7.38E-09,7.07E-09,1.75E-06,0.93658483,-3.51E-10,-4.68E-07,-7.94E-11,-96.65717316,-13.94838238,4.19E-07,2.48E-09,0.031
2.56E-08,0.001708359,0.001710583,-0.000668711,-0.000668953,-0.00116646,0.001171383,0.001673583,-0.001671979,642.0844727,642.0844727,706.2420654,706.2420654,-0.000378853,-1.19E-10,2.79E-08,-2.80E-08,-3.94E-08,3.94E-08,1.05E-06,0.93658483,-1.58E-10,1.06E-05,7.09E-08,-96.65717316,-13.94838238,3.24E-07,2.98E-09,0.041
3.54E-08,0.00178768,0.001790875,-0.000932476,-0.000937335,-0.001416787,0.001409772,0.002142174,-0.002149121,642.0836792,642.0836792,706.2420044,706.2420044,-0.000378809,-1.76E-10,3.30E-08,-3.28E-08,-4.95E-08,4.97E-08,6.60E-07,0.93658483,2.10E-10,3.42E-06,2.92E-07,-96.65717316,-13.94838238,4.22E-07,2.77E-09,0.051
4.58E-08,-0.000623185,-0.000624542,-0.002555977,-0.002548672,-0.001221711,0.001203326,0.001862574,-0.001874395,642.081665,642.081665,706.2428589,706.2428589,-0.000378793,-1.31E-10,2.50E-08,-2.45E-08,-3.88E-08,3.91E-08,1.06E-06,0.93658483,4.31E-10,-2.65E-05,-1.32E-07,-96.65717316,-13.94838238,3.26E-07,1.58E-09,0.061
5.48E-08,-0.001566295,-0.001568289,-0.00268753,-0.00267591,-0.000830017,0.000808821,0.001261018,-0.001273298,642.0792847,642.0792847,706.2438354,706.2438354,-0.000378801,-4.00E-11,1.20E-08,-1.14E-08,-2.01E-08,2.05E-08,1.56E-08,0.93658483,2.34E-10,-3.37E-05,-1.12E-07,-96.65717316,-13.94838238,3.98E-08,3.71E-10,0.071
6.23E-08,-0.001421573,-0.001424132,-0.00194323,-0.001934606,-0.000402569,0.000387628,0.000720642,-0.000731664,642.0770874,642.0770874,706.244873,706.244873,-0.000378822,5.54E-11,-1.05E-09,1.49E-09,-4.28E-09,4.62E-09,5.97E-07,0.93658483,-4.77E-11,-2.64E-05,-7.90E-08,-96.65717316,-13.94838238,-2.44E-07,-7.40E-10,0.081
6.89E-08,-0.000750622,-0.000754271,-0.001188067,-0.001182429,1.42E-05,-2.23E-05,0.000403831,-0.000412411,642.0755615,642.0756226,706.2460938,706.2460938,-0.000378851,1.40E-10,-1.30E-08,1.32E-08,4.48E-09,-4.25E-09,1.92E-06,0.93658483,-1.56E-10,-1.53E-05,-8.53E-08,-96.65717316,-13.94838238,-4.38E-07,-1.49E-09,0.091
7.49E-08,-6.89E-05,-7.32E-05,-0.000462454,-0.000457339,0.000295645,-0.00029748,0.000236958,-0.000239371,642.0748291,642.0748291,706.2473145,706.2473145,-0.00037888,2.09E-10,-2.02E-08,2.03E-08,8.71E-09,-8.64E-09,2.77E-06,0.93658483,-6.05E-11,-4.48E-06,-3.31E-08,-96.65717316,-13.94838238,-5.26E-07,-1.86E-09,0.101
8.04E-08,0.000385207,0.00038161,0.000256263,0.000261357,0.00038176,-0.000380061,0.000125756,-0.000123961,642.074585,642.074585,706.248291,706.248291,-0.000378906,2.57E-10,-2.14E-08,2.13E-08,1.11E-08,-1.11E-08,2.70E-06,0.93658483,-9.94E-12,4.52E-06,2.33E-09,-96.65717316,-13.94838238,-5.20E-07,-1.86E-09,0.111
8.53E-08,0.000612458,0.000610169,0.000844298,0.000848603,0.00031835,-0.000316249,6.79E-05,-5.90E-05,642.074646,642.074646,706.2489624,706.2489624,-0.000378926,2.83E-10,-1.81E-08,1.80E-08,1.20E-08,-1.22E-08,1.93E-06,0.93658483,3.20E-11,1.08E-05,8.61E-08,-96.65717316,-13.94838238,-4.39E-07,-1.53E-09,0.121
8.97E-08,0.000684988,0.000683648,0.001213958,0.001217303,0.000178592,-0.000176921,5.69E-05,-4.90E-05,642.0748291,642.0748291,706.2493286,706.2493286,-0.000378939,2.95E-10,-1.29E-08,1.27E-08,1.15E-08,-1.16E-08,9.77E-07,0.93658483,4.33E-11,1.43E-05,7.48E-08,-96.65717316,-13.94838238,-3.13E-07,-1.10E-09,0.131
9.37E-08,0.000659239,0.000661736,0.001357484,0.001350895,2.15E-05,-1.46E-05,9.22E-05,-8.72E-05,642.0751343,642.0751953,706.2493286,706.2493286,-0.000378945,2.61E-10,-7.50E-09,7.24E-09,9.68E-09,-9.87E-09,2.74E-07,0.93658483,-2.60E-10,1.53E-05,1.10E-07,-96.65717316,-13.94838238,-1.66E-07,-4.07E-10,0.141
9.76E-08,0.000566222,0.000570131,0.001301986,0.001291715,-0.000128949,0.000138011,0.000164293,-0.0001564,642.0756226,642.0756226,706.2490845,706.2490845,-0.000378945,1.87E-10,-2.75E-09,2.38E-09,7.14E-09,-7.34E-09,4.06E-09,0.93658483,-4.67E-10,1.44E-05,4.98E-08,-96.65717316,-13.94838238,-2.03E-08,1.94E-10,0.151
1.02E-07,0.000434543,0.0004381,0.001089518,0.001081746,-0.000243638,0.000253811,0.000244926,-0.000241066,642.0761719,642.0761719,706.2487793,706.2487793,-0.000378941,1.13E-10,6.57E-10,-9.75E-10,4.44E-09,-4.61E-09,1.14E-07,0.93658483,-2.04E-10,1.17E-05,3.32E-08,-96.65717316,-13.94838238,1.07E-07,7.81E-10,0.161
1.06E-07,0.000256077,0.000259599,0.00079116,0.000785016,-0.000329786,0.000333583,0.000322667,-0.000319403,642.0767212,642.0767212,706.2484131,706.2484131,-0.000378933,4.17E-11,3.01E-09,-3.21E-09,2.02E-09,-2.14E-09,4.10E-07,0.93658483,-1.34E-10,8.07E-06,1.33E-08,-96.65717316,-13.94838238,2.02E-07,1.21E-09,0.171
1.11E-07,4.34E-05,4.70E-05,0.000476595,0.000471176,-0.000403079,0.00040465,0.000383416,-0.000382826,642.0772705,642.0772705,706.2481079,706.2481079,-0.000378925,-1.94E-11,4.78E-09,-4.87E-09,1.74E-10,-2.20E-10,6.76E-07,0.93658483,-8.59E-11,4.00E-06,2.17E-08,-96.65717316,-13.94838238,2.60E-07,1.46E-09,0.181
1.16E-07,-0.000155146,-0.000151874,0.000184965,0.000179163,-0.000452507,0.00045457,0.000431758,-0.00043305,642.0776367,642.0776367,706.2478638,706.2478638,-0.000378917,-6.69E-11,5.91E-09,-5.90E-09,-1.14E-09,1.18E-09,7.80E-07,0.93658483,-8.54E-12,2.97E-07,-2.39E-08,-96.65717316,-13.94838238,2.79E-07,1.49E-09,0.191
1.20E-07,-0.000304401,-0.000301399,-3.31E-05,-3.77E-05,-0.000483767,0.000481825,0.000454324,-0.000455965,642.0778198,642.0778198,706.2478027,706.2478027,-0.00037891,-9.84E-11,6.25E-09,-6.19E-09,-1.74E-09,1.84E-09,7.09E-07,0.93658483,-1.45E-10,-2.52E-06,-2.20E-08,-96.65717316,-13.94838238,2.66E-07,1.32E-09,0.201
1.24E-07,-0.00039105,-0.000388549,-0.000152561,-0.000155467,-0.000483312,0.000480918,0.000449996,-0.000456047,642.0778809,642.0778809,706.2478027,706.2478027,-0.000378905,-1.18E-10,5.84E-09,-5.76E-09,-1.56E-09,1.68E-09,5.40E-07,0.93658483,-1.17E-10,-4.11E-06,-7.70E-08,-96.65717316,-13.94838238,2.32E-07,1.01E-09,0.211
1.27E-07,-0.000414717,-0.000413094,-0.00018889,-0.000190233,-0.000471254,0.00046697,0.000430835,-0.000434518,642.0778198,642.0778198,706.2478027,706.2478027,-0.000378903,-1.28E-10,4.89E-09,-4.82E-09,-8.93E-10,1.00E-09,3.57E-07,0.93658483,-8.02E-11,-4.58E-06,-2.03E-08,-96.65717316,-13.94838238,1.89E-07,7.24E-10,0.221
1.29E-07,-0.000384395,-0.00038347,-0.000174953,-0.000175485,-0.000437814,0.000435494,0.000402675,-0.000404802,642.0776978,642.0776978,706.2479248,706.2479248,-0.000378902,-1.31E-10,3.60E-09,-3.53E-09,-1.04E-10,1.94E-10,2.11E-07,0.93658483,-6.54E-11,-4.29E-06,-3.12E-08,-96.65717316,-13.94838238,1.45E-07,4.83E-10,0.231
1.31E-07,-0.000313829,-0.000313131,-0.000140252,-0.000140234,-0.0004017,0.000399247,0.000382549,-0.000382967,642.0775146,642.0775146,706.2480469,706.2480469,-0.000378902,-1.31E-10,2.23E-09,-2.19E-09,4.52E-10,-3.84E-10,1.16E-07,0.93658483,-9.71E-11,-3.47E-06,2.22E-08,-96.65717316,-13.94838238,1.08E-07,2.94E-10,0.241
1.32E-07,-0.000222477,-0.000221959,-9.03E-05,-9.01E-05,-0.000365916,0.000365267,0.000368115,-0.000370629,642.0773315,642.0773315,706.2481079,706.2481079,-0.000378903,-1.31E-10,9.99E-10,-9.79E-10,7.87E-10,-7.42E-10,6.28E-08,0.93658483,-5.62E-11,-2.39E-06,-5.19E-08,-96.65717316,-13.94838238,7.92E-08,1.54E-10,0.251
1.33E-07,-0.00012916,-0.000129029,-3.46E-05,-3.45E-05,-0.000334696,0.000334391,0.000361551,-0.000360302,642.0772095,642.0772095,706.24823,706.24823,-0.000378905,-1.31E-10,2.35E-11,-1.40E-11,9.49E-10,-9.29E-10,3.82E-08,0.93658483,-3.52E-11,-1.24E-06,1.06E-08,-96.65717316,-13.94838238,6.18E-08,6.44E-11,0.261
1.34E-07,-4.57E-05,-4.56E-05,1.07E-05,1.09E-05,-0.000308902,0.000309129,0.000358641,-0.000360886,642.0770874,642.0770874,706.24823,706.24823,-0.000378906,-1.31E-10,-7.25E-10,7.17E-10,9.49E-10,-9.40E-10,3.02E-08,0.93658483,2.50E-11,-2.53E-07,-5.46E-08,-96.65717316,-13.94838238,5.49E-08,2.15E-11,0.271
1.34E-07,1.90E-05,1.88E-05,3.55E-05,3.54E-05,-0.00029198,0.000292985,0.000363223,-0.000363119,642.0770874,642.0770264,706.24823,706.24823,-0.000378907,-1.31E-10,-1.25E-09,1.25E-09,7.88E-10,-7.91E-10,3.15E-08,0.93658483,3.14E-11,4.24E-07,-2.83E-09,-96.65717316,-13.94838238,5.62E-08,-7.96E-12,0.281
1.35E-07,5.73E-05,5.73E-05,4.07E-05,4.06E-05,-0.000280898,0.00028136,0.000371155,-0.000370942,642.0770264,642.0770264,706.24823,706.24823,-0.000378908,-1.31E-10,-1.48E-09,1.47E-09,5.01E-10,-5.07E-10,3.86E-08,0.93658483,4.02E-12,7.38E-07,1.95E-09,-96.65717316,-13.94838238,6.22E-08,-6.28E-11,0.291
1.36E-07,7.37E-05,7.37E-05,3.07E-05,3.08E-05,-0.000279839,0.000278453,0.000381495,-0.000383321,642.0770264,642.0770264,706.2481689,706.2481689,-0.000378909,-1.30E-10,-1.46E-09,1.44E-09,1.44E-10,-1.48E-10,4.88E-08,0.93658483,-2.51E-11,7.99E-07,-5.34E-09,-96.65717316,-13.94838238,6.99E-08,-7.15E-11,0.301
1.37E-07,7.79E-05,7.78E-05,9.24E-06,9.24E-06,-0.000282385,0.000283803,0.000397403,-0.000397044,642.0770264,642.0770264,706.2481079,706.2481079,-0.000378909,-1.29E-10,-1.32E-09,1.30E-09,-2.60E-10,2.50E-10,5.93E-08,0.93658483,4.93E-11,6.61E-07,4.04E-08,-96.65717316,-13.94838238,7.70E-08,-9.29E-11,0.311
1.38E-07,7.77E-05,7.77E-05,-1.81E-05,-1.81E-05,-0.000286774,0.000283824,0.000409828,-0.000411156,642.0770264,642.0769653,706.2480469,706.2480469,-0.000378908,-1.29E-10,-1.18E-09,1.15E-09,-6.77E-10,6.59E-10,6.79E-08,0.93658483,-3.04E-11,4.59E-07,2.37E-08,-96.65717316,-13.94838238,8.24E-08,-1.43E-10,0.321
1.40E-07,7.47E-05,7.48E-05,-3.96E-05,-3.94E-05,-0.000289109,0.000289166,0.000425014,-0.000423647,642.0769653,642.0769653,706.2479858,706.2479858,-0.000378908,-1.28E-10,-1.08E-09,1.05E-09,-9.76E-10,9.64E-10,7.37E-08,0.93658483,-7.18E-11,2.88E-07,1.24E-08,-96.65717316,-13.94838238,8.59E-08,-1.19E-10,0.331
1.41E-07,6.83E-05,6.86E-05,-5.18E-05,-5.13E-05,-0.000290336,0.000290271,0.000433535,-0.000432717,642.0769653,642.0769653,706.2479248,706.2479248,-0.000378908,-1.26E-10,-1.01E-09,9.81E-10,-1.11E-09,1.11E-09,7.70E-08,0.93658483,-1.06E-10,1.45E-07,4.89E-09,-96.65717316,-13.94838238,8.78E-08,-1.03E-10,0.341
1.42E-07,5.87E-05,5.87E-05,-5.66E-05,-5.63E-05,-0.000289109,0.000288674,0.000435016,-0.000434916,642.0769653,642.0769653,706.2478638,706.2478638,-0.000378907,-1.24E-10,-9.57E-10,9.40E-10,-1.13E-09,1.12E-09,7.82E-08,0.93658483,3.78E-11,2.21E-08,2.90E-09,-96.65717316,-13.94838238,8.84E-08,-9.29E-11,0.351
1.43E-07,4.68E-05,4.66E-05,-5.66E-05,-5.65E-05,-0.000289549,0.000290704,0.000435357,-0.000435904,642.0769653,642.0769653,706.2478638,706.2478638,-0.000378907,-1.21E-10,-9.13E-10,9.07E-10,-1.05E-09,1.04E-09,7.76E-08,0.93658483,8.55E-11,-6.66E-08,-2.52E-09,-96.65717316,-13.94838238,8.81E-08,-7.42E-11,0.361
1.44E-07,3.40E-05,3.39E-05,-5.29E-05,-5.28E-05,-0.00029052,0.000291151,0.000431716,-0.00043119,642.0769653,642.0769653,706.2478638,706.2478638,-0.000378906,-1.21E-10,-8.83E-10,8.63E-10,-9.19E-10,9.03E-10,7.57E-08,0.93658483,-5.74E-12,-1.42E-07,-1.95E-09,-96.65717316,-13.94838238,8.70E-08,-8.23E-11,0.371
1.45E-07,2.18E-05,2.18E-05,-4.57E-05,-4.58E-05,-0.000291578,0.000291591,0.000427839,-0.000427091,642.0769653,642.0769653,706.2478638,706.2478638,-0.000378906,-1.23E-10,-8.50E-10,8.19E-10,-7.51E-10,7.29E-10,7.28E-08,0.93658483,-6.53E-13,-1.79E-07,2.36E-08,-96.65717316,-13.94838238,8.54E-08,-8.16E-11,0.381
1.46E-07,1.11E-05,1.12E-05,-3.57E-05,-3.56E-05,-0.00029281,0.000292026,0.000423087,-0.000422462,642.0769653,642.0769653,706.2478638,706.2478638,-0.000378906,-1.25E-10,-8.11E-10,7.75E-10,-5.58E-10,5.40E-10,6.97E-08,0.93658483,-3.71E-11,-1.86E-07,3.50E-08,-96.65717316,-13.94838238,8.35E-08,-7.54E-11,0.391
1.47E-07,2.27E-06,2.32E-06,-2.35E-05,-2.35E-05,-0.000291624,0.000294371,0.000416376,-0.000415824,642.0769653,642.0769653,706.2478638,706.2478638,-0.000378906,-1.26E-10,-7.57E-10,7.32E-10,-3.64E-10,3.48E-10,6.69E-08,0.93658483,4.08E-11,-1.64E-07,-3.93E-08,-96.65717316,-13.94838238,8.18E-08,-1.81E-11,0.401
1.48E-07,-4.57E-06,-4.49E-06,-1.06E-05,-1.06E-05,-0.000293651,0.00029504,0.000409965,-0.000409903,642.0769653,642.0769653,706.2478638,706.2478638,-0.000378907,-1.25E-10,-6.93E-10,6.80E-10,-1.78E-10,1.76E-10,6.47E-08,0.93658483,6.73E-13,-1.27E-07,-1.80E-09,-96.65717316,-13.94838238,8.04E-08,-2.22E-11,0.411
1.49E-07,-8.79E-06,-8.66E-06,6.37E-07,7.64E-07,-0.000296815,0.000297098,0.00040336,-0.000405542,642.0769653,642.0769653,706.2479248,706.2479248,-0.000378907,-1.23E-10,-6.25E-10,6.16E-10,-4.13E-11,4.97E-11,6.32E-08,0.93658483,-1.82E-11,-6.69E-08,-4.11E-08,-96.65717316,-13.94838238,7.95E-08,-1.37E-11,0.421
1.49E-07,-1.09E-05,-1.09E-05,1.15E-05,1.16E-05,-0.000297882,0.000299369,0.000401886,-0.000399807,642.0769653,642.0769653,706.2479248,706.2479248,-0.000378907,-1.23E-10,-5.61E-10,5.45E-10,5.63E-11,-6.18E-11,6.28E-08,0.93658483,1.37E-11,3.47E-09,3.52E-08,-96.65717316,-13.94838238,7.92E-08,-4.55E-11,0.431
1.50E-07,-1.18E-05,-1.18E-05,2.12E-05,2.13E-05,-0.000300744,0.000299344,0.000397053,-0.000396838,642.0769653,642.0769653,706.2479858,706.2479858,-0.000378907,-1.22E-10,-5.02E-10,4.85E-10,1.42E-10,-1.48E-10,6.34E-08,0.93658483,-4.15E-11,6.58E-08,-4.05E-09,-96.65717316,-13.94838238,7.96E-08,-3.42E-11,0.441
1.51E-07,-1.28E-05,-1.25E-05,2.83E-05,2.86E-05,-0.00030238,0.00030343,0.00039209,-0.000392887,642.0770264,642.0770264,706.2479858,706.2479858,-0.000378907,-1.24E-10,-4.51E-10,4.18E-10,2.03E-10,-2.07E-10,6.50E-08,0.93658483,-4.89E-11,1.11E-07,1.70E-09,-96.65717316,-13.94838238,8.06E-08,-3.87E-11,0.451
1.52E-07,-1.38E-05,-1.36E-05,3.22E-05,3.24E-05,-0.000303216,0.000307173,0.000390248,-0.000391733,642.0770264,642.0770264,706.2479858,706.2479858,-0.000378907,-1.25E-10,-3.94E-10,3.62E-10,2.28E-10,-2.41E-10,6.71E-08,0.93658483,4.23E-11,1.35E-07,-3.68E-08,-96.65717316,-13.94838238,8.19E-08,-3.99E-11,0.461
1.53E-07,-1.46E-05,-1.47E-05,3.27E-05,3.26E-05,-0.000307903,0.000308375,0.000392201,-0.000392648,642.0770264,642.0770264,706.2479858,706.2480469,-0.000378908,-1.26E-10,-3.39E-10,3.24E-10,2.27E-10,-2.42E-10,6.94E-08,0.93658483,6.90E-11,1.46E-07,2.16E-08,-96.65717316,-13.94838238,8.33E-08,-1.19E-11,0.471
1.54E-07,-1.52E-05,-1.54E-05,3.01E-05,2.98E-05,-0.000307988,0.00030937,0.000391175,-0.000390664,642.0770264,642.0770264,706.2480469,706.2480469,-0.000378908,-1.26E-10,-3.06E-10,2.93E-10,2.02E-10,-2.16E-10,7.15E-08,0.93658483,2.73E-11,1.12E-07,-6.36E-09,-96.65717316,-13.94838238,8.45E-08,-4.12E-11,0.481
1.55E-07,-1.53E-05,-1.53E-05,2.51E-05,2.50E-05,-0.000311307,0.000310842,0.000390691,-0.000390497,642.0770874,642.0770264,706.2480469,706.2480469,-0.000378907,-1.26E-10,-2.93E-10,2.78E-10,1.60E-10,-1.66E-10,7.30E-08,0.93658483,-1.75E-11,8.18E-08,1.88E-08,-96.65717316,-13.94838238,8.54E-08,-3.24E-11,0.491
1.56E-07,-1.45E-05,-1.45E-05,1.92E-05,1.92E-05,-0.000309227,0.000307802,0.000393497,-0.000391502,642.0770874,642.0770874,706.2480469,706.2480469,-0.000378907,-1.25E-10,-2.98E-10,2.81E-10,1.06E-10,-1.09E-10,7.39E-08,0.93658483,-6.84E-11,2.98E-08,5.44E-09,-96.65717316,-13.94838238,8.60E-08,-3.84E-11,0.501
1.57E-07,-1.32E-05,-1.28E-05,1.27E-05,1.32E-05,-0.00031036,0.000311166,0.000394338,-0.00039667,642.0770874,642.0770874,706.2479858,706.2480469,-0.000378907,-1.23E-10,-3.23E-10,2.98E-10,5.42E-11,-4.22E-11,7.42E-08,0.93658483,-8.39E-11,8.04E-09,-5.49E-08,-96.65717316,-13.94838238,8.61E-08,-3.29E-11,0.511
1.58E-07,-1.09E-05,-1.07E-05,6.85E-06,7.10E-06,-0.000307325,0.000308188,0.000396699,-0.000396424,642.0770874,642.0770874,706.2479858,706.2479858,-0.000378907,-1.24E-10,-3.57E-10,3.30E-10,-1.42E-11,6.24E-12,7.40E-08,0.93658483,-8.65E-12,-3.44E-08,1.95E-08,-96.65717316,-13.94838238,8.60E-08,-5.58E-11,0.521
1.58E-07,-8.23E-06,-8.17E-06,1.63E-06,1.72E-06,-0.000306876,0.000308892,0.00039881,-0.000397082,642.0770874,642.0770874,706.2479858,706.2479858,-0.000378907,-1.25E-10,-4.02E-10,3.69E-10,-7.54E-11,5.33E-11,7.33E-08,0.93658483,1.71E-11,-5.06E-08,2.17E-08,-96.65717316,-13.94838238,8.56E-08,-7.50E-11,0.531
1.59E-07,-5.21E-06,-5.33E-06,-2.72E-06,-2.75E-06,-0.000304724,0.000306151,0.00040026,-0.000398941,642.0770264,642.0770264,706.2479858,706.2479858,-0.000378907,-1.25E-10,-4.39E-10,4.24E-10,-1.17E-10,1.07E-10,7.24E-08,0.93658483,4.39E-11,-6.27E-08,1.77E-08,-96.65717316,-13.94838238,8.51E-08,-2.77E-13,0.541
1.60E-07,-2.02E-06,-2.17E-06,-6.43E-06,-6.49E-06,-0.000307419,0.000305404,0.000399635,-0.00040179,642.0770264,642.0770264,706.2479858,706.2479858,-0.000378907,-1.22E-10,-4.75E-10,4.78E-10,-1.55E-10,1.62E-10,7.13E-08,0.93658483,8.91E-12,-6.71E-08,-4.33E-08,-96.65717316,-13.94838238,8.45E-08,1.57E-11,0.551
1.61E-07,1.07E-06,9.99E-07,-9.02E-06,-9.11E-06,-0.000305808,0.000305255,0.00040406,-0.000402893,642.0770264,642.0770264,706.2479858,706.2479858,-0.000378907,-1.22E-10,-5.25E-10,5.13E-10,-2.00E-10,1.94E-10,7.03E-08,0.93658483,-1.52E-11,-5.33E-08,1.62E-08,-96.65717316,-13.94838238,8.38E-08,-2.73E-11,0.561
1.62E-07,3.86E-06,3.93E-06,-1.05E-05,-1.05E-05,-0.000301267,0.000302303,0.000404179,-0.00040162,642.0770264,642.0770264,706.2479858,706.2479858,-0.000378907,-1.24E-10,-5.77E-10,5.45E-10,-2.31E-10,2.13E-10,6.94E-08,0.93658483,-2.74E-11,-5.54E-08,3.54E-08,-96.65717316,-13.94838238,8.33E-08,-5.43E-11,0.571
1.63E-07,6.09E-06,6.08E-06,-1.12E-05,-1.12E-05,-0.000301231,0.000301909,0.000402599,-0.000404144,642.0770264,642.0770264,706.2479858,706.2479858,-0.000378907,-1.25E-10,-6.08E-10,5.87E-10,-2.41E-10,2.30E-10,6.87E-08,0.93658483,6.05E-11,-3.73E-08,-3.09E-08,-96.65717316,-13.94838238,8.29E-08,-2.21E-12,0.581
1.63E-07,7.25E-06,7.18E-06,-1.11E-05,-1.11E-05,-0.000302665,0.000300847,0.000405354,-0.00040543,642.0770264,642.0770264,706.2479858,706.2479858,-0.000378907,-1.24E-10,-6.24E-10,6.20E-10,-2.37E-10,2.40E-10,6.81E-08,0.93658483,3.51E-13,-2.30E-08,4.34E-09,-96.65717316,-13.94838238,8.25E-08,3.94E-11,0.591
1.64E-07,7.53E-06,7.47E-06,-1.08E-05,-1.08E-05,-0.000300413,0.000298419,0.000404172,-0.000405467,642.0770264,642.0770264,706.2479858,706.2479858,-0.000378907,-1.22E-10,-6.34E-10,6.36E-10,-2.31E-10,2.41E-10,6.77E-08,0.93658483,-5.39E-12,-2.61E-08,-2.55E-08,-96.65717316,-13.94838238,8.23E-08,3.30E-11,0.601
1.65E-07,7.19E-06,7.41E-06,-1.03E-05,-1.02E-05,-0.000299894,0.000298755,0.000405175,-0.000406077,642.0770264,642.0770264,706.2479858,706.2479858,-0.000378907,-1.23E-10,-6.50E-10,6.25E-10,-2.32E-10,2.31E-10,6.73E-08,0.93658483,-6.33E-11,-2.67E-08,-9.76E-09,-96.65717316,-13.94838238,8.20E-08,-2.75E-11,0.611
1.66E-07,6.79E-06,7.13E-06,-9.47E-06,-9.22E-06,-0.000298772,0.000299979,0.000404056,-0.000403768,642.0770264,642.0770264,706.2479858,706.2479858,-0.000378907,-1.25E-10,-6.55E-10,6.17E-10,-2.28E-10,2.19E-10,6.70E-08,0.93658483,-6.64E-11,-1.77E-08,1.40E-08,-96.65717316,-13.94838238,8.18E-08,-2.70E-11,0.621
1.67E-07,6.28E-06,6.63E-06,-8.11E-06,-7.82E-06,-0.000300002,0.000299047,0.000405417,-0.000405344,642.0770264,642.0770264,706.2479858,706.2479858,-0.000378907,-1.26E-10,-6.47E-10,6.16E-10,-2.11E-10,2.09E-10,6.67E-08,0.93658483,-4.99E-11,-1.03E-08,3.27E-09,-96.65717316,-13.94838238,8.17E-08,2.50E-12,0.631
1.68E-07,5.68E-06,5.85E-06,-6.47E-06,-6.29E-06,-0.000300538,0.00030099,0.000406687,-0.000406795,642.0770264,642.0770264,706.2479858,706.2479858,-0.000378907,-1.25E-10,-6.30E-10,6.16E-10,-1.93E-10,1.96E-10,6.66E-08,0.93658483,-1.88E-12,-3.40E-10,-4.15E-09,-96.65717316,-13.94838238,8.16E-08,1.26E-11,0.641
1.68E-07,4.86E-06,4.98E-06,-4.88E-06,-4.79E-06,-0.000297963,0.000299459,0.000404325,-0.000405196,642.0770264,642.0770264,706.2479858,706.2479858,-0.000378907,-1.25E-10,-6.20E-10,6.03E-10,-1.80E-10,1.77E-10,6.66E-08,0.93658483,1.54E-11,-7.04E-10,-2.83E-09,-96.65717316,-13.94838238,8.16E-08,-2.64E-11,0.651
1.69E-07,3.89E-06,4.05E-06,-3.26E-06,-3.15E-06,-0.000299322,0.000300102,0.00040381,-0.000403662,642.0770264,642.0770264,706.2479858,706.2479858,-0.000378907,-1.26E-10,-6.07E-10,5.83E-10,-1.65E-10,1.60E-10,6.66E-08,0.93658483,-2.39E-11,4.03E-09,8.57E-09,-96.65717316,-13.94838238,8.16E-08,-2.66E-11,0.661
1.70E-07,3.00E-06,3.03E-06,-1.62E-06,-1.58E-06,-0.000299877,0.000301536,0.00040137,-0.000403034,642.0770264,642.0770264,706.2479858,706.2479858,-0.000378907,-1.26E-10,-5.90E-10,5.69E-10,-1.50E-10,1.42E-10,6.68E-08,0.93658483,5.00E-11,9.50E-09,-3.91E-08,-96.65717316,-13.94838238,8.17E-08,-3.23E-11,0.671
1.71E-07,2.15E-06,2.01E-06,-2.81E-07,-4.44E-07,-0.000299441,0.000301096,0.000403051,-0.000402376,642.0770264,642.0770264,706.2479858,706.2479858,-0.000378907,-1.27E-10,-5.73E-10,5.52E-10,-1.43E-10,1.23E-10,6.70E-08,0.93658483,7.21E-11,4.96E-09,4.29E-08,-96.65717316,-13.94838238,8.18E-08,-4.90E-11,0.681
1.72E-07,1.28E-06,1.14E-06,6.97E-07,5.03E-07,-0.000300983,0.000299668,0.000401725,-0.000402074,642.0770264,642.0770264,706.2479858,706.2479858,-0.000378907,-1.27E-10,-5.56E-10,5.36E-10,-1.32E-10,1.14E-10,6.72E-08,0.93658483,1.34E-11,6.26E-09,-7.20E-11,-96.65717316,-13.94838238,8.20E-08,-5.75E-11,0.691
1.73E-07,6.92E-07,4.19E-07,1.47E-06,1.18E-06,-0.000303373,0.000303902,0.000402452,-0.000403633,642.0770264,642.0770264,706.2479858,706.2479858,-0.000378907,-1.27E-10,-5.41E-10,5.25E-10,-1.25E-10,1.04E-10,6.74E-08,0.93658483,8.18E-11,1.80E-08,-2.76E-08,-96.65717316,-13.94838238,8.21E-08,-6.06E-11,0.701
1.73E-07,-1.89E-08,-1.87E-07,2.00E-06,1.72E-06,-0.000303482,0.000302465,0.000402302,-0.000401301,642.0770264,642.0770264,706.2479858,706.2479858,-0.000378907,-1.28E-10,-5.38E-10,5.09E-10,-1.21E-10,9.20E-11,6.76E-08,0.93658483,3.54E-12,9.81E-09,2.85E-08,-96.65717316,-13.94838238,8.22E-08,-1.11E-10,0.711
1.74E-07,-8.09E-07,-7.55E-07,2.02E-06,1.97E-06,-0.000303687,0.000302869,0.000401983,-0.000399372,642.0770264,642.0770264,706.2479858,706.2479858,-0.000378907,-1.28E-10,-5.32E-10,4.97E-10,-1.12E-10,9.17E-11,6.78E-08,0.93658483,-7.12E-11,7.77E-09,8.66E-09,-96.65717316,-13.94838238,8.23E-08,-8.70E-11,0.721
1.75E-07,-1.43E-06,-1.19E-06,1.78E-06,2.05E-06,-0.000305092,0.000302904,0.000401446,-0.000399745,642.0770264,642.0770264,706.2479858,706.2479858,-0.000378907,-1.25E-10,-5.18E-10,4.95E-10,-9.62E-11,1.03E-10,6.79E-08,0.93658483,-1.01E-10,-6.23E-10,4.33E-08,-96.65717316,-13.94838238,8.24E-08,-3.68E-11,0.731
1.76E-07,-2.06E-06,-1.27E-06,1.33E-06,2.12E-06,-0.000303961,0.000305277,0.000401181,-0.000399911,642.0770264,642.0770264,706.2479858,706.2479858,-0.000378907,-1.23E-10,-5.23E-10,4.82E-10,-8.85E-11,1.07E-10,6.80E-08,0.93658483,-2.28E-10,1.44E-09,-2.04E-08,-96.65717316,-13.94838238,8.24E-08,-6.03E-11,0.741
1.77E-07,-1.95E-06,-1.66E-06,1.03E-06,1.63E-06,-0.000304252,0.000305008,0.000401409,-0.000401632,642.0770264,642.0770264,706.2479858,706.2479858,-0.000378907,-1.21E-10,-5.14E-10,4.90E-10,-9.52E-11,1.02E-10,6.79E-08,0.93658483,4.19E-11,-2.86E-10,3.54E-08,-96.65717316,-13.94838238,8.24E-08,-3.71E-11,0.751
1.77E-07,-1.64E-06,-1.92E-06,7.44E-07,7.54E-07,-0.000304316,0.000304848,0.000399159,-0.000401239,642.0770264,642.0770264,706.2479858,706.2479858,-0.000378907,-1.21E-10,-5.12E-10,4.95E-10,-1.13E-10,9.02E-11,6.78E-08,0.93658483,1.15E-10,-9.26E-09,-1.68E-08,-96.65717316,-13.94838238,8.24E-08,-5.79E-11,0.761
1.78E-07,-1.32E-06,-1.70E-06,3.47E-07,2.89E-08,-0.000304005,0.000303035,0.000400655,-0.000399165,642.0770264,642.0770264,706.2479858,706.2479858,-0.000378907,-1.25E-10,-5.22E-10,4.91E-10,-1.29E-10,8.57E-11,6.77E-08,0.93658483,6.21E-11,-1.77E-08,2.81E-08,-96.65717316,-13.94838238,8.23E-08,-6.77E-11,0.771
1.79E-07,-9.04E-07,-1.19E-06,-5.13E-08,-4.64E-07,-0.000303818,0.000304827,0.000400729,-0.000399454,642.0770264,642.0770264,706.2479858,706.2479858,-0.000378907,-1.27E-10,-5.27E-10,4.96E-10,-1.31E-10,9.41E-11,6.75E-08,0.93658483,3.46E-11,-6.57E-09,-5.06E-09,-96.65717316,-13.94838238,8.22E-08,-3.99E-11,0.781
1.80E-07,-4.17E-07,-6.33E-07,-4.46E-07,-8.58E-07,-0.000303804,0.000304417,0.000402528,-0.000399916,642.0770264,642.0770264,706.2479858,706.2479858,-0.000378907,-1.28E-10,-5.28E-10,5.09E-10,-1.28E-10,1.08E-10,6.74E-08,0.93658483,3.17E-11,-1.06E-08,3.26E-08,-96.65717316,-13.94838238,8.21E-08,-1.72E-11,0.791
1.81E-07,-1.34E-07,3.82E-08,-1.13E-06,-1.17E-06,-0.000303604,0.000303211,0.000402299,-0.000400539,642.0770264,642.0770264,706.2479858,706.2479858,-0.000378907,-1.26E-10,-5.34E-10,5.16E-10,-1.21E-10,1.26E-10,6.73E-08,0.93658483,-1.12E-10,-3.48E-09,2.50E-08,-96.65717316,-13.94838238,8.20E-08,-1.51E-11,0.801
1.82E-07,1.14E-07,6.31E-07,-1.85E-06,-1.40E-06,-0.000303294,0.000303162,0.000401328,-0.000400971,642.0770264,642.0770264,706.2479858,706.2479858,-0.000378907,-1.24E-10,-5.44E-10,5.18E-10,-1.21E-10,1.38E-10,6.71E-08,0.93658483,-1.07E-10,-2.03E-08,2.46E-08,-96.65717316,-13.94838238,8.19E-08,-2.65E-11,0.811
1.82E-07,6.71E-07,9.30E-07,-2.29E-06,-1.85E-06,-0.00030321,0.00030389,0.000402703,-0.00040195,642.0770264,642.0770264,706.2479858,706.2479858,-0.000378907,-1.22E-10,-5.47E-10,5.25E-10,-1.33E-10,1.39E-10,6.70E-08,0.93658483,-2.11E-11,-3.29E-09,-1.57E-08,-96.65717316,-13.94838238,8.18E-08,-3.10E-11,0.821
1.83E-07,1.09E-06,1.39E-06,-2.67E-06,-2.13E-06,-0.000304945,0.000303786,0.00040288,-0.000402168,642.0770264,642.0770264,706.2479858,706.2479858,-0.000378907,-1.20E-10,-5.52E-10,5.29E-10,-1.38E-10,1.45E-10,6.68E-08,0.93658483,-1.23E-10,-5.43E-09,-1.18E-08,-96.65717316,-13.94838238,8.17E-08,-7.44E-12,0.831
1.84E-07,1.36E-06,1.82E-06,-2.89E-06,-2.22E-06,-0.000303722,0.000303731,0.000402876,-0.000403346,642.0770264,642.0770264,706.2479858,706.2479858,-0.000378907,-1.20E-10,-5.61E-10,5.30E-10,-1.38E-10,1.51E-10,6.67E-08,0.93658483,-1.20E-10,-2.44E-09,-2.49E-08,-96.65717316,-13.94838238,8.17E-08,1.97E-11,0.841
1.85E-07,1.64E-06,1.99E-06,-2.95E-06,-2.49E-06,-0.000302587,0.000302681,0.000403204,-0.000403185,642.0770264,642.0770264,706.2479858,706.2479858,-0.000378907,-1.21E-10,-5.66E-10,5.33E-10,-1.47E-10,1.47E-10,6.66E-08,0.93658483,-4.14E-11,-6.18E-09,2.55E-09,-96.65717316,-13.94838238,8.16E-08,1.29E-11,0.851
1.86E-07,1.80E-06,1.96E-06,-2.87E-06,-2.73E-06,-0.000301608,0.0003016,0.000403471,-0.000401086,642.0770264,642.0770264,706.2479858,706.2479858,-0.000378907,-1.24E-10,-5.66E-10,5.36E-10,-1.55E-10,1.41E-10,6.65E-08,0.93658483,-2.78E-11,-6.05E-09,3.77E-08,-96.65717316,-13.94838238,8.15E-08,1.85E-11,0.861
1.86E-07,1.73E-06,2.08E-06,-2.87E-06,-2.77E-06,-0.000304375,0.000303645,0.000400551,-0.000403114,642.0770264,642.0770264,706.2479858,706.2479858,-0.000378907,-1.27E-10,-5.70E-10,5.33E-10,-1.54E-10,1.45E-10,6.64E-08,0.93658483,-5.57E-11,-2.35E-09,-4.33E-08,-96.65717316,-13.94838238,8.15E-08,1.60E-11,0.871
1.87E-07,1.85E-06,1.95E-06,-2.64E-06,-2.80E-06,-0.000300644,0.000302497,0.000403481,-0.000403005,642.0770264,642.0770264,706.2479858,706.2479858,-0.000378907,-1.29E-10,-5.66E-10,5.39E-10,-1.55E-10,1.41E-10,6.63E-08,0.93658483,7.38E-11,-1.03E-08,3.21E-09,-96.65717316,-13.94838238,8.14E-08,1.39E-11,0.881
1.88E-07,1.96E-06,1.72E-06,-2.38E-06,-2.82E-06,-0.000300945,0.000301263,0.000402532,-0.000401969,642.0770264,642.0770264,706.2479858,706.2479858,-0.000378907,-1.29E-10,-5.57E-10,5.47E-10,-1.56E-10,1.39E-10,6.62E-08,0.93658483,9.77E-11,-6.82E-09,3.80E-08,-96.65717316,-13.94838238,8.13E-08,-2.66E-12,0.891
1.89E-07,1.88E-06,1.70E-06,-2.26E-06,-2.63E-06,-0.000302849,0.000303263,0.000399495,-0.000402974,642.0770264,642.0770264,706.2479858,706.2479858,-0.000378907,-1.29E-10,-5.58E-10,5.45E-10,-1.51E-10,1.41E-10,6.61E-08,0.93658483,5.77E-11,-3.64E-09,-6.60E-08,-96.65717316,-13.94838238,8.13E-08,-3.56E-11,0.901
1.90E-07,1.79E-06,1.57E-06,-2.10E-06,-2.42E-06,-0.00030177,0.000301461,0.000399521,-0.000401817,642.0770264,642.0770264,706.2479858,706.2479858,-0.000378907,-1.28E-10,-5.61E-10,5.41E-10,-1.52E-10,1.35E-10,6.60E-08,0.93658483,5.69E-11,-1.32E-08,-4.73E-08,-96.65717316,-13.94838238,8.12E-08,-6.96E-11,0.911
1.91E-07,1.69E-06,1.41E-06,-2.02E-06,-2.30E-06,-0.000300818,0.000302529,0.000401522,-0.000402629,642.0770264,642.0770264,706.2479858,706.2479858,-0.000378907,-1.28E-10,-5.61E-10,5.38E-10,-1.54E-10,1.31E-10,6.59E-08,0.93658483,8.58E-11,-8.66E-09,-3.16E-09,-96.65717316,-13.94838238,8.12E-08,-1.01E-10,0.921
1.91E-07,1.59E-06,1.22E-06,-1.79E-06,-2.10E-06,-0.000301867,0.000303535,0.000402489,-0.000402456,642.0770264,642.0770264,706.2479858,706.2479858,-0.000378907,-1.27E-10,-5.58E-10,5.36E-10,-1.54E-10,1.26E-10,6.59E-08,0.93658483,6.37E-11,-5.75E-09,-1.04E-08,-96.65717316,-13.94838238,8.12E-08,-9.55E-11,0.931
1.92E-07,1.37E-06,1.18E-06,-1.71E-06,-1.82E-06,-0.000301889,0.000302667,0.000401284,-0.000402552,642.0770264,642.0770264,706.2479858,706.2479858,-0.000378907,-1.25E-10,-5.58E-10,5.33E-10,-1.47E-10,1.28E-10,6.58E-08,0.93658483,4.28E-11,-1.53E-09,-1.62E-08,-96.65717316,-13.94838238,8.11E-08,-8.58E-11,0.941
1.93E-07,1.38E-06,9.31E-07,-1.45E-06,-1.78E-06,-0.000303023,0.000302597,0.000401396,-0.000402306,642.0770264,642.0770264,706.2479858,706.2479858,-0.000378907,-1.24E-10,-5.52E-10,5.35E-10,-1.50E-10,1.21E-10,6.57E-08,0.93658483,1.13E-10,-3.28E-09,1.72E-08,-96.65717316,-13.94838238,8.11E-08,-9.36E-11,0.951
1.94E-07,1.18E-06,8.18E-07,-1.26E-06,-1.58E-06,-0.000301064,0.000301802,0.000401353,-0.000401238,642.0770264,642.0770264,706.2479858,706.2479858,-0.000378907,-1.24E-10,-5.53E-10,5.30E-10,-1.49E-10,1.18E-10,6.57E-08,0.93658483,3.89E-11,-3.89E-09,-1.34E-08,-96.65717316,-13.94838238,8.11E-08,-8.27E-11,0.961
1.95E-07,1.06E-06,8.09E-07,-1.22E-06,-1.46E-06,-0.000302996,0.000303821,0.000401251,-0.00040222,642.0770264,642.0770264,706.2479858,706.2479858,-0.000378907,-1.24E-10,-5.53E-10,5.27E-10,-1.46E-10,1.19E-10,6.56E-08,0.93658483,6.26E-11,3.10E-10,-2.98E-08,-96.65717316,-13.94838238,8.10E-08,-7.80E-11,0.971
1.95E-07,9.99E-07,6.87E-07,-1.10E-06,-1.40E-06,-0.000304013,0.000300925,0.000401264,-0.000402112,642.0770264,642.0770264,706.2479858,706.2479858,-0.000378907,-1.24E-10,-5.52E-10,5.27E-10,-1.47E-10,1.16E-10,6.56E-08,0.93658483,3.56E-11,-2.93E-09,-1.10E-09,-96.65717316,-13.94838238,8.10E-08,-7.21E-11,0.981
1.96E-07,9.39E-07,6.00E-07,-1.03E-06,-1.39E-06,-0.000302078,0.00030391,0.000399414,-0.000401976,642.0770264,642.0770264,706.2479858,706.2479858,-0.000378907,-1.25E-10,-5.52E-10,5.25E-10,-1.49E-10,1.12E-10,6.55E-08,0.93658483,1.21E-10,-5.08E-09,-5.70E-08,-96.65717316,-13.94838238,8.10E-08,-8.28E-11,0.991
1.97E-07,9.19E-07,5.33E-07,-9.87E-07,-1.43E-06,-0.000302183,0.000303865,0.000401314,-0.000400073,642.0770264,642.0770264,706.2479858,706.2479858,-0.000378907,-1.26E-10,-5.48E-10,5.26E-10,-1.48E-10,1.12E-10,6.55E-08,0.93658483,9.04E-11,-6.83E-09,3.87E-08,-96.65717316,-13.94838238,8.09E-08,-7.82E-11,1.001
1.98E-07,9.30E-07,4.99E-07,-9.79E-07,-1.48E-06,-0.000303226,0.000303798,0.000400315,-0.000402017,642.0770264,642.0770264,706.2479858,706.2479858,-0.000378907,-1.25E-10,-5.46E-10,5.28E-10,-1.47E-10,1.13E-10,6.54E-08,0.93658483,1.03E-10,-7.41E-10,-4.45E-08,-96.65717316,-13.94838238,8.09E-08,-7.91E-11,1.011
1.99E-07,8.99E-07,5.13E-07,-1.04E-06,-1.50E-06,-0.00030322,0.00030287,0.000401264,-0.000402061,642.0770264,642.0770264,706.2479858,706.2479858,-0.000378907,-1.25E-10,-5.46E-10,5.27E-10,-1.47E-10,1.14E-10,6.54E-08,0.93658483,7.72E-11,-4.03E-09,-1.32E-08,-96.65717316,-13.94838238,8.09E-08,-7.83E-11,1.021
1.99E-07,9.05E-07,5.75E-07,-1.09E-06,-1.49E-06,-0.000303158,0.000302958,0.000401316,-0.000402054,642.0770264,642.0770264,706.2479858,706.2479858,-0.000378907,-1.25E-10,-5.48E-10,5.24E-10,-1.48E-10,1.14E-10,6.53E-08,0.93658483,6.67E-11,-4.06E-09,1.76E-08,-96.65717316,-13.94838238,8.08E-08,-8.67E-11,1.031
2.00E-07,8.95E-07,6.57E-07,-1.14E-06,-1.42E-06,-0.000301118,0.000302035,0.000401293,-0.000399163,642.0770264,642.0770264,706.2479858,706.2479858,-0.000378907,-1.25E-10,-5.51E-10,5.23E-10,-1.47E-10,1.14E-10,6.52E-08,0.93658483,8.19E-11,-1.23E-08,6.98E-08,-96.65717316,-13.94838238,8.08E-08,-8.80E-11,1.041
2.01E-07,9.31E-07,6.68E-07,-1.24E-06,-1.51E-06,-0.000302195,0.000301901,0.000401224,-0.000400252,642.0770264,642.0770264,706.2479858,706.2479858,-0.000378907,-1.24E-10,-5.48E-10,5.27E-10,-1.45E-10,1.17E-10,6.52E-08,0.93658483,3.90E-11,-6.80E-09,3.32E-08,-96.65717316,-13.94838238,8.07E-08,-6.84E-11,1.051
2.02E-07,1.01E-06,6.29E-07,-1.31E-06,-1.66E-06,-0.000303208,0.000302798,0.000401332,-0.000402131,642.0770264,642.0770264,706.2479858,706.2479858,-0.000378907,-1.24E-10,-5.47E-10,5.29E-10,-1.49E-10,1.16E-10,6.51E-08,0.93658483,9.56E-11,-6.44E-09,2.50E-09,-96.65717316,-13.94838238,8.07E-08,-7.22E-11,1.061
2.03E-07,1.05E-06,7.07E-07,-1.43E-06,-1.81E-06,-0.000303022,0.000303897,0.000402494,-0.000401066,642.0770264,642.0770264,706.2479858,706.2479858,-0.000378907,-1.24E-10,-5.52E-10,5.25E-10,-1.54E-10,1.13E-10,6.50E-08,0.93658483,3.73E-11,-9.18E-09,6.03E-09,-96.65717316,-13.94838238,8.06E-08,-9.06E-11,1.071
2.03E-07,9.91E-07,8.60E-07,-1.55E-06,-1.76E-06,-0.000301942,0.000303989,0.000400484,-0.000402167,642.0770264,642.0770264,706.2479858,706.2479858,-0.000378907,-1.25E-10,-5.56E-10,5.22E-10,-1.52E-10,1.17E-10,6.49E-08,0.93658483,3.12E-11,-3.95E-09,-4.55E-08,-96.65717316,-13.94838238,8.06E-08,-8.50E-11,1.081
2.04E-07,1.03E-06,9.49E-07,-1.58E-06,-1.76E-06,-0.000301872,0.000303999,0.000399541,-0.0004012,642.0770264,642.0770264,706.2479858,706.2479858,-0.000378907,-1.26E-10,-5.58E-10,5.22E-10,-1.53E-10,1.17E-10,6.49E-08,0.93658483,6.06E-11,-1.30E-08,-3.01E-09,-96.65717316,-13.94838238,8.05E-08,-7.82E-11,1.091
2.05E-07,1.26E-06,8.23E-07,-1.50E-06,-1.95E-06,-0.000303099,0.000303664,0.000400606,-0.000401134,642.0770264,642.0770264,706.2479858,706.2479858,-0.000378907,-1.26E-10,-5.50E-10,5.32E-10,-1.55E-10,1.15E-10,6.48E-08,0.93658483,1.10E-10,-8.44E-09,-2.03E-08,-96.65717316,-13.94838238,8.05E-08,-6.60E-11,1.101
2.06E-07,1.21E-06,9.19E-07,-1.62E-06,-1.97E-06,-0.000302111,0.000303682,0.000401448,-0.000402283,642.0770264,642.0770264,706.2479858,706.2479858,-0.000378907,-1.25E-10,-5.51E-10,5.32E-10,-1.52E-10,1.20E-10,6.47E-08,0.93658483,5.51E-11,-3.69E-09,-5.44E-08,-96.65717316,-13.94838238,8.04E-08,-6.24E-11,1.111
2.07E-07,1.27E-06,9.62E-07,-1.64E-06,-1.97E-06,-0.000303058,0.000301729,0.00040144,-0.000401358,642.0770264,642.0770264,706.2479858,706.2479858,-0.000378907,-1.24E-10,-5.51E-10,5.32E-10,-1.52E-10,1.21E-10,6.46E-08,0.93658483,2.23E-11,-3.28E-09,-2.01E-08,-96.65717316,-13.94838238,8.04E-08,-5.84E-11,1.121
2.08E-07,1.26E-06,1.00E-06,-1.63E-06,-1.88E-06,-0.000302974,0.000302772,0.000401469,-0.000402268,642.0770264,642.0770264,706.2479858,706.2479858,-0.000378907,-1.24E-10,-5.54E-10,5.30E-10,-1.53E-10,1.20E-10,6.45E-08,0.93658483,8.09E-11,-4.62E-09,-2.06E-08,-96.65717316,-13.94838238,8.03E-08,-5.96E-11,1.131
2.08E-07,1.36E-06,9.24E-07,-1.55E-06,-1.96E-06,-0.000303019,0.000302705,0.000401649,-0.000400163,642.0770264,642.0770264,706.2479858,706.2479858,-0.000378907,-1.24E-10,-5.52E-10,5.32E-10,-1.58E-10,1.15E-10,6.45E-08,0.93658483,8.05E-11,-6.23E-09,2.77E-08,-96.65717316,-13.94838238,8.03E-08,-8.07E-11,1.141
2.09E-07,1.35E-06,9.62E-07,-1.59E-06,-1.97E-06,-0.000301066,0.000303657,0.000401592,-0.000402149,642.0770264,642.0770264,706.2479858,706.2479858,-0.000378907,-1.24E-10,-5.53E-10,5.33E-10,-1.56E-10,1.17E-10,6.44E-08,0.93658483,1.15E-10,-5.97E-09,1.41E-09,-96.65717316,-13.94838238,8.02E-08,-5.39E-11,1.151
2.10E-07,1.27E-06,9.70E-07,-1.58E-06,-1.97E-06,-0.000302962,0.000303716,0.000403491,-0.000402158,642.0770264,642.0770264,706.2479858,706.2479858,-0.000378907,-1.24E-10,-5.54E-10,5.31E-10,-1.56E-10,1.17E-10,6.43E-08,0.93658483,5.01E-11,-5.06E-10,6.17E-08,-96.65717316,-13.94838238,8.02E-08,-6.09E-11,1.161
2.11E-07,1.21E-06,9.48E-07,-1.57E-06,-1.89E-06,-0.000301083,0.000303667,0.000401421,-0.000401298,642.0770264,642.0770264,706.2479858,706.2479858,-0.000378907,-1.24E-10,-5.52E-10,5.32E-10,-1.51E-10,1.20E-10,6.42E-08,0.93658483,7.36E-11,-6.29E-09,8.74E-10,-96.65717316,-13.94838238,8.01E-08,-4.03E-11,1.171
2.12E-07,1.25E-06,9.21E-07,-1.59E-06,-1.92E-06,-0.000302184,0.000301633,0.000401406,-0.000400396,642.0770264,642.0770264,706.2479858,706.2479858,-0.000378907,-1.23E-10,-5.48E-10,5.35E-10,-1.51E-10,1.21E-10,6.42E-08,0.93658483,6.55E-11,-9.39E-09,4.78E-08,-96.65717316,-13.94838238,8.01E-08,-2.28E-11,1.181
2.12E-07,1.20E-06,1.03E-06,-1.58E-06,-1.83E-06,-0.000301988,0.000303758,0.000401482,-0.000402221,642.0770264,642.0770264,706.2479858,706.2479858,-0.000378907,-1.24E-10,-5.54E-10,5.29E-10,-1.53E-10,1.19E-10,6.41E-08,0.93658483,5.84E-11,-4.33E-09,3.88E-09,-96.65717316,-13.94838238,8.01E-08,-5.83E-11,1.191
2.13E-07,1.25E-06,1.01E-06,-1.55E-06,-1.83E-06,-0.000302012,0.000303752,0.000401558,-0.000402166,642.0770264,642.0770264,706.2479858,706.2479858,-0.000378907,-1.24E-10,-5.54E-10,5.30E-10,-1.55E-10,1.17E-10,6.40E-08,0.93658483,7.52E-11,3.56E-09,-1.38E-09,-96.65717316,-13.94838238,8.00E-08,-4.33E-11,1.201
2.14E-07,1.20E-06,1.06E-06,-1.50E-06,-1.73E-06,-0.000301976,0.000302822,0.000401477,-0.000401237,642.0770264,642.0770264,706.2479858,706.2479858,-0.000378907,-1.25E-10,-5.55E-10,5.28E-10,-1.53E-10,1.18E-10,6.40E-08,0.93658483,3.29E-12,-3.50E-09,2.10E-08,-96.65717316,-13.94838238,8.00E-08,-5.27E-11,1.211
2.15E-07,1.19E-06,1.04E-06,-1.49E-06,-1.72E-06,-0.000302958,0.000301851,0.000401472,-0.000402191,642.0770264,642.0770264,706.2479858,706.2479858,-0.000378907,-1.26E-10,-5.54E-10,5.28E-10,-1.53E-10,1.18E-10,6.39E-08,0.93658483,3.18E-11,4.35E-09,-3.90E-08,-96.65717316,-13.94838238,7.99E-08,-3.35E-11,1.221
2.16E-07,1.14E-06,9.86E-07,-1.47E-06,-1.67E-06,-0.000303067,0.00030373,0.000401369,-0.00040131,642.0770264,642.0770264,706.2479858,706.2479858,-0.000378907,-1.25E-10,-5.51E-10,5.30E-10,-1.50E-10,1.20E-10,6.38E-08,0.93658483,4.35E-11,-2.69E-09,5.89E-09,-96.65717316,-13.94838238,7.99E-08,-3.51E-11,1.231
2.16E-07,1.17E-06,9.19E-07,-1.47E-06,-1.76E-06,-0.000303079,0.000301774,0.000401481,-0.000402159,642.0770264,642.0770264,706.2479858,706.2479858,-0.000378907,-1.25E-10,-5.51E-10,5.31E-10,-1.53E-10,1.17E-10,6.38E-08,0.93658483,5.38E-11,-9.99E-10,-1.57E-08,-96.65717316,-13.94838238,7.99E-08,-5.64E-11,1.241
2.17E-07,1.11E-06,9.29E-07,-1.53E-06,-1.75E-06,-0.00030301,0.00030379,0.000403391,-0.000402173,642.0770264,642.0770264,706.2479858,706.2479858,-0.000378907,-1.25E-10,-5.53E-10,5.28E-10,-1.53E-10,1.17E-10,6.37E-08,0.93658483,3.26E-11,2.89E-09,3.00E-08,-96.65717316,-13.94838238,7.98E-08,-5.54E-11,1.251
2.18E-07,1.21E-06,7.97E-07,-1.46E-06,-1.88E-06,-0.000303069,0.000301781,0.000401651,-0.000400073,642.0770264,642.0770264,706.2479858,706.2479858,-0.000378907,-1.26E-10,-5.51E-10,5.31E-10,-1.58E-10,1.12E-10,6.36E-08,0.93658483,6.05E-11,-1.66E-09,-1.09E-10,-96.65717316,-13.94838238,7.98E-08,-6.29E-11,1.261
2.19E-07,9.57E-07,1.02E-06,-1.63E-06,-1.70E-06,-0.000300958,0.000302004,0.000399442,-0.000400375,642.0770264,642.0770264,706.2479858,706.2479858,-0.000378907,-1.26E-10,-5.56E-10,5.24E-10,-1.50E-10,1.21E-10,6.36E-08,0.93658483,-5.60E-11,-1.25E-08,-2.73E-08,-96.65717316,-13.94838238,7.97E-08,-5.50E-11,1.271
2.20E-07,1.00E-06,1.05E-06,-1.61E-06,-1.62E-06,-0.000301922,0.000302982,0.0004014,-0.000402254,642.0770264,642.0770264,706.2479858,706.2479858,-0.000378907,-1.26E-10,-5.57E-10,5.23E-10,-1.51E-10,1.20E-10,6.35E-08,0.93658483,1.08E-11,-1.27E-09,-1.95E-08,-96.65717316,-13.94838238,7.97E-08,-6.38E-11,1.281
2.20E-07,1.05E-06,1.05E-06,-1.56E-06,-1.55E-06,-0.000302949,0.000301904,0.000400377,-0.000400333,642.0770264,642.0770264,706.2479858,706.2479858,-0.000378907,-1.25E-10,-5.55E-10,5.27E-10,-1.49E-10,1.20E-10,6.34E-08,0.93658483,-2.81E-11,-8.09E-09,-2.80E-08,-96.65717316,-13.94838238,7.96E-08,-4.35E-11,1.291
2.21E-07,1.15E-06,9.72E-07,-1.59E-06,-1.69E-06,-0.000302013,0.000303798,0.000401532,-0.000400207,642.0770264,642.0770264,706.2479858,706.2479858,-0.000378907,-1.25E-10,-5.54E-10,5.28E-10,-1.54E-10,1.16E-10,6.34E-08,0.93658483,8.54E-11,-4.22E-09,-4.23E-10,-96.65717316,-13.94838238,7.96E-08,-5.58E-11,1.301
2.22E-07,1.21E-06,8.26E-07,-1.47E-06,-1.75E-06,-0.000303215,0.000302605,0.000403366,-0.000400246,642.0770264,642.0770264,706.2479858,706.2479858,-0.000378907,-1.24E-10,-5.46E-10,5.35E-10,-1.52E-10,1.17E-10,6.33E-08,0.93658483,6.56E-11,-3.02E-09,8.39E-08,-96.65717316,-13.94838238,7.96E-08,-3.01E-11,1.311
2.23E-07,1.09E-06,8.62E-07,-1.53E-06,-1.76E-06,-0.000301125,0.000300817,0.000399513,-0.000400244,642.0770264,642.0770264,706.2479858,706.2479858,-0.000378907,-1.24E-10,-5.51E-10,5.30E-10,-1.52E-10,1.17E-10,6.32E-08,0.93658483,3.82E-11,-1.00E-08,-1.25E-08,-96.65717316,-13.94838238,7.95E-08,-4.73E-11,1.321
2.23E-07,1.06E-06,8.43E-07,-1.53E-06,-1.77E-06,-0.000302961,0.00030191,0.000399622,-0.000400132,642.0770264,642.0770264,706.2479858,706.2479858,-0.000378907,-1.25E-10,-5.54E-10,5.27E-10,-1.55E-10,1.14E-10,6.31E-08,0.93658483,2.84E-11,-1.02E-08,-3.87E-08,-96.65717316,-13.94838238,7.95E-08,-4.28E-11,1.331
2.24E-07,1.08E-06,8.95E-07,-1.55E-06,-1.78E-06,-0.000302943,0.000303828,0.000402491,-0.000402073,642.0770264,642.0770264,706.2479858,706.2479858,-0.000378907,-1.26E-10,-5.55E-10,5.27E-10,-1.54E-10,1.14E-10,6.31E-08,0.93658483,5.67E-11,-2.11E-09,2.48E-08,-96.65717316,-13.94838238,7.94E-08,-3.42E-11,1.341
2.25E-07,1.13E-06,8.47E-07,-1.54E-06,-1.84E-06,-0.000303128,0.000303612,0.000401431,-0.000402171,642.0770264,642.0770264,706.2479858,706.2479858,-0.000378907,-1.25E-10,-5.49E-10,5.34E-10,-1.51E-10,1.17E-10,6.30E-08,0.93658483,6.61E-11,-7.08E-10,-2.65E-08,-96.65717316,-13.94838238,7.94E-08,-1.77E-11,1.351
2.26E-07,1.15E-06,8.45E-07,-1.51E-06,-1.89E-06,-0.000303092,0.000301728,0.000401556,-0.000402075,642.0770264,642.0770264,706.2479858,706.2479858,-0.000378907,-1.25E-10,-5.50E-10,5.32E-10,-1.55E-10,1.14E-10,6.29E-08,0.93658483,3.88E-11,-5.20E-09,-6.44E-09,-96.65717316,-13.94838238,7.93E-08,-4.64E-11,1.361
2.27E-07,1.07E-06,9.83E-07,-1.53E-06,-1.73E-06,-0.000302885,0.000303889,0.000402501,-0.000402074,642.0770264,642.0770264,706.2479858,706.2479858,-0.000378907,-1.26E-10,-5.57E-10,5.25E-10,-1.55E-10,1.14E-10,6.28E-08,0.93658483,5.55E-12,-3.00E-09,-4.09E-08,-96.65717316,-13.94838238,7.93E-08,-4.87E-11,1.371
2.27E-07,1.06E-06,1.07E-06,-1.58E-06,-1.64E-06,-0.000301947,0.000301903,0.000401374,-0.000400322,642.0770264,642.0770264,706.2479858,706.2479858,-0.000378907,-1.26E-10,-5.56E-10,5.27E-10,-1.50E-10,1.19E-10,6.28E-08,0.93658483,-3.21E-11,-7.06E-09,3.19E-08,-96.65717316,-13.94838238,7.92E-08,-4.06E-11,1.381
2.28E-07,1.11E-06,1.12E-06,-1.58E-06,-1.62E-06,-0.000301937,0.000302881,0.00040047,-0.000401256,642.0770264,642.0770264,706.2479858,706.2479858,-0.000378907,-1.26E-10,-5.56E-10,5.27E-10,-1.52E-10,1.19E-10,6.27E-08,0.93658483,2.01E-11,-8.16E-09,-4.62E-09,-96.65717316,-13.94838238,7.92E-08,-6.36E-11,1.391
2.29E-07,1.18E-06,1.07E-06,-1.54E-06,-1.64E-06,-0.000302951,0.000301827,0.00040148,-0.000401187,642.0770264,642.0770264,706.2479858,706.2479858,-0.000378907,-1.26E-10,-5.55E-10,5.29E-10,-1.53E-10,1.17E-10,6.26E-08,0.93658483,9.04E-12,6.75E-11,8.09E-09,-96.65717316,-13.94838238,7.91E-08,-4.01E-11,1.401
2.30E-07,1.26E-06,9.29E-07,-1.50E-06,-1.75E-06,-0.000303143,0.000301657,0.000400546,-0.000402136,642.0770264,642.0770264,706.2479858,706.2479858,-0.000378907,-1.25E-10,-5.49E-10,5.34E-10,-1.54E-10,1.16E-10,6.26E-08,0.93658483,8.02E-11,-9.38E-09,-8.77E-09,-96.65717316,-13.94838238,7.91E-08,-4.06E-11,1.411
2.31E-07,1.16E-06,9.88E-07,-1.56E-06,-1.75E-06,-0.00030294,0.000302866,0.00040159,-0.000402083,642.0770264,642.0770264,706.2479858,706.2479858,-0.000378907,-1.25E-10,-5.55E-10,5.27E-10,-1.56E-10,1.15E-10,6.25E-08,0.93658483,4.99E-11,-4.10E-09,1.94E-08,-96.65717316,-13.94838238,7.91E-08,-5.89E-11,1.421
2.31E-07,1.17E-06,9.03E-07,-1.52E-06,-1.78E-06,-0.000303037,0.000303764,0.000401576,-0.000402086,642.0770264,642.0770264,706.2479858,706.2479858,-0.000378907,-1.25E-10,-5.52E-10,5.29E-10,-1.56E-10,1.15E-10,6.25E-08,0.93658483,4.17E-11,3.01E-09,-3.55E-08,-96.65717316,-13.94838238,7.90E-08,-2.87E-11,1.431
2.32E-07,1.13E-06,9.44E-07,-1.55E-06,-1.75E-06,-0.000301106,0.000301797,0.00040147,-0.000401213,642.0770264,642.0770264,706.2479858,706.2479858,-0.000378907,-1.25E-10,-5.52E-10,5.30E-10,-1.53E-10,1.17E-10,6.24E-08,0.93658483,4.60E-11,-4.89E-10,2.38E-08,-96.65717316,-13.94838238,7.90E-08,-2.91E-11,1.441
2.33E-07,1.18E-06,9.22E-07,-1.53E-06,-1.80E-06,-0.000302055,0.000303744,0.000400635,-0.000402054,642.0770264,642.0770264,706.2479858,706.2479858,-0.000378907,-1.25E-10,-5.52E-10,5.30E-10,-1.56E-10,1.14E-10,6.23E-08,0.93658483,1.18E-10,-5.86E-09,-2.81E-09,-96.65717316,-13.94838238,7.89E-08,-4.23E-11,1.451
2.34E-07,1.22E-06,8.69E-07,-1.51E-06,-1.88E-06,-0.00030309,0.000303657,0.000401638,-0.000402019,642.0770264,642.0770264,706.2479858,706.2479858,-0.000378907,-1.25E-10,-5.50E-10,5.33E-10,-1.57E-10,1.13E-10,6.22E-08,0.93658483,6.54E-11,-3.35E-10,-2.57E-08,-96.65717316,-13.94838238,7.89E-08,-4.19E-11,1.461
2.35E-07,1.24E-06,8.28E-07,-1.49E-06,-1.91E-06,-0.000303154,0.000302626,0.000402576,-0.000401085,642.0770264,642.0770264,706.2479858,706.2479858,-0.000378907,-1.25E-10,-5.48E-10,5.35E-10,-1.57E-10,1.14E-10,6.22E-08,0.93658483,4.12E-11,-1.77E-09,1.07E-08,-96.65717316,-13.94838238,7.88E-08,-2.66E-11,1.471
2.35E-07,1.08E-06,9.73E-07,-1.61E-06,-1.78E-06,-0.000303027,0.000303723,0.000401398,-0.000401294,642.0770264,642.0770264,706.2479858,706.2479858,-0.000378907,-1.24E-10,-5.52E-10,5.30E-10,-1.50E-10,1.20E-10,6.21E-08,0.93658483,-8.08E-12,-5.01E-09,1.90E-09,-96.65717316,-13.94838238,7.88E-08,-1.59E-11,1.481
2.36E-07,1.12E-06,9.48E-07,-1.58E-06,-1.77E-06,-0.000301097,0.000303715,0.000401492,-0.000402147,642.0770264,642.0770264,706.2479858,706.2479858,-0.000378907,-1.24E-10,-5.52E-10,5.31E-10,-1.53E-10,1.17E-10,6.20E-08,0.93658483,7.60E-11,-1.07E-08,-2.47E-08,-96.65717316,-13.94838238,7.87E-08,-2.84E-11,1.491
2.37E-07,1.06E-06,9.98E-07,-1.58E-06,-1.69E-06,-0.000302016,0.000303773,0.000401461,-0.000402154,642.0770264,642.0770264,706.2479858,706.2479858,-0.000378907,-1.25E-10,-5.54E-10,5.29E-10,-1.52E-10,1.17E-10,6.19E-08,0.93658483,5.23E-12,-4.49E-09,-1.93E-08,-96.65717316,-13.94838238,7.87E-08,-3.51E-11,1.501
2.38E-07,1.02E-06,1.07E-06,-1.65E-06,-1.63E-06,-0.000302871,0.000303893,0.000401477,-0.000402153,642.0770264,642.0770264,706.2479858,706.2479858,-0.000378907,-1.25E-10,-5.57E-10,5.25E-10,-1.53E-10,1.17E-10,6.19E-08,0.93658483,1.17E-11,6.44E-09,-1.29E-08,-96.65717316,-13.94838238,7.87E-08,-2.62E-11,1.511
2.38E-07,1.06E-06,1.11E-06,-1.63E-06,-1.64E-06,-0.000301902,0.000301948,0.000401509,-0.000402142,642.0770264,642.0770264,706.2479858,706.2479858,-0.000378907,-1.26E-10,-5.57E-10,5.25E-10,-1.54E-10,1.16E-10,6.18E-08,0.93658483,1.67E-12,-6.52E-09,-1.07E-08,-96.65717316,-13.94838238,7.86E-08,-3.07E-11,1.521
2.39E-07,1.14E-06,1.06E-06,-1.52E-06,-1.67E-06,-0.000302887,0.00030387,0.000401657,-0.000401982,642.0770264,642.0770264,706.2479858,706.2479858,-0.000378907,-1.27E-10,-5.57E-10,5.26E-10,-1.58E-10,1.12E-10,6.17E-08,0.93658483,5.15E-11,4.22E-09,-2.30E-08,-96.65717316,-13.94838238,7.86E-08,-5.02E-11,1.531
2.40E-07,1.19E-06,9.74E-07,-1.42E-06,-1.70E-06,-0.000302012,0.000302817,0.000403585,-0.000400987,642.0770264,642.0770264,706.2479858,706.2479858,-0.000378907,-1.28E-10,-5.54E-10,5.29E-10,-1.58E-10,1.11E-10,6.17E-08,0.93658483,5.68E-11,-1.79E-09,6.59E-08,-96.65717316,-13.94838238,7.85E-08,-3.93E-11,1.541
2.41E-07,1.14E-06,9.74E-07,-1.47E-06,-1.73E-06,-0.000302048,0.000302799,0.000399626,-0.000402073,642.0770264,642.0770264,706.2479858,706.2479858,-0.000378907,-1.27E-10,-5.53E-10,5.29E-10,-1.55E-10,1.14E-10,6.16E-08,0.93658483,2.37E-11,-5.44E-09,-6.22E-08,-96.65717316,-13.94838238,7.85E-08,-5.34E-11,1.551
2.42E-07,1.05E-06,1.06E-06,-1.58E-06,-1.66E-06,-0.000302923,0.00030389,0.00040147,-0.00040219,642.0770264,642.0770264,706.2479858,706.2479858,-0.000378907,-1.27E-10,-5.55E-10,5.25E-10,-1.53E-10,1.18E-10,6.16E-08,0.93658483,-5.54E-13,-9.50E-10,-2.96E-08,-96.65717316,-13.94838238,7.85E-08,-4.77E-11,1.561
2.42E-07,1.01E-06,1.10E-06,-1.66E-06,-1.57E-06,-0.000302947,0.000301907,0.000402291,-0.000402317,642.0770264,642.0770264,706.2479858,706.2479858,-0.000378907,-1.25E-10,-5.55E-10,5.27E-10,-1.49E-10,1.21E-10,6.15E-08,0.93658483,-5.90E-11,-2.55E-09,1.08E-08,-96.65717316,-13.94838238,7.84E-08,-4.32E-11,1.571
2.43E-07,9.98E-07,1.06E-06,-1.68E-06,-1.54E-06,-0.000302937,0.000303862,0.000401389,-0.000402234,642.0770264,642.0770264,706.2479858,706.2479858,-0.000378907,-1.24E-10,-5.55E-10,5.26E-10,-1.50E-10,1.19E-10,6.14E-08,0.93658483,-9.93E-12,3.22E-09,-4.47E-08,-96.65717316,-13.94838238,7.84E-08,-3.28E-11,1.581
2.44E-07,1.09E-06,9.41E-07,-1.67E-06,-1.67E-06,-0.000303015,0.000303773,0.000401551,-0.000402095,642.0770264,642.0770264,706.2479858,706.2479858,-0.000378907,-1.24E-10,-5.53E-10,5.29E-10,-1.55E-10,1.15E-10,6.14E-08,0.93658483,5.63E-11,-1.96E-09,-9.48E-09,-96.65717316,-13.94838238,7.83E-08,-4.88E-11,1.591
2.45E-07,1.03E-06,1.01E-06,-1.72E-06,-1.71E-06,-0.00030186,0.000303011,0.000403588,-0.000402982,642.0770264,642.0770264,706.2479858,706.2479858,-0.000378907,-1.25E-10,-5.58E-10,5.22E-10,-1.58E-10,1.13E-10,6.13E-08,0.93658483,-1.15E-11,2.72E-09,2.06E-08,-96.65717316,-13.94838238,7.83E-08,-5.29E-11,1.601
2.46E-07,1.12E-06,9.33E-07,-1.57E-06,-1.72E-06,-0.000302977,0.000303813,0.000402584,-0.000402016,642.0770264,642.0770264,706.2479858,706.2479858,-0.000378907,-1.26E-10,-5.54E-10,5.28E-10,-1.57E-10,1.13E-10,6.12E-08,0.93658483,7.93E-11,-1.43E-09,3.53E-08,-96.65717316,-13.94838238,7.82E-08,-2.06E-11,1.611
2.46E-07,1.26E-06,8.12E-07,-1.45E-06,-1.87E-06,-0.000302264,0.000303562,0.000399709,-0.000402019,642.0770264,642.0770264,706.2479858,706.2479858,-0.000378907,-1.25E-10,-5.46E-10,5.36E-10,-1.57E-10,1.13E-10,6.11E-08,0.93658483,1.39E-10,-1.34E-09,-4.11E-08,-96.65717316,-13.94838238,7.82E-08,2.00E-12,1.621
2.47E-07,1.19E-06,9.27E-07,-1.47E-06,-1.84E-06,-0.000303151,0.000301712,0.000401537,-0.000402138,642.0770264,642.0770264,706.2479858,706.2479858,-0.000378907,-1.25E-10,-5.48E-10,5.33E-10,-1.55E-10,1.16E-10,6.11E-08,0.93658483,-1.57E-11,-7.75E-09,-1.72E-08,-96.65717316,-13.94838238,7.82E-08,-1.28E-11,1.631
2.48E-07,1.08E-06,1.09E-06,-1.56E-06,-1.68E-06,-0.00030288,0.000303887,0.000401501,-0.000402147,642.0770264,642.0770264,706.2479858,706.2479858,-0.000378907,-1.25E-10,-5.57E-10,5.25E-10,-1.53E-10,1.17E-10,6.10E-08,0.93658483,-2.35E-12,1.04E-08,-3.50E-08,-96.65717316,-13.94838238,7.81E-08,-2.61E-11,1.641
2.49E-07,1.18E-06,9.69E-07,-1.53E-06,-1.74E-06,-0.000303091,0.000302692,0.000401518,-0.000402126,642.0770264,642.0770264,706.2479858,706.2479858,-0.000378907,-1.25E-10,-5.50E-10,5.32E-10,-1.54E-10,1.16E-10,6.10E-08,0.93658483,6.70E-11,-1.35E-09,8.60E-09,-96.65717316,-13.94838238,7.81E-08,9.69E-13,1.651
2.49E-07,1.13E-06,9.20E-07,-1.52E-06,-1.75E-06,-0.000302152,0.000301737,0.000401547,-0.00040209,642.0770264,642.0770264,706.2479858,706.2479858,-0.000378907,-1.25E-10,-5.49E-10,5.32E-10,-1.55E-10,1.15E-10,6.09E-08,0.93658483,3.97E-11,-1.20E-09,-1.24E-08,-96.65717316,-13.94838238,7.80E-08,-2.29E-11,1.661
2.50E-07,1.10E-06,1.01E-06,-1.60E-06,-1.75E-06,-0.000302925,0.000303861,0.000401649,-0.000402023,642.0770264,642.0770264,706.2479858,706.2479858,-0.000378907,-1.26E-10,-5.55E-10,5.26E-10,-1.58E-10,1.13E-10,6.08E-08,0.93658483,5.09E-11,1.25E-10,3.83E-08,-96.65717316,-13.94838238,7.80E-08,-4.03E-11,1.671
2.51E-07,1.03E-06,1.08E-06,-1.65E-06,-1.67E-06,-0.000302872,0.000301942,0.000401506,-0.000402136,642.0770264,642.0770264,706.2479858,706.2479858,-0.000378907,-1.26E-10,-5.57E-10,5.26E-10,-1.54E-10,1.16E-10,6.08E-08,0.93658483,-4.93E-11,-1.00E-09,-3.59E-08,-96.65717316,-13.94838238,7.79E-08,-2.42E-11,1.681
2.52E-07,9.43E-07,1.16E-06,-1.75E-06,-1.61E-06,-0.000300887,0.000302975,0.000401418,-0.000402246,642.0770264,642.0770264,706.2479858,706.2479858,-0.000378907,-1.26E-10,-5.59E-10,5.24E-10,-1.51E-10,1.19E-10,6.07E-08,0.93658483,4.68E-12,-2.62E-09,-1.17E-08,-96.65717316,-13.94838238,7.79E-08,-2.46E-11,1.691
2.53E-07,1.02E-06,1.12E-06,-1.72E-06,-1.65E-06,-0.000300989,0.000302883,0.000401478,-0.000400294,642.0770264,642.0770264,706.2479858,706.2479858,-0.000378907,-1.26E-10,-5.55E-10,5.26E-10,-1.53E-10,1.18E-10,6.06E-08,0.93658483,-7.74E-12,-7.57E-09,2.81E-08,-96.65717316,-13.94838238,7.79E-08,-3.24E-11,1.701
2.53E-07,1.09E-06,1.08E-06,-1.64E-06,-1.62E-06,-0.000301977,0.000303809,0.000401531,-0.000401163,642.0770264,642.0770264,706.2479858,706.2479858,-0.000378907,-1.26E-10,-5.55E-10,5.28E-10,-1.54E-10,1.16E-10,6.05E-08,0.93658483,5.87E-11,-5.70E-09,2.30E-08,-96.65717316,-13.94838238,7.78E-08,-2.76E-11,1.711
2.54E-07,1.21E-06,9.42E-07,-1.55E-06,-1.76E-06,-0.000302155,0.000303627,0.000403502,-0.000400156,642.0770264,642.0770264,706.2479858,706.2479858,-0.000378907,-1.25E-10,-5.49E-10,5.33E-10,-1.56E-10,1.14E-10,6.05E-08,0.93658483,4.67E-11,-4.35E-09,6.23E-08,-96.65717316,-13.94838238,7.78E-08,-2.03E-11,1.721
2.55E-07,1.17E-06,9.23E-07,-1.57E-06,-1.75E-06,-0.000303167,0.000303582,0.000401439,-0.0004022,642.0770264,642.0770264,706.2479858,706.2479858,-0.000378907,-1.24E-10,-5.48E-10,5.35E-10,-1.52E-10,1.18E-10,6.04E-08,0.93658483,4.07E-11,7.86E-09,-2.22E-08,-96.65717316,-13.94838238,7.77E-08,-1.25E-12,1.731
2.56E-07,1.16E-06,9.00E-07,-1.56E-06,-1.77E-06,-0.000303153,0.000301668,0.000403385,-0.000402175,642.0770264,642.0770264,706.2479858,706.2479858,-0.000378907,-1.23E-10,-5.48E-10,5.34E-10,-1.52E-10,1.17E-10,6.03E-08,0.93658483,9.35E-12,-6.43E-09,1.50E-08,-96.65717316,-13.94838238,7.77E-08,9.83E-12,1.741
2.56E-07,1.00E-06,9.91E-07,-1.65E-06,-1.62E-06,-0.00030211,0.000303701,0.000401274,-0.000402327,642.0770264,642.0770264,706.2479858,706.2479858,-0.000378907,-1.23E-10,-5.51E-10,5.31E-10,-1.47E-10,1.22E-10,6.03E-08,0.93658483,4.85E-12,3.18E-09,-3.36E-08,-96.65717316,-13.94838238,7.76E-08,2.70E-11,1.751
2.57E-07,1.11E-06,9.60E-07,-1.63E-06,-1.74E-06,-0.000303074,0.000303682,0.000401507,-0.000402133,642.0770264,642.0770264,706.2479858,706.2479858,-0.000378907,-1.23E-10,-5.51E-10,5.32E-10,-1.54E-10,1.16E-10,6.02E-08,0.93658483,6.51E-11,-3.17E-09,-1.33E-08,-96.65717316,-13.94838238,7.76E-08,1.31E-11,1.761
2.58E-07,1.15E-06,9.90E-07,-1.61E-06,-1.80E-06,-0.000301081,0.000301809,0.000401662,-0.000400116,642.0770264,642.0770264,706.2479858,706.2479858,-0.000378907,-1.25E-10,-5.52E-10,5.30E-10,-1.58E-10,1.13E-10,6.01E-08,0.93658483,1.80E-11,-1.51E-08,-8.81E-09,-96.65717316,-13.94838238,7.75E-08,1.44E-11,1.771
2.59E-07,1.16E-06,1.04E-06,-1.49E-06,-1.69E-06,-0.000301144,0.000303684,0.000401513,-0.000400211,642.0770264,642.0770264,706.2479858,706.2479858,-0.000378907,-1.25E-10,-5.50E-10,5.32E-10,-1.54E-10,1.16E-10,6.01E-08,0.93658483,3.58E-11,-3.63E-09,1.01E-08,-96.65717316,-13.94838238,7.75E-08,2.31E-11,1.781
2.60E-07,1.21E-06,9.94E-07,-1.39E-06,-1.69E-06,-0.000303179,0.00030356,0.000399543,-0.000402121,642.0770264,642.0770264,706.2479858,706.2479858,-0.000378907,-1.26E-10,-5.47E-10,5.36E-10,-1.53E-10,1.16E-10,6.00E-08,0.93658483,8.18E-11,-5.09E-09,-4.14E-08,-96.65717316,-13.94838238,7.75E-08,2.59E-11,1.791
2.60E-07,1.20E-06,9.24E-07,-1.42E-06,-1.78E-06,-0.000302229,0.00030355,0.000402475,-0.000402089,642.0770264,642.0770264,706.2479858,706.2479858,-0.000378907,-1.26E-10,-5.47E-10,5.36E-10,-1.54E-10,1.15E-10,6.00E-08,0.93658483,7.27E-11,-3.82E-09,1.42E-08,-96.65717316,-13.94838238,7.74E-08,2.54E-11,1.801
2.61E-07,1.09E-06,9.43E-07,-1.51E-06,-1.77E-06,-0.000301197,0.000301723,0.000401474,-0.000400239,642.0770264,642.0770264,706.2479858,706.2479858,-0.000378907,-1.26E-10,-5.49E-10,5.32E-10,-1.53E-10,1.17E-10,5.99E-08,0.93658483,1.64E-11,-1.02E-08,2.51E-08,-96.65717316,-13.94838238,7.74E-08,4.20E-12,1.811
2.62E-07,1.09E-06,9.85E-07,-1.56E-06,-1.75E-06,-0.000303048,0.000301793,0.000401529,-0.000400198,642.0770264,642.0770264,706.2479858,706.2479858,-0.000378907,-1.26E-10,-5.52E-10,5.30E-10,-1.54E-10,1.16E-10,5.98E-08,0.93658483,4.78E-12,-1.27E-09,4.07E-08,-96.65717316,-13.94838238,7.73E-08,-1.17E-11,1.821
2.63E-07,1.08E-06,1.06E-06,-1.63E-06,-1.71E-06,-0.000302991,0.000302822,0.000399597,-0.000402158,642.0770264,642.0770264,706.2479858,706.2479858,-0.000378907,-1.27E-10,-5.53E-10,5.28E-10,-1.54E-10,1.17E-10,5.98E-08,0.93658483,2.25E-11,-3.07E-09,-5.26E-08,-96.65717316,-13.94838238,7.73E-08,-1.80E-11,1.831
2.63E-07,1.16E-06,1.01E-06,-1.55E-06,-1.69E-06,-0.000302081,0.000300804,0.000400632,-0.000400135,642.0770264,642.0770264,706.2479858,706.2479858,-0.000378907,-1.27E-10,-5.52E-10,5.31E-10,-1.56E-10,1.14E-10,5.97E-08,0.93658483,2.18E-11,-1.13E-08,-1.73E-08,-96.65717316,-13.94838238,7.73E-08,-1.49E-11,1.841
2.64E-07,1.10E-06,1.02E-06,-1.56E-06,-1.66E-06,-0.00030304,0.000303738,0.000401531,-0.000401146,642.0770264,642.0770264,706.2479858,706.2479858,-0.000378907,-1.26E-10,-5.52E-10,5.30E-10,-1.54E-10,1.15E-10,5.96E-08,0.93658483,3.38E-11,-2.70E-09,2.78E-08,-96.65717316,-13.94838238,7.72E-08,-2.37E-11,1.851
2.65E-07,1.13E-06,9.55E-07,-1.55E-06,-1.69E-06,-0.000302145,0.000302698,0.00040152,-0.000401151,642.0770264,642.0770264,706.2479858,706.2479858,-0.000378907,-1.26E-10,-5.50E-10,5.32E-10,-1.54E-10,1.15E-10,5.96E-08,0.93658483,3.15E-11,3.99E-09,-1.43E-08,-96.65717316,-13.94838238,7.72E-08,-1.71E-11,1.861
2.66E-07,1.19E-06,8.98E-07,-1.51E-06,-1.76E-06,-0.000303142,0.000303641,0.00040162,-0.000402021,642.0770264,642.0770264,706.2479858,706.2479858,-0.000378907,-1.25E-10,-5.49E-10,5.33E-10,-1.57E-10,1.13E-10,5.95E-08,0.93658483,5.66E-11,1.82E-09,-1.06E-08,-96.65717316,-13.94838238,7.71E-08,-3.12E-11,1.871
2.67E-07,1.14E-06,9.26E-07,-1.53E-06,-1.77E-06,-0.00030303,0.0003018,0.000401653,-0.00040102,642.0770264,642.0770264,706.2479858,706.2479858,-0.000378907,-1.25E-10,-5.52E-10,5.30E-10,-1.58E-10,1.12E-10,5.94E-08,0.93658483,-1.35E-12,-7.54E-09,1.79E-08,-96.65717316,-13.94838238,7.71E-08,-4.46E-11,1.881
2.67E-07,1.16E-06,8.91E-07,-1.53E-06,-1.79E-06,-0.000303042,0.000302751,0.000401685,-0.00040194,642.0770264,642.0770264,706.2479858,706.2479858,-0.000378907,-1.26E-10,-5.52E-10,5.31E-10,-1.59E-10,1.11E-10,5.94E-08,0.93658483,8.18E-11,-6.08E-09,4.99E-09,-96.65717316,-13.94838238,7.70E-08,-3.21E-11,1.891
2.68E-07,1.14E-06,9.14E-07,-1.55E-06,-1.78E-06,-0.000303129,0.000303646,0.000400607,-0.000402075,642.0770264,642.0770264,706.2479858,706.2479858,-0.000378907,-1.25E-10,-5.49E-10,5.33E-10,-1.55E-10,1.14E-10,5.93E-08,0.93658483,3.58E-11,-5.03E-09,-2.38E-08,-96.65717316,-13.94838238,7.70E-08,-1.35E-11,1.901
2.69E-07,1.15E-06,9.27E-07,-1.53E-06,-1.76E-06,-0.000302135,0.000303673,0.000401608,-0.000402032,642.0770264,642.0770264,706.2479858,706.2479858,-0.000378907,-1.25E-10,-5.50E-10,5.32E-10,-1.57E-10,1.13E-10,5.92E-08,0.93658483,5.70E-11,-4.36E-09,1.30E-08,-96.65717316,-13.94838238,7.70E-08,-1.57E-11,1.911
2.70E-07,1.18E-06,9.29E-07,-1.50E-06,-1.76E-06,-0.000302117,0.00030175,0.000401664,-0.000401971,642.0770264,642.0770264,706.2479858,706.2479858,-0.000378907,-1.25E-10,-5.50E-10,5.32E-10,-1.58E-10,1.11E-10,5.92E-08,0.93658483,5.10E-11,-8.63E-09,3.46E-09,-96.65717316,-13.94838238,7.69E-08,-2.21E-11,1.921
2.70E-07,1.18E-06,9.45E-07,-1.46E-06,-1.71E-06,-0.000301165,0.000303664,0.000401614,-0.000401993,642.0770264,642.0770264,706.2479858,706.2479858,-0.000378907,-1.25E-10,-5.50E-10,5.32E-10,-1.57E-10,1.12E-10,5.91E-08,0.93658483,7.55E-11,-2.99E-10,-3.38E-08,-96.65717316,-13.94838238,7.69E-08,-9.82E-12,1.931
