Car.Distance,Car.FxFL,Car.FxFR,Car.FxRL,Car.FxRR,Car.FyFL,Car.FyFR,Car.FyRL,Car.FyRR,Car.FzFL,Car.FzFR,Car.FzRL,Car.FzRR,Car.Pitch,Car.Roll,Car.SlipAngleFL,Car.SlipAngleFR,Car.SlipAngleRL,Car.SlipAngleRR,Car.TrackRadius,Car.Yaw,Car.YawRate,Car.ax,Car.ay,Car.tx,Car.ty,Car.vx,Car.vy,Time
m,N,N,N,N,N,N,N,N,N,N,N,N,rad,rad,rad,rad,rad,rad,m,rad,rad/s,m/s^2,m/s^2,m,m,m/s,m/s,s
1.62E-10,0.007831318,0.00783141,0.009277102,0.009277039,-0.000325769,0.000324436,0.000326859,-0.000329264,642.0627441,642.0627441,706.2649536,706.2650146,-0.000379072,3.39E-10,-1.82E-09,1.81E-09,2.37E-09,-2.38E-09,2.63E-07,0.93658483,3.76E-11,0.000118026,1.69E-08,-96.65717316,-13.94838238,1.62E-07,1.43E-11,0.001
4.76E-09,0.000772799,0.000773085,-0.000927539,-0.000927591,0.001059237,-0.001049985,-0.00123054,0.001239317,642.0696411,642.0696411,706.2580566,706.2581177,-0.000379053,2.60E-10,-4.15E-08,4.12E-08,4.38E-08,-4.42E-08,1.71E-06,0.93658483,3.37E-11,2.13E-06,4.44E-08,-96.65717316,-13.94838238,4.14E-07,4.39E-10,0.011
1.16E-08,0.005620398,0.005624352,0.005823158,0.005820714,0.000885854,-0.000872737,-0.000825979,0.000839315,642.0772095,642.0772095,706.2507935,706.2507935,-0.000378999,1.23E-10,-3.35E-08,3.31E-08,2.97E-08,-3.02E-08,8.14E-06,0.93658483,-5.39E-11,8.80E-05,9.89E-08,-96.65717316,-13.94838238,9.02E-07,1.41E-09,0.021
2.55E-08,0.002678183,0.002682791,0.002487913,0.002482627,-0.000278449,0.000289243,0.000502742,-0.000491539,642.081543,642.081543,706.2460938,706.2460938,-0.000378931,-1.22E-11,2.38E-09,-2.72E-09,-7.83E-09,7.51E-09,2.32E-05,0.93658483,-1.65E-10,3.90E-05,7.89E-08,-96.65717316,-13.94838238,1.52E-06,2.46E-09,0.031
4.33E-08,-0.000161514,-0.000156652,-0.001725331,-0.001733307,-0.0010481,0.00105079,0.00149941,-0.00150147,642.083252,642.083252,706.2433472,706.2433472,-0.00037887,-1.11E-10,2.44E-08,-2.45E-08,-3.45E-08,3.45E-08,2.61E-05,0.93658483,-1.79E-10,-1.42E-05,-2.68E-08,-96.65717316,-13.94838238,1.61E-06,2.90E-09,0.041
6.07E-08,-0.00165142,-0.001646946,-0.003879843,-0.003887815,-0.001269198,0.001263386,0.001870877,-0.001880915,642.0830688,642.0830688,706.2423096,706.2422485,-0.000378827,-1.64E-10,2.91E-08,-2.89E-08,-4.25E-08,4.27E-08,1.73E-05,0.93658483,-1.93E-10,-4.17E-05,-1.43E-07,-96.65717316,-13.94838238,1.31E-06,2.67E-09,0.051
7.50E-08,-0.002178501,-0.002178002,-0.004256508,-0.004252122,-0.001150739,0.001136292,0.001743353,-0.001754416,642.0817261,642.0817261,706.2423706,706.2423096,-0.000378806,-1.37E-10,2.37E-08,-2.33E-08,-3.64E-08,3.68E-08,7.34E-06,0.93658483,1.70E-10,-4.87E-05,-1.26E-07,-96.65717316,-13.94838238,8.57E-07,1.56E-09,0.061
8.56E-08,-0.002123866,-0.002125803,-0.00365701,-0.003644683,-0.000861449,0.00084097,0.001362948,-0.001375129,642.079834,642.079834,706.243103,706.243042,-0.000378804,-4.58E-11,1.37E-08,-1.31E-08,-2.39E-08,2.43E-08,1.59E-06,0.93658483,3.07E-10,-4.41E-05,-1.14E-07,-96.65717316,-13.94838238,3.99E-07,3.97E-10,0.071
9.30E-08,-0.001730902,-0.001733547,-0.002665952,-0.002655571,-0.000518795,0.000504881,0.000933202,-0.000944776,642.0778809,642.0778809,706.2441406,706.2441406,-0.000378817,5.02E-11,2.92E-09,-2.46E-09,-1.08E-08,1.11E-08,4.11E-09,0.93658483,4.72E-11,-3.33E-05,-1.33E-07,-96.65717316,-13.94838238,2.05E-08,-7.13E-10,0.081
9.82E-08,-0.001124863,-0.001128664,-0.001676699,-0.001670126,-0.000163846,0.000155851,0.000571998,-0.000578469,642.076416,642.076416,706.2453613,706.2453613,-0.00037884,1.35E-10,-7.57E-09,7.79E-09,-2.40E-10,4.48E-10,5.94E-07,0.93658483,-1.19E-10,-2.18E-05,-5.59E-08,-96.65717316,-13.94838238,-2.44E-07,-1.43E-09,0.091
1.03E-07,-0.0004828,-0.00048715,-0.000872425,-0.00086751,0.000124409,-0.000125753,0.000344381,-0.000347169,642.0755005,642.0755615,706.246582,706.246582,-0.000378866,2.04E-10,-1.54E-08,1.54E-08,5.86E-09,-5.78E-09,1.56E-06,0.93658483,-4.39E-11,-1.07E-05,-1.76E-08,-96.65717316,-13.94838238,-3.95E-07,-1.76E-09,0.101
1.07E-07,3.38E-06,-4.90E-07,-0.000137069,-0.000132419,0.000262235,-0.000260248,0.000197441,-0.000195846,642.0751343,642.0751343,706.2477417,706.2477417,-0.000378891,2.53E-10,-1.83E-08,1.82E-08,9.42E-09,-9.47E-09,2.01E-06,0.93658483,7.68E-11,-1.39E-06,3.15E-08,-96.65717316,-13.94838238,-4.48E-07,-1.74E-09,0.111
1.12E-07,0.000301211,0.000298451,0.000503032,0.000507143,0.000254764,-0.000253443,0.000102903,-9.75E-05,642.0750122,642.0750122,706.2485962,706.2485962,-0.000378912,2.84E-10,-1.69E-08,1.68E-08,1.14E-08,-1.15E-08,1.77E-06,0.93658483,7.65E-11,5.83E-06,6.20E-08,-96.65717316,-13.94838238,-4.21E-07,-1.50E-09,0.121
1.16E-07,0.000455034,0.000453636,0.000963793,0.000967022,0.000164839,-0.000160904,5.89E-05,-5.17E-05,642.0750732,642.0750732,706.2491455,706.2490845,-0.000378928,2.98E-10,-1.32E-08,1.30E-08,1.18E-08,-1.20E-08,1.13E-06,0.93658483,1.55E-11,1.06E-05,2.42E-08,-96.65717316,-13.94838238,-3.36E-07,-1.11E-09,0.131
1.21E-07,0.000509651,0.000509975,0.001211668,0.001212136,3.66E-05,-3.59E-05,6.33E-05,-6.00E-05,642.0752563,642.0753174,706.2493286,706.2493286,-0.000378937,2.94E-10,-8.65E-09,8.50E-09,1.09E-08,-1.10E-08,-3.70E-07,0.93658483,-1.66E-10,1.30E-05,1.63E-07,-96.65717316,-13.94838238,-2.18E-07,-5.94E-10,0.141
1.25E-07,0.000488312,0.000492462,0.001265472,0.00125504,-9.32E-05,0.000102833,0.000111288,-0.000104705,642.0756226,642.0756226,706.2492676,706.2492676,-0.000378941,2.27E-10,-4.39E-09,4.04E-09,8.86E-09,-9.05E-09,7.60E-08,0.93658483,-4.19E-10,1.33E-05,5.48E-08,-96.65717316,-13.94838238,-8.74E-08,-4.18E-12,0.151
1.29E-07,0.000412859,0.000416485,0.00114948,0.001140172,-0.000209527,0.00021924,0.00018094,-0.000173873,642.0760498,642.0760498,706.2490234,706.2490234,-0.000378939,1.51E-10,-7.91E-10,4.46E-10,6.35E-09,-6.53E-09,1.37E-08,0.93658483,-2.69E-10,1.20E-05,1.19E-07,-96.65717316,-13.94838238,3.68E-08,5.97E-10,0.161
1.34E-07,0.000296079,0.000299356,0.000911454,0.0009042,-0.000297021,0.000303386,0.000260307,-0.000253481,642.0765991,642.0765991,706.2487183,706.2487183,-0.000378934,7.76E-11,1.66E-09,-1.90E-09,3.83E-09,-3.97E-09,1.97E-07,0.93658483,-1.28E-10,9.28E-06,6.40E-08,-96.65717316,-13.94838238,1.40E-07,1.11E-09,0.171
1.38E-07,0.00013283,0.000136329,0.000621617,0.000615858,-0.000365308,0.000369103,0.000331475,-0.000328208,642.0770874,642.0770874,706.2484131,706.2484131,-0.000378927,1.22E-11,3.48E-09,-3.60E-09,1.65E-09,-1.72E-09,4.55E-07,0.93658483,-8.87E-11,5.84E-06,5.35E-08,-96.65717316,-13.94838238,2.13E-07,1.46E-09,0.181
1.42E-07,-4.68E-05,-4.32E-05,0.000334724,0.000329328,-0.000422095,0.000421683,0.000385599,-0.000384109,642.0775146,642.0774536,706.2481079,706.2481079,-0.00037892,-4.13E-11,4.78E-09,-4.80E-09,2.53E-11,-1.12E-11,6.31E-07,0.93658483,-1.16E-10,2.22E-06,5.70E-08,-96.65717316,-13.94838238,2.51E-07,1.55E-09,0.191
1.46E-07,-0.0001978,-0.000194331,8.05E-05,7.53E-05,-0.000459181,0.000455978,0.000425761,-0.000430686,642.0777588,642.0777588,706.2479248,706.2479248,-0.000378913,-8.24E-11,5.41E-09,-5.38E-09,-1.14E-09,1.23E-09,6.56E-07,0.93658483,-1.22E-10,-8.37E-07,-2.19E-08,-96.65717316,-13.94838238,2.56E-07,1.45E-09,0.201
1.49E-07,-0.00029727,-0.000294198,-9.60E-05,-0.000100296,-0.000469649,0.000466626,0.000447543,-0.000451103,642.0778198,642.0778198,706.2478638,706.2478638,-0.000378908,-1.12E-10,5.34E-09,-5.28E-09,-1.66E-09,1.76E-09,5.57E-07,0.93658483,-7.74E-11,-2.93E-06,-3.59E-08,-96.65717316,-13.94838238,2.36E-07,1.22E-09,0.211
1.52E-07,-0.000340249,-0.000338402,-0.00018072,-0.000183013,-0.000463455,0.000458829,0.000446871,-0.000448773,642.0778198,642.0778198,706.2478638,706.2478638,-0.000378904,-1.27E-10,4.71E-09,-4.62E-09,-1.50E-09,1.61E-09,4.04E-07,0.93658483,-9.42E-11,-3.93E-06,4.10E-09,-96.65717316,-13.94838238,2.01E-07,9.00E-10,0.221
1.55E-07,-0.000332927,-0.000331751,-0.000197525,-0.000198664,-0.000436829,0.000433392,0.000426759,-0.000430185,642.0776978,642.0776978,706.2478638,706.2478638,-0.000378902,-1.33E-10,3.63E-09,-3.55E-09,-9.42E-10,1.04E-09,2.60E-07,0.93658483,-2.34E-11,-4.04E-06,-3.86E-08,-96.65717316,-13.94838238,1.61E-07,6.03E-10,0.231
1.56E-07,-0.000288065,-0.000287306,-0.000174758,-0.000175263,-0.000405136,0.000402329,0.000406062,-0.000409633,642.0775146,642.0775146,706.2479248,706.2479248,-0.000378902,-1.36E-10,2.37E-09,-2.31E-09,-3.14E-10,3.89E-10,1.54E-07,0.93658483,-1.88E-11,-3.56E-06,-3.06E-08,-96.65717316,-13.94838238,1.24E-07,3.67E-10,0.241
1.57E-07,-0.000218372,-0.00021825,-0.000136137,-0.000136441,-0.000371112,0.000367795,0.000389626,-0.000390996,642.0773926,642.0773926,706.2480469,706.2480469,-0.000378903,-1.35E-10,1.16E-09,-1.12E-09,1.35E-10,-9.52E-11,8.83E-08,0.93658483,7.10E-11,-2.71E-06,-5.59E-09,-96.65717316,-13.94838238,9.39E-08,1.85E-10,0.251
1.58E-07,-0.000138133,-0.000138228,-9.20E-05,-9.22E-05,-0.000340311,0.000337431,0.00038069,-0.000383541,642.0772095,642.0772095,706.2481079,706.2481079,-0.000378904,-1.33E-10,1.41E-10,-1.09E-10,3.66E-10,-3.39E-10,5.24E-08,0.93658483,2.07E-11,-1.76E-06,-3.40E-08,-96.65717316,-13.94838238,7.24E-08,8.98E-11,0.261
1.59E-07,-6.01E-05,-5.99E-05,-4.78E-05,-4.76E-05,-0.000311094,0.000312007,0.000376397,-0.000379007,642.0770874,642.0770874,706.2481079,706.2481079,-0.000378905,-1.32E-10,-6.85E-10,6.86E-10,4.62E-10,-4.43E-10,3.62E-08,0.93658483,-2.93E-11,-8.04E-07,-2.24E-08,-96.65717316,-13.94838238,6.02E-08,-1.71E-11,0.271
1.60E-07,5.82E-06,5.71E-06,-1.41E-05,-1.41E-05,-0.000290676,0.000290092,0.000377251,-0.00037703,642.0770264,642.0770264,706.2481689,706.2481689,-0.000378906,-1.32E-10,-1.32E-09,1.31E-09,4.38E-10,-4.44E-10,3.17E-08,0.93658483,6.80E-12,-6.00E-08,-1.73E-08,-96.65717316,-13.94838238,5.63E-08,-7.73E-11,0.281
1.60E-07,4.82E-05,4.82E-05,5.74E-06,5.88E-06,-0.000277673,0.000276443,0.000379585,-0.000382179,642.0770264,642.0770264,706.2481079,706.2481689,-0.000378907,-1.31E-10,-1.64E-09,1.62E-09,3.13E-10,-3.23E-10,3.40E-08,0.93658483,1.71E-12,4.06E-07,-3.62E-08,-96.65717316,-13.94838238,5.83E-08,-9.45E-11,0.291
1.61E-07,6.87E-05,6.87E-05,1.27E-05,1.28E-05,-0.000273348,0.000273972,0.000386604,-0.000386312,642.0769653,642.0769653,706.2481079,706.2481079,-0.000378908,-1.30E-10,-1.66E-09,1.64E-09,1.10E-10,-1.18E-10,4.03E-08,0.93658483,-3.62E-11,6.22E-07,-1.40E-08,-96.65717316,-13.94838238,6.35E-08,-8.49E-11,0.301
1.62E-07,7.53E-05,7.55E-05,8.37E-06,8.74E-06,-0.000276094,0.000276461,0.000395065,-0.000395469,642.0769653,642.0769653,706.2480469,706.2480469,-0.000378908,-1.27E-10,-1.51E-09,1.50E-09,-1.35E-10,1.47E-10,4.86E-08,0.93658483,-6.82E-11,6.36E-07,-5.26E-08,-96.65717316,-13.94838238,6.98E-08,-4.75E-11,0.311
1.63E-07,7.62E-05,7.63E-05,-4.84E-06,-4.44E-06,-0.000280018,0.000278331,0.000405341,-0.000405742,642.0769653,642.0769653,706.2479858,706.2480469,-0.000378909,-1.23E-10,-1.33E-09,1.32E-09,-4.33E-10,4.45E-10,5.70E-08,0.93658483,-1.88E-11,5.40E-07,-1.01E-11,-96.65717316,-13.94838238,7.55E-08,-6.79E-11,0.321
1.65E-07,7.37E-05,7.37E-05,-1.85E-05,-1.82E-05,-0.000283092,0.000283676,0.00041642,-0.000417076,642.0769653,642.0769653,706.2479858,706.2479858,-0.000378908,-1.23E-10,-1.18E-09,1.16E-09,-6.98E-10,6.89E-10,6.43E-08,0.93658483,4.58E-12,4.25E-07,-1.43E-08,-96.65717316,-13.94838238,8.02E-08,-9.78E-11,0.331
1.66E-07,6.78E-05,6.77E-05,-2.77E-05,-2.77E-05,-0.000287128,0.0002871,0.0004239,-0.000424905,642.0769653,642.0769653,706.2479248,706.2479248,-0.000378908,-1.24E-10,-1.05E-09,1.02E-09,-8.59E-10,8.32E-10,7.01E-08,0.93658483,1.44E-11,3.18E-07,-4.71E-08,-96.65717316,-13.94838238,8.37E-08,-1.07E-10,0.341
1.67E-07,5.81E-05,5.83E-05,-3.27E-05,-3.26E-05,-0.000286641,0.000287853,0.000427436,-0.000428593,642.0769653,642.0769653,706.2479248,706.2479248,-0.000378908,-1.26E-10,-9.43E-10,9.05E-10,-9.06E-10,8.83E-10,7.42E-08,0.93658483,3.28E-13,1.96E-07,1.16E-09,-96.65717316,-13.94838238,8.61E-08,-9.09E-11,0.351
1.68E-07,4.60E-05,4.60E-05,-3.41E-05,-3.43E-05,-0.000291855,0.000292605,0.000431009,-0.000428424,642.0769653,642.0769653,706.2478638,706.2478638,-0.000378907,-1.27E-10,-8.41E-10,8.17E-10,-8.71E-10,8.51E-10,7.65E-08,0.93658483,7.86E-12,9.68E-08,9.56E-09,-96.65717316,-13.94838238,8.75E-08,-6.36E-11,0.361
1.69E-07,3.25E-05,3.26E-05,-3.33E-05,-3.33E-05,-0.000291669,0.000293098,0.000426582,-0.000426591,642.0769653,642.0769653,706.2478638,706.2478638,-0.000378907,-1.26E-10,-7.55E-10,7.41E-10,-7.70E-10,7.70E-10,7.72E-08,0.93658483,-1.71E-11,-9.75E-09,1.15E-09,-96.65717316,-13.94838238,8.79E-08,-4.72E-11,0.371
1.70E-07,1.93E-05,1.95E-05,-3.02E-05,-3.00E-05,-0.000294932,0.000297177,0.000421995,-0.000422443,642.0769653,642.0769653,706.2478638,706.2478638,-0.000378907,-1.23E-10,-6.84E-10,6.75E-10,-6.37E-10,6.50E-10,7.64E-08,0.93658483,9.62E-12,-8.49E-08,1.53E-08,-96.65717316,-13.94838238,8.74E-08,-3.14E-11,0.381
1.71E-07,7.79E-06,7.51E-06,-2.43E-05,-2.43E-05,-0.000296918,0.000295868,0.000417979,-0.000417823,642.0769653,642.0769653,706.2478638,706.2478638,-0.000378907,-1.21E-10,-6.22E-10,6.24E-10,-4.93E-10,4.88E-10,7.46E-08,0.93658483,1.16E-10,-1.30E-07,5.52E-08,-96.65717316,-13.94838238,8.63E-08,-5.62E-11,0.391
1.71E-07,-1.86E-06,-2.24E-06,-1.65E-05,-1.67E-05,-0.000298294,0.000296516,0.000413612,-0.000411042,642.0769653,642.0769653,706.2478638,706.2478638,-0.000378907,-1.21E-10,-5.79E-10,5.73E-10,-3.39E-10,3.19E-10,7.22E-08,0.93658483,4.34E-11,-1.47E-07,3.37E-08,-96.65717316,-13.94838238,8.50E-08,-4.29E-11,0.401
1.72E-07,-9.20E-06,-9.29E-06,-8.05E-06,-8.11E-06,-0.000299311,0.00029965,0.000409859,-0.000408764,642.0769653,642.0769653,706.2478638,706.2479248,-0.000378907,-1.21E-10,-5.47E-10,5.36E-10,-1.75E-10,1.70E-10,7.00E-08,0.93658483,-3.18E-11,-1.42E-07,-1.12E-08,-96.65717316,-13.94838238,8.36E-08,4.37E-13,0.411
1.73E-07,-1.37E-05,-1.36E-05,-6.04E-07,-5.73E-07,-0.000299421,0.000300682,0.000403728,-0.00040391,642.0769653,642.0769653,706.2479248,706.2479248,-0.000378907,-1.20E-10,-5.13E-10,5.04E-10,-5.19E-11,5.72E-11,6.80E-08,0.93658483,1.23E-11,-1.06E-07,7.93E-09,-96.65717316,-13.94838238,8.24E-08,2.46E-11,0.421
1.74E-07,-1.58E-05,-1.58E-05,7.15E-06,7.16E-06,-0.000303398,0.000299788,0.000400491,-0.000402487,642.0770264,642.0770264,706.2479248,706.2479248,-0.000378907,-1.21E-10,-4.80E-10,4.71E-10,4.19E-11,-3.89E-11,6.65E-08,0.93658483,-3.22E-11,-7.49E-08,1.16E-08,-96.65717316,-13.94838238,8.16E-08,2.63E-11,0.431
1.75E-07,-1.66E-05,-1.66E-05,1.50E-05,1.49E-05,-0.000304445,0.000302904,0.000396983,-0.000395747,642.0770264,642.0770264,706.2479858,706.2479858,-0.000378907,-1.23E-10,-4.47E-10,4.35E-10,1.16E-10,-1.24E-10,6.59E-08,0.93658483,-1.38E-11,-1.76E-08,-1.61E-08,-96.65717316,-13.94838238,8.12E-08,2.08E-11,0.441
1.76E-07,-1.64E-05,-1.64E-05,2.12E-05,2.11E-05,-0.000305505,0.000303989,0.000395062,-0.000393859,642.0770264,642.0770264,706.2479858,706.2479858,-0.000378907,-1.25E-10,-4.14E-10,4.01E-10,1.72E-10,-1.79E-10,6.61E-08,0.93658483,-1.44E-11,3.33E-08,4.87E-08,-96.65717316,-13.94838238,8.13E-08,1.32E-11,0.451
1.77E-07,-1.57E-05,-1.55E-05,2.51E-05,2.51E-05,-0.000304357,0.000306914,0.000392113,-0.000392964,642.0770264,642.0770264,706.2479858,706.2479858,-0.000378907,-1.26E-10,-3.89E-10,3.70E-10,2.02E-10,-2.05E-10,6.71E-08,0.93658483,7.68E-12,6.97E-08,-2.05E-08,-96.65717316,-13.94838238,8.19E-08,2.11E-12,0.461
1.78E-07,-1.44E-05,-1.45E-05,2.63E-05,2.60E-05,-0.000305284,0.000305349,0.000391247,-0.000390096,642.0770264,642.0770264,706.2479858,706.2480469,-0.000378907,-1.26E-10,-3.60E-10,3.58E-10,2.00E-10,-2.05E-10,6.84E-08,0.93658483,4.22E-11,7.81E-08,-2.63E-09,-96.65717316,-13.94838238,8.27E-08,7.66E-12,0.471
1.78E-07,-1.31E-05,-1.30E-05,2.47E-05,2.46E-05,-0.000308288,0.00030796,0.000392202,-0.000391911,642.0770264,642.0770264,706.2480469,706.2480469,-0.000378907,-1.27E-10,-3.58E-10,3.37E-10,1.72E-10,-1.80E-10,6.99E-08,0.93658483,-7.17E-11,8.85E-08,-2.29E-08,-96.65717316,-13.94838238,8.36E-08,-6.16E-11,0.481
1.79E-07,-1.15E-05,-1.15E-05,2.09E-05,2.09E-05,-0.000306449,0.00030797,0.000391823,-0.000391658,642.0770264,642.0770264,706.2480469,706.2480469,-0.000378907,-1.26E-10,-3.54E-10,3.37E-10,1.27E-10,-1.32E-10,7.12E-08,0.93658483,9.82E-12,7.50E-08,-2.12E-08,-96.65717316,-13.94838238,8.44E-08,-4.34E-11,0.491
1.80E-07,-9.81E-06,-9.75E-06,1.61E-05,1.61E-05,-0.000311086,0.000308578,0.000391714,-0.000392691,642.0770874,642.0770264,706.2480469,706.2480469,-0.000378907,-1.25E-10,-3.61E-10,3.48E-10,7.44E-11,-7.41E-11,7.22E-08,0.93658483,-4.17E-11,4.79E-08,-5.52E-08,-96.65717316,-13.94838238,8.50E-08,-3.07E-11,0.501
1.81E-07,-7.99E-06,-7.89E-06,1.06E-05,1.07E-05,-0.000309368,0.000308094,0.000395803,-0.00039364,642.0770874,642.0770264,706.2479858,706.2480469,-0.000378907,-1.24E-10,-3.84E-10,3.64E-10,1.18E-11,-1.86E-11,7.28E-08,0.93658483,-4.10E-11,1.91E-08,4.33E-08,-96.65717316,-13.94838238,8.53E-08,-7.45E-11,0.511
1.82E-07,-6.18E-06,-5.94E-06,4.97E-06,5.23E-06,-0.0003084,0.00030837,0.000397791,-0.000399495,642.0770874,642.0770264,706.2479858,706.2479858,-0.000378907,-1.25E-10,-4.14E-10,3.85E-10,-4.59E-11,3.97E-11,7.29E-08,0.93658483,-3.81E-11,-7.87E-10,-2.90E-08,-96.65717316,-13.94838238,8.54E-08,-6.44E-11,0.521
1.83E-07,-4.08E-06,-3.98E-06,-2.24E-09,1.65E-07,-0.000308418,0.000308185,0.000399633,-0.00039838,642.0770264,642.0770264,706.2479858,706.2479858,-0.000378907,-1.24E-10,-4.44E-10,4.21E-10,-9.93E-11,9.09E-11,7.26E-08,0.93658483,-1.94E-11,-3.50E-08,-6.21E-09,-96.65717316,-13.94838238,8.52E-08,-4.59E-11,0.531
1.84E-07,-1.87E-06,-1.83E-06,-4.43E-06,-4.30E-06,-0.000304541,0.000305942,0.00040215,-0.000401113,642.0770264,642.0770264,706.2479858,706.2479858,-0.000378907,-1.23E-10,-4.75E-10,4.61E-10,-1.44E-10,1.42E-10,7.19E-08,0.93658483,2.28E-11,-4.42E-08,3.28E-08,-96.65717316,-13.94838238,8.48E-08,-3.58E-11,0.541
1.84E-07,6.62E-07,3.73E-07,-7.85E-06,-8.02E-06,-0.000304506,0.000304724,0.000403886,-0.000402376,642.0770264,642.0770264,706.2479858,706.2479858,-0.000378907,-1.23E-10,-5.06E-10,4.99E-10,-1.95E-10,1.79E-10,7.10E-08,0.93658483,7.27E-11,-5.15E-08,1.49E-08,-96.65717316,-13.94838238,8.43E-08,-4.12E-11,0.551
1.85E-07,2.95E-06,2.84E-06,-1.01E-05,-1.02E-05,-0.000302369,0.000302734,0.000403846,-0.000402661,642.0770264,642.0770264,706.2479858,706.2479858,-0.000378907,-1.23E-10,-5.43E-10,5.31E-10,-2.21E-10,2.15E-10,7.01E-08,0.93658483,3.24E-13,-5.63E-08,1.93E-08,-96.65717316,-13.94838238,8.37E-08,-1.22E-11,0.561
1.86E-07,5.06E-06,4.91E-06,-1.09E-05,-1.11E-05,-0.000302281,0.000302477,0.000402366,-0.000403204,642.0770264,642.0770264,706.2479858,706.2479858,-0.000378907,-1.22E-10,-5.76E-10,5.69E-10,-2.34E-10,2.31E-10,6.93E-08,0.93658483,3.77E-11,-4.54E-08,-3.69E-08,-96.65717316,-13.94838238,8.33E-08,8.68E-14,0.571
1.87E-07,6.39E-06,6.23E-06,-1.10E-05,-1.12E-05,-0.000303342,0.000303443,0.000406321,-0.000406215,642.0770264,642.0770264,706.2479858,706.2479858,-0.000378907,-1.22E-10,-6.03E-10,5.99E-10,-2.38E-10,2.35E-10,6.87E-08,0.93658483,1.26E-11,-2.52E-08,-5.69E-09,-96.65717316,-13.94838238,8.29E-08,1.52E-11,0.581
1.88E-07,6.76E-06,6.79E-06,-1.08E-05,-1.08E-05,-0.00030176,0.000299021,0.000404067,-0.000406236,642.0770264,642.0770264,706.2479858,706.2479858,-0.000378907,-1.21E-10,-6.22E-10,6.17E-10,-2.28E-10,2.35E-10,6.81E-08,0.93658483,-3.17E-11,-2.82E-08,-2.82E-08,-96.65717316,-13.94838238,8.25E-08,2.71E-11,0.591
1.89E-07,6.54E-06,6.84E-06,-1.04E-05,-1.02E-05,-0.00029829,0.00030112,0.000405999,-0.000405874,642.0770264,642.0770264,706.2479858,706.2479858,-0.000378907,-1.23E-10,-6.40E-10,6.12E-10,-2.28E-10,2.25E-10,6.77E-08,0.93658483,-2.92E-11,-1.76E-08,-4.22E-08,-96.65717316,-13.94838238,8.23E-08,-1.49E-11,0.601
1.89E-07,6.31E-06,6.52E-06,-9.46E-06,-9.35E-06,-0.00030026,0.000299032,0.000403783,-0.000403598,642.0770264,642.0770264,706.2479858,706.2479858,-0.000378907,-1.25E-10,-6.39E-10,6.17E-10,-2.20E-10,2.14E-10,6.73E-08,0.93658483,-3.40E-11,-3.21E-08,8.02E-09,-96.65717316,-13.94838238,8.20E-08,1.05E-11,0.611
1.90E-07,5.79E-06,6.30E-06,-8.45E-06,-8.10E-06,-0.000300258,0.000299131,0.000405046,-0.000405371,642.0770264,642.0770264,706.2479858,706.2479858,-0.000378907,-1.25E-10,-6.39E-10,6.13E-10,-2.01E-10,2.10E-10,6.69E-08,0.93658483,-1.27E-10,-2.01E-08,-5.45E-09,-96.65717316,-13.94838238,8.18E-08,7.75E-12,0.621
1.91E-07,5.30E-06,5.74E-06,-7.03E-06,-6.68E-06,-0.000301503,0.000301165,0.000406433,-0.000404931,642.0770264,642.0770264,706.2479858,706.2479858,-0.000378907,-1.25E-10,-6.30E-10,6.10E-10,-1.85E-10,1.97E-10,6.67E-08,0.93658483,-9.53E-11,-2.57E-10,6.28E-09,-96.65717316,-13.94838238,8.17E-08,1.37E-11,0.631
1.92E-07,4.66E-06,5.07E-06,-5.49E-06,-5.11E-06,-0.000300869,0.000299518,0.000403035,-0.000404424,642.0770264,642.0770264,706.2479858,706.2479858,-0.000378907,-1.25E-10,-6.20E-10,6.01E-10,-1.70E-10,1.83E-10,6.66E-08,0.93658483,-8.03E-11,-5.29E-09,-2.34E-08,-96.65717316,-13.94838238,8.16E-08,2.98E-12,0.641
1.93E-07,4.03E-06,4.27E-06,-3.80E-06,-3.62E-06,-0.000300125,0.000300135,0.00040392,-0.000405401,642.0770264,642.0770264,706.2479858,706.2479858,-0.000378907,-1.27E-10,-6.13E-10,5.82E-10,-1.68E-10,1.56E-10,6.66E-08,0.93658483,8.47E-12,1.36E-08,-8.33E-09,-96.65717316,-13.94838238,8.16E-08,-6.62E-11,0.651
1.94E-07,3.46E-06,3.25E-06,-1.96E-06,-2.21E-06,-0.000301674,0.000302475,0.000403768,-0.00040545,642.0770264,642.0770264,706.2479858,706.2479858,-0.000378907,-1.29E-10,-5.95E-10,5.69E-10,-1.64E-10,1.29E-10,6.67E-08,0.93658483,1.30E-10,2.10E-08,-1.00E-08,-96.65717316,-13.94838238,8.17E-08,-7.51E-11,0.661
1.94E-07,2.69E-06,2.51E-06,-6.72E-07,-9.92E-07,-0.000300278,0.00030287,0.000403149,-0.000402364,642.0770264,642.0770264,706.2479858,706.2479858,-0.000378907,-1.30E-10,-5.78E-10,5.57E-10,-1.46E-10,1.23E-10,6.69E-08,0.93658483,2.52E-11,1.28E-08,-1.37E-08,-96.65717316,-13.94838238,8.18E-08,-5.75E-11,0.671
1.95E-07,1.92E-06,1.76E-06,2.55E-07,-2.41E-08,-0.000300876,0.000301349,0.000402652,-0.000403218,642.0770264,642.0770264,706.2479858,706.2479858,-0.000378907,-1.28E-10,-5.59E-10,5.44E-10,-1.31E-10,1.20E-10,6.71E-08,0.93658483,5.27E-11,1.74E-08,2.61E-08,-96.65717316,-13.94838238,8.19E-08,-7.75E-11,0.681
1.96E-07,1.27E-06,1.04E-06,9.84E-07,6.84E-07,-0.000302231,0.000302763,0.000400573,-0.000401871,642.0770264,642.0770264,706.2479858,706.2479858,-0.000378907,-1.27E-10,-5.47E-10,5.30E-10,-1.27E-10,1.09E-10,6.74E-08,0.93658483,6.18E-11,1.52E-08,-4.19E-08,-96.65717316,-13.94838238,8.21E-08,-9.70E-11,0.691
1.97E-07,6.21E-07,3.86E-07,1.44E-06,1.18E-06,-0.000303467,0.000302182,0.000402337,-0.000401545,642.0770264,642.0770264,706.2479858,706.2479858,-0.000378907,-1.26E-10,-5.38E-10,5.18E-10,-1.22E-10,9.91E-11,6.76E-08,0.93658483,-1.07E-11,1.56E-08,1.15E-08,-96.65717316,-13.94838238,8.22E-08,-1.31E-10,0.701
1.98E-07,-1.09E-07,-1.34E-07,1.40E-06,1.45E-06,-0.00030181,0.000301539,0.000401012,-0.000401649,642.0770264,642.0770264,706.2479858,706.2479858,-0.000378907,-1.25E-10,-5.30E-10,5.08E-10,-1.11E-10,1.02E-10,6.78E-08,0.93658483,2.36E-12,1.08E-08,-2.15E-08,-96.65717316,-13.94838238,8.23E-08,-8.15E-11,0.711
1.99E-07,-7.03E-07,-5.56E-07,1.31E-06,1.55E-06,-0.000303966,0.000302792,0.000402718,-0.000399768,642.0770264,642.0770264,706.2479858,706.2479858,-0.000378907,-1.22E-10,-5.23E-10,4.99E-10,-1.05E-10,1.03E-10,6.79E-08,0.93658483,-1.03E-10,9.31E-09,6.35E-08,-96.65717316,-13.94838238,8.24E-08,-8.28E-11,0.721
1.99E-07,-1.30E-06,-6.66E-07,8.97E-07,1.65E-06,-0.000303909,0.000305035,0.000401376,-0.000399065,642.0770264,642.0770264,706.2479858,706.2479858,-0.000378907,-1.21E-10,-5.25E-10,4.89E-10,-9.42E-11,1.11E-10,6.80E-08,0.93658483,-1.89E-10,-7.03E-09,4.32E-08,-96.65717316,-13.94838238,8.25E-08,-4.07E-11,0.731
2.00E-07,-1.43E-06,-1.06E-06,6.08E-07,1.23E-06,-0.000303125,0.000305921,0.000399641,-0.000401756,642.0770264,642.0770264,706.2479858,706.2479858,-0.000378907,-1.20E-10,-5.19E-10,4.92E-10,-9.95E-11,1.05E-10,6.80E-08,0.93658483,4.09E-11,-2.68E-09,-1.38E-08,-96.65717316,-13.94838238,8.25E-08,-2.74E-11,0.741
2.01E-07,-1.18E-06,-1.42E-06,3.83E-07,3.31E-07,-0.000303201,0.000304842,0.000402268,-0.000402208,642.0770264,642.0770264,706.2479858,706.2479858,-0.000378907,-1.22E-10,-5.17E-10,4.96E-10,-1.20E-10,9.06E-11,6.79E-08,0.93658483,1.13E-10,-7.17E-09,-1.27E-08,-96.65717316,-13.94838238,8.24E-08,-3.24E-11,0.751
2.02E-07,-1.01E-06,-1.31E-06,3.21E-10,-3.22E-07,-0.000304127,0.000304724,0.000400481,-0.000401386,642.0770264,642.0770264,706.2479858,706.2479858,-0.000378907,-1.24E-10,-5.18E-10,4.99E-10,-1.24E-10,9.45E-11,6.78E-08,0.93658483,6.49E-11,-6.90E-09,-3.03E-08,-96.65717316,-13.94838238,8.23E-08,-1.35E-11,0.761
2.03E-07,-6.32E-07,-9.63E-07,-3.90E-07,-9.11E-07,-0.000303996,0.000303607,0.000402594,-0.000401545,642.0770264,642.0770264,706.2479858,706.2479858,-0.000378907,-1.27E-10,-5.22E-10,5.04E-10,-1.30E-10,9.91E-11,6.76E-08,0.93658483,8.37E-11,-1.09E-08,2.26E-08,-96.65717316,-13.94838238,8.22E-08,-2.00E-11,0.771
2.03E-07,-2.47E-07,-4.59E-07,-7.65E-07,-1.25E-06,-0.000303896,0.000304338,0.000402533,-0.000401922,642.0770264,642.0770264,706.2479858,706.2479858,-0.000378907,-1.28E-10,-5.25E-10,5.11E-10,-1.28E-10,1.10E-10,6.74E-08,0.93658483,6.70E-12,-5.74E-09,-3.47E-08,-96.65717316,-13.94838238,8.21E-08,-2.31E-12,0.781
2.04E-07,-4.17E-08,2.97E-07,-1.36E-06,-1.29E-06,-0.000303636,0.000303217,0.000400213,-0.000400686,642.0770264,642.0770264,706.2479858,706.2479858,-0.000378907,-1.26E-10,-5.33E-10,5.16E-10,-1.16E-10,1.30E-10,6.73E-08,0.93658483,-1.20E-10,-1.81E-08,-2.58E-08,-96.65717316,-13.94838238,8.20E-08,3.65E-12,0.791
2.05E-07,2.86E-07,8.42E-07,-1.97E-06,-1.50E-06,-0.00030529,0.000304083,0.000402183,-0.000401957,642.0770264,642.0770264,706.2479858,706.2479858,-0.000378907,-1.24E-10,-5.42E-10,5.19E-10,-1.18E-10,1.39E-10,6.72E-08,0.93658483,-1.17E-10,-7.78E-09,2.24E-08,-96.65717316,-13.94838238,8.19E-08,-6.41E-12,0.801
2.06E-07,6.22E-07,1.21E-06,-2.39E-06,-1.71E-06,-0.000303213,0.000302002,0.000401353,-0.000401175,642.0770264,642.0770264,706.2479858,706.2479858,-0.000378907,-1.22E-10,-5.46E-10,5.24E-10,-1.21E-10,1.44E-10,6.70E-08,0.93658483,-1.34E-10,-1.45E-08,7.99E-09,-96.65717316,-13.94838238,8.19E-08,-6.29E-12,0.811
2.07E-07,9.57E-07,1.63E-06,-2.82E-06,-1.99E-06,-0.000301855,0.000304022,0.000402662,-0.00040309,642.0770264,642.0770264,706.2479858,706.2479858,-0.000378907,-1.21E-10,-5.59E-10,5.21E-10,-1.32E-10,1.44E-10,6.69E-08,0.93658483,-1.28E-10,-7.55E-09,-3.47E-08,-96.65717316,-13.94838238,8.18E-08,-2.90E-11,0.821
2.08E-07,1.39E-06,1.82E-06,-2.97E-06,-2.35E-06,-0.000305564,0.000301964,0.000403091,-0.000401017,642.0770264,642.0770264,706.2479858,706.2479858,-0.000378907,-1.23E-10,-5.63E-10,5.25E-10,-1.44E-10,1.39E-10,6.68E-08,0.93658483,-1.06E-10,3.19E-09,7.26E-08,-96.65717316,-13.94838238,8.17E-08,-3.30E-11,0.831
2.08E-07,1.58E-06,2.17E-06,-3.15E-06,-2.59E-06,-0.000302413,0.000303939,0.00040322,-0.000401131,642.0770264,642.0770264,706.2479858,706.2479858,-0.000378907,-1.25E-10,-5.71E-10,5.24E-10,-1.48E-10,1.43E-10,6.66E-08,0.93658483,-1.35E-10,-1.16E-08,1.46E-08,-96.65717316,-13.94838238,8.16E-08,-1.01E-11,0.841
2.09E-07,1.87E-06,2.17E-06,-3.05E-06,-2.80E-06,-0.000302638,0.000303555,0.000401304,-0.000403145,642.0770264,642.0770264,706.2479858,706.2479858,-0.000378907,-1.26E-10,-5.64E-10,5.36E-10,-1.48E-10,1.46E-10,6.65E-08,0.93658483,3.60E-12,-9.57E-09,-8.11E-08,-96.65717316,-13.94838238,8.16E-08,2.58E-11,0.851
2.10E-07,2.04E-06,2.05E-06,-2.81E-06,-2.92E-06,-0.000302807,0.000303344,0.000401433,-0.000401102,642.0770264,642.0770264,706.2479858,706.2479858,-0.000378907,-1.27E-10,-5.59E-10,5.42E-10,-1.51E-10,1.42E-10,6.64E-08,0.93658483,3.41E-11,-6.29E-09,2.14E-08,-96.65717316,-13.94838238,8.15E-08,-7.68E-12,0.861
2.11E-07,2.03E-06,2.10E-06,-2.79E-06,-2.88E-06,-0.000302778,0.000301448,0.000400367,-0.000403164,642.0770264,642.0770264,706.2479858,706.2479858,-0.000378907,-1.27E-10,-5.60E-10,5.41E-10,-1.49E-10,1.46E-10,6.63E-08,0.93658483,1.66E-11,-5.46E-09,1.01E-08,-96.65717316,-13.94838238,8.14E-08,-1.06E-11,0.871
2.12E-07,2.05E-06,2.08E-06,-2.61E-06,-2.74E-06,-0.000301682,0.000302547,0.000401446,-0.000401047,642.0770264,642.0770264,706.2479858,706.2479858,-0.000378907,-1.28E-10,-5.64E-10,5.37E-10,-1.52E-10,1.40E-10,6.62E-08,0.93658483,1.41E-11,-1.21E-08,1.88E-08,-96.65717316,-13.94838238,8.14E-08,-5.15E-11,0.881
2.12E-07,2.16E-06,1.88E-06,-2.41E-06,-2.73E-06,-0.000301815,0.000301423,0.000401571,-0.000400827,642.0770264,642.0770264,706.2479858,706.2479858,-0.000378907,-1.28E-10,-5.60E-10,5.42E-10,-1.56E-10,1.34E-10,6.62E-08,0.93658483,7.16E-11,-9.72E-09,2.18E-08,-96.65717316,-13.94838238,8.13E-08,-7.19E-11,0.891
2.13E-07,2.14E-06,1.72E-06,-2.30E-06,-2.75E-06,-0.000301849,0.000303402,0.000401724,-0.000400653,642.0770264,642.0770264,706.2479858,706.2479858,-0.000378907,-1.28E-10,-5.59E-10,5.40E-10,-1.60E-10,1.29E-10,6.61E-08,0.93658483,1.02E-10,-5.92E-09,2.27E-08,-96.65717316,-13.94838238,8.13E-08,-8.36E-11,0.901
2.14E-07,2.00E-06,1.61E-06,-2.14E-06,-2.55E-06,-0.000300939,0.00030148,0.00040156,-0.000400676,642.0770264,642.0770264,706.2479858,706.2479858,-0.000378907,-1.27E-10,-5.57E-10,5.40E-10,-1.55E-10,1.30E-10,6.60E-08,0.93658483,7.61E-11,-1.27E-08,3.36E-08,-96.65717316,-13.94838238,8.13E-08,-8.94E-11,0.911
2.15E-07,1.80E-06,1.45E-06,-1.95E-06,-2.35E-06,-0.000302863,0.000303553,0.000400541,-0.000400553,642.0770264,642.0770264,706.2479858,706.2479858,-0.000378907,-1.27E-10,-5.57E-10,5.36E-10,-1.54E-10,1.26E-10,6.60E-08,0.93658483,5.47E-11,-8.98E-09,-4.37E-09,-96.65717316,-13.94838238,8.12E-08,-1.09E-10,0.921
2.16E-07,1.70E-06,1.28E-06,-1.86E-06,-2.25E-06,-0.000302961,0.000303567,0.000401474,-0.000402408,642.0770264,642.0770264,706.2479858,706.2479858,-0.000378907,-1.26E-10,-5.54E-10,5.35E-10,-1.53E-10,1.24E-10,6.59E-08,0.93658483,1.08E-10,-2.90E-09,-6.11E-09,-96.65717316,-13.94838238,8.12E-08,-1.05E-10,0.931
2.17E-07,1.62E-06,1.11E-06,-1.67E-06,-2.15E-06,-0.000303006,0.000301657,0.000399607,-0.000402191,642.0770264,642.0770264,706.2479858,706.2479858,-0.000378907,-1.25E-10,-5.53E-10,5.34E-10,-1.54E-10,1.18E-10,6.58E-08,0.93658483,1.15E-10,-7.23E-09,-4.12E-08,-96.65717316,-13.94838238,8.11E-08,-1.23E-10,0.941
2.17E-07,1.43E-06,1.04E-06,-1.55E-06,-1.98E-06,-0.000302895,0.000303814,0.000400572,-0.000402056,642.0770264,642.0770264,706.2479858,706.2479858,-0.000378907,-1.26E-10,-5.56E-10,5.28E-10,-1.54E-10,1.14E-10,6.58E-08,0.93658483,8.45E-11,-5.92E-09,-7.34E-09,-96.65717316,-13.94838238,8.11E-08,-1.31E-10,0.951
2.18E-07,1.34E-06,9.37E-07,-1.45E-06,-1.92E-06,-0.000302864,0.000303926,0.000401612,-0.00040189,642.0770264,642.0770264,706.2479858,706.2479858,-0.000378907,-1.27E-10,-5.57E-10,5.24E-10,-1.57E-10,1.09E-10,6.57E-08,0.93658483,1.11E-10,-2.73E-09,8.55E-09,-96.65717316,-13.94838238,8.11E-08,-1.40E-10,0.961
2.19E-07,1.33E-06,8.44E-07,-1.36E-06,-1.90E-06,-0.000302072,0.000303789,0.000401488,-0.000400988,642.0770264,642.0770264,706.2479858,706.2479858,-0.000378907,-1.26E-10,-5.52E-10,5.28E-10,-1.53E-10,1.11E-10,6.56E-08,0.93658483,1.14E-10,-5.29E-09,8.96E-10,-96.65717316,-13.94838238,8.10E-08,-1.18E-10,0.971
2.20E-07,1.26E-06,8.12E-07,-1.33E-06,-1.82E-06,-0.000302221,0.000303718,0.000401302,-0.000401134,642.0770264,642.0770264,706.2479858,706.2479858,-0.000378907,-1.25E-10,-5.47E-10,5.31E-10,-1.48E-10,1.15E-10,6.56E-08,0.93658483,1.14E-10,-5.60E-09,2.01E-08,-96.65717316,-13.94838238,8.10E-08,-1.05E-10,0.981
2.21E-07,1.18E-06,8.77E-07,-1.32E-06,-1.68E-06,-0.000301188,0.000303834,0.000399311,-0.000400206,642.0770264,642.0770264,706.2479858,706.2479858,-0.000378907,-1.24E-10,-5.49E-10,5.27E-10,-1.46E-10,1.16E-10,6.55E-08,0.93658483,7.27E-11,-1.00E-08,-2.67E-08,-96.65717316,-13.94838238,8.09E-08,-1.11E-10,0.991
2.21E-07,1.18E-06,8.64E-07,-1.25E-06,-1.59E-06,-0.000303054,0.000303938,0.00040326,-0.000401963,642.0770264,642.0770264,706.2479858,706.2479858,-0.000378907,-1.23E-10,-5.51E-10,5.24E-10,-1.49E-10,1.11E-10,6.55E-08,0.93658483,4.83E-11,1.56E-09,4.17E-08,-96.65717316,-13.94838238,8.09E-08,-1.26E-10,1.001
2.22E-07,1.15E-06,8.09E-07,-1.26E-06,-1.58E-06,-0.000303086,0.000303923,0.000401321,-0.000401946,642.0770264,642.0770264,706.2479858,706.2479858,-0.000378907,-1.23E-10,-5.50E-10,5.24E-10,-1.48E-10,1.11E-10,6.54E-08,0.93658483,7.47E-11,4.82E-09,-2.50E-08,-96.65717316,-13.94838238,8.09E-08,-1.02E-10,1.011
2.23E-07,1.15E-06,8.21E-07,-1.37E-06,-1.69E-06,-0.000301191,0.000302934,0.000401339,-0.000400091,642.0770264,642.0770264,706.2479858,706.2479858,-0.000378907,-1.23E-10,-5.49E-10,5.25E-10,-1.49E-10,1.13E-10,6.54E-08,0.93658483,9.42E-11,-9.72E-09,4.92E-08,-96.65717316,-13.94838238,8.09E-08,-8.12E-11,1.021
2.24E-07,1.24E-06,8.13E-07,-1.37E-06,-1.79E-06,-0.000302274,0.000303778,0.000401353,-0.000402041,642.0770264,642.0770264,706.2479858,706.2479858,-0.000378907,-1.23E-10,-5.46E-10,5.29E-10,-1.49E-10,1.13E-10,6.53E-08,0.93658483,1.08E-10,8.15E-10,-4.37E-08,-96.65717316,-13.94838238,8.08E-08,-7.04E-11,1.031
2.25E-07,1.22E-06,9.12E-07,-1.45E-06,-1.82E-06,-0.000303158,0.000303833,0.000401331,-0.000401145,642.0770264,642.0770264,706.2479858,706.2479858,-0.000378907,-1.23E-10,-5.48E-10,5.27E-10,-1.49E-10,1.15E-10,6.52E-08,0.93658483,6.54E-11,-6.04E-09,1.77E-08,-96.65717316,-13.94838238,8.08E-08,-6.60E-11,1.041
2.25E-07,1.24E-06,9.47E-07,-1.53E-06,-1.89E-06,-0.000302192,0.000302861,0.000403281,-0.00040214,642.0770264,642.0770264,706.2479858,706.2479858,-0.000378907,-1.23E-10,-5.48E-10,5.27E-10,-1.49E-10,1.16E-10,6.52E-08,0.93658483,8.17E-11,5.40E-09,5.67E-08,-96.65717316,-13.94838238,8.07E-08,-5.64E-11,1.051
2.26E-07,1.30E-06,9.56E-07,-1.52E-06,-1.97E-06,-0.000303155,0.000303774,0.000399499,-0.000401126,642.0770264,642.0770264,706.2479858,706.2479858,-0.000378907,-1.24E-10,-5.48E-10,5.29E-10,-1.51E-10,1.15E-10,6.51E-08,0.93658483,5.93E-11,-1.44E-09,-6.53E-08,-96.65717316,-13.94838238,8.07E-08,-6.81E-11,1.061
2.27E-07,1.19E-06,1.14E-06,-1.75E-06,-1.98E-06,-0.00030093,0.000304009,0.000401457,-0.000402128,642.0770264,642.0770264,706.2479858,706.2479858,-0.000378907,-1.26E-10,-5.57E-10,5.22E-10,-1.52E-10,1.16E-10,6.50E-08,0.93658483,4.66E-11,-6.66E-09,-3.68E-08,-96.65717316,-13.94838238,8.06E-08,-6.77E-11,1.071
2.28E-07,1.29E-06,1.09E-06,-1.79E-06,-2.10E-06,-0.000302101,0.000301873,0.000402392,-0.000401273,642.0770264,642.0770264,706.2479858,706.2479858,-0.000378907,-1.26E-10,-5.51E-10,5.28E-10,-1.51E-10,1.19E-10,6.49E-08,0.93658483,1.74E-11,-3.63E-09,-4.43E-09,-96.65717316,-13.94838238,8.06E-08,-5.11E-11,1.081
2.29E-07,1.31E-06,1.22E-06,-1.86E-06,-2.08E-06,-0.00030307,0.000301809,0.00040131,-0.000400469,642.0770264,642.0770264,706.2479858,706.2479858,-0.000378907,-1.25E-10,-5.51E-10,5.30E-10,-1.48E-10,1.24E-10,6.48E-08,0.93658483,-2.95E-12,-1.12E-08,3.88E-08,-96.65717316,-13.94838238,8.05E-08,-5.48E-11,1.091
2.29E-07,1.32E-06,1.29E-06,-1.91E-06,-2.02E-06,-0.000302006,0.000303804,0.000401331,-0.000401414,642.0770264,642.0770264,706.2479858,706.2479858,-0.000378907,-1.25E-10,-5.54E-10,5.28E-10,-1.49E-10,1.23E-10,6.48E-08,0.93658483,4.96E-11,-7.86E-09,1.54E-08,-96.65717316,-13.94838238,8.05E-08,-7.21E-11,1.101
3.10E-06,-1.446422696,-1.446422935,2.749339819,2.749339819,0.143252268,-0.143252224,-1.706959844,1.706960678,641.968811,641.968811,698.817688,698.817688,-0.000389789,-1.24E-10,-4.21E-06,4.21E-06,4.52E-05,-4.52E-05,0.034045082,0.93658483,4.97E-11,0.029582791,4.74E-09,-96.65717316,-13.94838238,5.81E-05,-2.40E-11,1.111
1.35E-05,-4.27609539,-4.27609539,1.901605487,1.901606441,0.404764265,-0.404764473,-2.844277859,2.844278812,641.5337524,641.5337524,691.4316406,691.4316406,-0.00042253,-1.23E-10,-1.15E-05,1.15E-05,7.21E-05,-7.21E-05,0.020167621,0.93658483,7.43E-12,-0.019688087,9.09E-10,-96.65717316,-13.94838142,4.43E-05,-8.62E-12,1.121
3.39E-05,-6.571853638,-6.571853638,-0.639346063,-0.639344454,0.702455223,-0.702455759,-2.981410503,2.98141098,640.715271,640.715271,688.2262573,688.2262573,-0.000479244,-1.20E-10,-1.95E-05,1.95E-05,7.01E-05,-7.01E-05,1.098426223,0.93658483,1.80E-12,-0.055253979,-8.25E-10,-96.65717316,-13.94838238,-0.000332654,-6.99E-12,1.131
6.87E-05,-7.900269508,-7.900269508,-1.141724706,-1.141722798,1.01219964,-1.012200594,-3.563595533,3.563595772,639.5308838,639.5308838,688.0344238,688.0344238,-0.000562987,-1.14E-10,-2.76E-05,2.76E-05,8.04E-05,-8.04E-05,9.179905891,0.93658483,-3.13E-12,-0.068482697,-1.76E-09,-96.65718079,-13.9483881,-0.000960401,-2.42E-11,1.141
0.000120809,-8.52249527,-8.52249527,0.190943152,0.190945178,1.290204883,-1.290206075,-4.55463171,4.55463171,638.1571045,638.1571045,689.8416138,689.8416138,-0.000672501,-1.05E-10,-3.44E-05,3.44E-05,0.000101225,-0.000101225,26.1332283,0.93658483,2.04E-13,-0.063533336,1.20E-08,-96.65718842,-13.94839859,-0.001620397,-3.76E-11,1.151
0.00019039,-8.763356209,-8.763355255,2.640814304,2.640817165,1.498587012,-1.498589635,-6.252402306,6.252402782,636.8759155,636.8759155,692.7904663,692.7904663,-0.000802843,-9.32E-11,-3.88E-05,3.88E-05,0.000140704,-0.000140704,46.77789688,0.93658483,-1.30E-11,-0.047268771,-3.61E-09,-96.65719604,-13.9484148,-0.002168664,-4.73E-11,1.161
0.000276089,-8.920847893,-8.920847893,5.754200459,5.754205227,1.603438139,-1.603441477,-8.304002762,8.304002762,635.9509888,635.9509888,696.2615967,696.2615967,-0.000947026,-7.49E-11,-4.01E-05,4.01E-05,0.000188344,-0.000188344,63.15052032,0.93658483,-7.55E-11,-0.025278803,-7.22E-09,-96.6572113,-13.94843388,-0.002521256,-1.01E-10,1.171
0.000375513,-9.242628098,-9.242629051,8.921063423,8.921069145,1.582547665,-1.582551122,-10.3901844,10.39018345,635.5487061,635.5487061,699.7668457,699.7668457,-0.001097747,-5.17E-11,-3.75E-05,3.75E-05,0.000235006,-0.000235006,69.90203857,0.93658483,-9.35E-11,-0.003978426,-5.42E-09,-96.65722656,-13.94845486,-0.002654878,-1.55E-10,1.181
0.000485861,-9.7996912,-9.799693108,11.68200588,11.68201351,1.42521441,-1.425217986,-12.30009651,12.30009651,635.7158203,635.7158203,702.9094849,702.9094849,-0.001248481,-2.50E-11,-3.10E-05,3.10E-05,0.000275006,-0.000275006,66.82888031,0.93658483,-7.81E-11,0.012696785,-4.14E-09,-96.65724182,-13.94847584,-0.002598879,-1.99E-10,1.191
0.000604299,-10.53479099,-10.53479385,13.78962994,13.78963852,1.139463067,-1.139467001,-13.91398621,13.91398716,636.399353,636.399353,705.4157104,705.4157104,-0.001394174,5.40E-12,-2.10E-05,2.10E-05,0.000305447,-0.000305447,57.25085831,0.93658483,-6.17E-11,0.023283947,-5.88E-09,-96.65725708,-13.94849586,-0.002409123,-2.48E-10,1.201
0.00072819,-11.34647942,-11.34648228,15.15359402,15.1536026,0.756992459,-0.756996691,-15.1862011,15.1862011,637.4847412,637.4848022,707.1567383,707.1567383,-0.001531659,3.91E-11,-8.67E-06,8.67E-06,0.00032556,-0.00032556,45.32582855,0.93658483,-4.61E-11,0.02821663,1.91E-09,-96.65727234,-13.94851398,-0.002147786,-3.16E-10,1.211
0.000855146,-12.07834244,-12.07834435,15.73625278,15.73626137,0.381131738,-0.381135911,-16.12951851,16.12951851,638.9135742,638.9135742,708.1402588,708.1402588,-0.001660053,7.34E-11,2.83E-06,-2.83E-06,0.000336133,-0.000336133,34.23439026,0.93658483,-4.87E-11,0.027136965,-1.03E-08,-96.65727997,-13.94852924,-0.001871071,-4.01E-10,1.221
0.000981358,-17.99634933,-17.99635124,61.43699646,61.43700027,0.273567379,-0.273570746,-14.91665268,14.91665173,640.4838257,640.4838257,713.2989502,713.2989502,-0.001785937,1.11E-10,5.76E-06,-5.76E-06,0.000284627,-0.000284627,0.789676607,0.93658483,-2.92E-10,0.320337147,-1.80E-08,-96.6572876,-13.94854069,-0.000541471,-5.27E-10,1.231
0.001099483,-69.20304108,-69.20304108,154.6918945,154.6919098,1.871995807,-1.871995926,-15.76317787,15.7631712,642.6571045,642.6571655,729.7548218,729.7548218,-0.001935506,1.50E-10,-4.21E-05,4.21E-05,0.000294376,-0.000294376,222.9797363,0.93658483,-2.08E-10,0.608036041,-1.03E-08,-96.65727997,-13.94852543,0.004701585,-7.36E-10,1.241
0.0012167,-152.6086273,-152.6086273,199.2197876,199.2197876,7.223170757,-7.223171711,-18.9922657,18.99226379,649.4325562,649.4325562,749.3546753,749.3546753,-0.002104754,1.81E-10,-0.000199659,0.000199659,0.000371503,-0.000371503,812.6398315,0.93658483,-1.43E-10,0.330255151,4.10E-08,-96.65723419,-13.9484663,0.00899891,-8.89E-10,1.251
0.001336007,-205.9433746,-205.9433746,243.1957092,243.1957092,11.69739532,-11.69739628,-20.74076271,20.74076653,657.0820313,657.0820313,763.3449097,763.3449097,-0.002254831,2.04E-10,-0.000325157,0.000325157,0.000409436,-0.000409436,1000,0.93658483,-1.58E-10,0.257647634,2.59E-08,-96.65717316,-13.94838047,0.011971471,-8.44E-10,1.261
0.001468059,-229.4681091,-229.4681091,254.8075409,254.8075409,12.08371258,-12.08371353,-19.930439,19.93044472,660.9759521,660.9760132,767.9707642,767.9707642,-0.002356944,2.19E-10,-0.000326,0.000326,0.000381391,-0.000381391,1000,0.93658483,-1.26E-10,0.190062404,1.35E-08,-96.65709686,-13.94827461,0.013937541,-6.71E-10,1.271
0.001630103,-238.487793,-238.487793,269.0092468,269.0092468,10.51886749,-10.51886749,-15.45360756,15.45361423,659.6536255,659.6536255,763.8010864,763.8010864,-0.002399313,2.25E-10,-0.000271689,0.000271689,0.0002591,-0.0002591,1000,0.93658483,-9.72E-11,0.229346797,3.04E-08,-96.65700531,-13.94815445,0.016015599,-4.14E-10,1.281
0.001839449,-252.1122284,-252.1122131,286.0026855,286.0026855,11.26719761,-11.26719761,-6.524662495,6.524670601,656.0202637,656.0203247,754.3174438,754.3174438,-0.002390848,2.21E-10,-0.000290598,0.000290598,1.71E-05,-1.71E-05,1000,0.93658483,-7.60E-11,0.253331929,3.09E-08,-96.65690613,-13.94801521,0.018357795,-1.08E-10,1.291
0.002102072,-277.7477417,-277.7477417,316.1940918,316.1940918,15.18519497,-15.18519402,10.493783,-10.49377918,652.7755737,652.7755737,745.069397,745.0693359,-0.002343589,2.12E-10,-0.000407454,0.000407453,-0.000452214,0.000452214,1000,0.93658483,-2.04E-10,0.284025431,9.66E-10,-96.65678406,-13.947855,0.021134088,1.22E-10,1.301
0.002415962,-313.6056824,-313.6056824,342.6676636,342.6676636,21.24937248,-21.24937248,32.36823273,-32.36822891,651.40979,651.40979,737.6789551,737.6789551,-0.002271183,1.95E-10,-0.000589569,0.000589569,-0.001063325,0.001063325,1000,0.93658483,-2.79E-12,0.215750635,2.58E-08,-96.65665436,-13.9476738,0.023635317,3.16E-10,1.311
0.002770886,-347.4554443,-347.4554138,362.7119141,362.7119141,26.82765007,-26.8276577,50.0936203,-50.09361267,650.8712769,650.8712769,730.3485107,730.3485107,-0.002183471,1.68E-10,-0.000755293,0.000755293,-0.001562626,0.001562625,1000,0.93658483,2.27E-10,0.114918232,7.67E-09,-96.6565094,-13.94747543,0.025404338,4.84E-10,1.321
0.003153565,-368.5512085,-368.551178,377.218689,377.218689,29.96696663,-29.96697998,58.72114563,-58.721138,649.1495972,649.1495972,720.8079834,720.8079834,-0.002087165,1.34E-10,-0.000844981,0.000844982,-0.001809361,0.00180936,1000,0.93658483,3.98E-10,0.068137109,6.64E-10,-96.65635681,-13.94726753,0.026285322,5.05E-10,1.331
0.003552586,-385.4411926,-385.4411621,390.5583801,390.5583801,31.55914497,-31.55916023,62.53895187,-62.53893661,645.3071289,645.3071289,710.0983887,710.0983276,-0.001990928,9.45E-11,-0.000889218,0.000889218,-0.001922608,0.001922608,1000,0.93658483,5.05E-10,0.04083946,2.40E-09,-96.65619659,-13.94705296,0.026796976,5.05E-10,1.341
0.003958484,-400.9794312,-400.9794006,403.399231,403.399231,33.46768951,-33.46770477,65.35159302,-65.35157013,640.2740479,640.2740479,700.0542603,700.0542603,-0.001904559,4.93E-11,-0.000946221,0.000946222,-0.002008005,0.002008004,1000,0.93658483,5.81E-10,0.019571777,1.17E-08,-96.65603638,-13.94683647,0.027076583,5.66E-10,1.351
0.004361821,-416.0792847,-416.0792236,415.9545288,415.9545288,35.95474243,-35.95475769,66.69042206,-66.69039917,635.0720215,635.0720215,691.8878174,691.8878174,-0.001835666,-3.54E-12,-0.001023348,0.001023348,-0.002047601,0.0020476,1000,0.93658483,6.30E-10,-0.000646796,2.44E-08,-96.65587616,-13.94661808,0.027165331,7.41E-10,1.361
0.00475368,-430.4603271,-430.4602966,428.0464172,428.0464172,38.23485947,-38.23487473,65.14624786,-65.14621735,630.3658447,630.3658447,686.0935669,686.0935669,-0.001787964,-6.51E-11,-0.001094199,0.001094199,-0.001995696,0.001995695,1000,0.93658483,6.58E-10,-0.018583501,3.37E-08,-96.65571594,-13.94640064,0.02707115,1.03E-09,1.371
0.005127076,-444.868042,-444.8680115,443.3564453,443.3564453,39.55139542,-39.55142212,60.53121185,-60.53119278,626.4605713,626.4605713,682.8688354,682.8688354,-0.001761406,-1.22E-10,-0.001133267,0.001133268,-0.001846007,0.001846006,1000,0.93658483,7.96E-10,-0.013039642,-2.10E-08,-96.65555573,-13.9461832,0.026910951,1.13E-09,1.381
0.005479046,-461.7071533,-461.7070923,459.6691895,459.6691895,39.9356308,-39.93566132,54.43307114,-54.43305969,623.7900391,623.7901001,682.4857178,682.4857178,-0.001753668,-1.33E-10,-0.001140551,0.001140552,-0.001645479,0.001645479,1000,0.93658483,-1.87E-10,-0.017429862,-7.70E-08,-96.65539551,-13.94596767,0.026783489,4.26E-10,1.391
0.005808928,-476.5517883,-476.5517578,474.6148987,474.6148987,39.0517807,-39.05180359,46.66061783,-46.66060257,622.385437,622.385437,683.9367676,683.9367676,-0.001759377,-1.31E-10,-0.001103424,0.001103425,-0.001390762,0.001390761,1000,0.93658483,-5.54E-11,-0.016499316,-4.23E-08,-96.65524292,-13.9457531,0.026627827,6.88E-11,1.401
0.006118423,-489.6941528,-489.6941223,488.4137268,488.4137268,36.74733734,-36.74735641,37.91910934,-37.91910553,621.9847412,621.9847412,686.3030396,686.3030396,-0.001772237,-1.21E-10,-0.001017333,0.001017333,-0.001106931,0.001106931,1000,0.93658483,2.92E-11,-0.011332214,-4.55E-08,-96.6550827,-13.94553947,0.026502598,-3.70E-10,1.411
0.006411201,-501.3674011,-501.3673706,501.0936584,501.0936584,33.40671921,-33.40673065,29.63244247,-29.63244057,622.4705811,622.4705811,689.0192261,689.019165,-0.001786438,-1.03E-10,-0.000895713,0.000895713,-0.000839484,0.000839484,1000,0.93658483,-1.63E-11,-0.003472315,-2.89E-08,-96.65492249,-13.94532585,0.026440181,-7.65E-10,1.421
0.00669175,-511.3913574,-511.3913574,509.8983154,509.8983154,29.49762154,-29.49762535,22.59213257,-22.59213257,623.7797241,623.7797241,691.6747437,691.6747437,-0.001797477,-7.92E-11,-0.000754864,0.000754864,-0.00061299,0.00061299,1000,0.93658483,-1.59E-10,-0.011787054,-4.72E-09,-96.6547699,-13.94511318,0.02640217,-9.41E-10,1.431
0.006963374,-517.2349243,-517.2349854,516.4511719,516.4512329,25.09429932,-25.09429741,16.41047478,-16.41047478,625.5900269,625.5900269,693.6097412,693.6096802,-0.001802046,-5.42E-11,-0.000598111,0.000598111,-0.000416259,0.000416259,1000,0.93658483,-3.16E-10,-0.005861805,1.96E-08,-96.65460968,-13.94490147,0.026314916,-8.49E-10,1.441
0.007229412,-523.1206055,-523.1206055,522.6068115,522.6068115,20.6673584,-20.66735268,11.68804455,-11.68804455,627.730957,627.7310181,695.2197266,695.2197266,-0.0017996,-3.55E-11,-0.000442729,0.000442729,-0.000266628,0.000266628,1000,0.93658483,-3.89E-10,-0.003772064,3.70E-08,-96.65445709,-13.94468975,0.026264606,-5.32E-10,1.451
0.007492574,-528.9987183,-528.9987183,528.3876343,528.3876343,16.77543259,-16.77542305,8.530210495,-8.530211449,630.2650146,630.2650146,696.961731,696.9616699,-0.001791293,-2.86E-11,-0.000307251,0.000307251,-0.000166321,0.000166321,1000,0.93658483,-3.71E-10,-0.004431931,4.14E-08,-96.6543045,-13.94447803,0.026220389,-1.14E-10,1.461
0.007754494,-534.8209229,-534.8209229,533.8091431,533.8091431,13.510005,-13.50999832,6.269791603,-6.26979351,633.0603638,633.0603638,698.9998169,698.9998169,-0.001779078,-3.46E-11,-0.00019462,0.00019462,-9.45E-05,9.45E-05,1000,0.93658483,-2.97E-10,-0.007374871,3.42E-08,-96.65414429,-13.94426727,0.026156617,2.73E-10,1.471
0.008015891,-540.0148926,-540.0148926,538.8442383,538.8442383,11.00730896,-11.00730515,4.349214554,-4.349217415,635.9401855,635.9402466,701.2783813,701.2783813,-0.001765278,-5.08E-11,-0.000109084,0.000109084,-3.40E-05,3.40E-05,1000,0.93658483,-2.15E-10,-0.008362137,1.97E-08,-96.6539917,-13.94405651,0.02606895,5.39E-10,1.481
0.008276974,-544.8179321,-544.8179321,543.5043335,543.5043335,9.382935524,-9.38293457,2.618206501,-2.618210554,638.7420654,638.7420654,703.6661377,703.6661377,-0.001752305,-7.14E-11,-5.40E-05,5.40E-05,1.97E-05,-1.97E-05,1000,0.93658483,-1.61E-10,-0.009997943,2.95E-09,-96.65383911,-13.94384766,0.025974391,6.38E-10,1.491
0.008537556,-548.9469604,-548.9469604,547.7982178,547.7982178,8.229964256,-8.22996521,1.403590918,-1.403595567,641.182312,641.182312,706.0744019,706.0743408,-0.001741226,-9.13E-11,-1.56E-05,1.56E-05,5.71E-05,-5.71E-05,1000,0.93658483,-1.50E-10,-0.008755576,-8.98E-09,-96.65368652,-13.9436388,0.02587615,5.96E-10,1.501
0.008797407,-552.4648438,-552.4648438,551.7300415,551.7300415,7.504759789,-7.504762173,0.580207944,-0.580212891,643.0431519,643.0432129,708.3340454,708.3340454,-0.001732673,-1.08E-10,7.78E-06,-7.78E-06,8.21E-05,-8.21E-05,1000,0.93658483,-1.45E-10,-0.005835562,-1.60E-08,-96.65353394,-13.94342995,0.025798803,4.65E-10,1.511
0.009056501,-555.3147583,-555.3147583,555.3079834,555.3079834,7.265044689,-7.265047073,0.053914122,-0.053919166,644.2435303,644.2435913,710.2612915,710.2612305,-0.001726834,-1.19E-10,1.46E-05,-1.46E-05,9.78E-05,-9.78E-05,1000,0.93658483,-1.58E-10,-0.000576777,-1.80E-08,-96.65338135,-13.943223,0.02576356,2.88E-10,1.521
0.009315147,-557.6809692,-557.6809692,558.5206299,558.5206299,7.501728058,-7.501729965,-0.116766959,0.116762124,644.8140259,644.8140259,711.7314453,711.7313843,-0.001723318,-1.25E-10,5.54E-06,-5.54E-06,0.00010251,-0.00010251,1000,0.93658483,-1.82E-10,0.005576409,-1.50E-08,-96.65322876,-13.9430151,0.025788369,1.21E-10,1.531
0.009574236,-547.3791504,-547.3791504,561.0199585,561.0199585,8.057449341,-8.057452202,-0.00308882,0.003085913,644.5734863,644.5734863,712.6643066,712.6643066,-0.001721788,-1.26E-10,-1.38E-05,1.38E-05,9.86E-05,-9.86E-05,1000,0.93658483,-1.70E-11,0.103563123,1.25E-08,-96.65307617,-13.94280624,0.026045384,-9.30E-12,1.541
0.009842629,-529.4902344,-529.4902344,562.8502808,562.8502808,8.387749672,-8.387752533,-1.007197142,1.00719583,641.5887451,641.5887451,713.3443604,713.3443604,-0.001730474,-1.23E-10,-2.76E-05,2.76E-05,0.000128128,-0.000128128,1000,0.93658483,-4.57E-11,0.243627295,-5.87E-09,-96.65291595,-13.94259071,0.027678411,-1.06E-10,1.551
0.0101348,-511.8738098,-511.8738098,563.9938354,563.9938354,10.08646965,-10.08647251,-3.038864613,3.038863897,636.3846436,636.3846436,714.7528687,714.7528687,-0.001761376,-1.18E-10,-8.77E-05,8.77E-05,0.000188013,-0.000188013,1000,0.93658483,-8.23E-12,0.376864672,-2.77E-11,-96.65274048,-13.94235516,0.03067171,-1.61E-10,1.561
0.010464567,-493.1142883,-493.1142883,564.6714478,564.6714478,13.87821293,-13.87821579,-6.071615219,6.071614265,629.774353,629.774353,717.4896851,717.4896851,-0.001819303,-1.11E-10,-0.00021807,0.00021807,0.000277064,-0.000277064,1000,0.93658483,-4.14E-11,0.51713264,-6.71E-09,-96.65254211,-13.94209003,0.035074215,-2.10E-10,1.571
0.0108461,-474.5940247,-474.5940247,565.0626831,565.0626831,20.2368679,-20.23687172,-10.81815052,10.81814957,622.7265625,622.7265625,721.5531616,721.5531616,-0.001902938,-1.03E-10,-0.000435397,0.000435397,0.000415676,-0.000415676,1000,0.93658483,-4.78E-11,0.653400362,-5.16E-09,-96.65232086,-13.941782,0.040879283,-2.64E-10,1.581
0.011293229,-456.3900146,-456.3900146,565.2807617,565.2807617,27.91380119,-27.91380501,-17.56413651,17.56413651,615.8490601,615.8491211,726.5804443,726.5804443,-0.002005573,-9.21E-11,-0.000699112,0.000699112,0.000611072,-0.000611072,1000,0.93658483,-6.63E-11,0.787032783,-8.12E-09,-96.65205383,-13.94142246,0.048048053,-3.33E-10,1.591
0.011819419,-438.5464172,-438.5464172,565.3582764,565.3582764,35.33517838,-35.33518219,-26.08851051,26.08850861,609.5231323,609.5231323,732.0407715,732.0407104,-0.002117418,-7.89E-11,-0.000956366,0.000956366,0.000855574,-0.000855574,1000,0.93658483,-7.49E-11,0.917733431,-1.02E-08,-96.65174103,-13.94099808,0.056543093,-4.25E-10,1.601
0.012437762,-421.1105957,-421.1105957,565.3100586,565.3100586,41.52436066,-41.52436447,-35.76717377,35.76716995,604.0618896,604.0619507,737.414856,737.414856,-0.002228328,-6.23E-11,-0.001172903,0.001172903,0.001130385,-0.001130385,1000,0.93658483,-8.33E-11,1.044981599,-1.11E-08,-96.65137482,-13.94050026,0.066325367,-5.35E-10,1.611
0.013160934,-404.1048584,-404.1048584,565.1499023,565.1499023,45.98999405,-45.98999786,-45.82170105,45.82170105,599.6745605,599.6745605,742.3085327,742.3084717,-0.002329831,-4.21E-11,-0.00133031,0.00133031,0.001413183,-0.001413183,1000,0.93658483,-9.91E-11,1.168425679,-1.13E-08,-96.65094757,-13.93991756,0.077353932,-6.49E-10,1.621
0.014001147,-387.5272827,-387.5272827,564.4553833,564.4553833,48.56035995,-48.56036377,-55.66416168,55.66416168,596.4002075,596.4002075,746.4891968,746.4891968,-0.002416431,-1.86E-11,-0.001421445,0.001421445,0.001687792,-0.001687792,1000,0.93658483,-1.23E-10,1.284653306,-9.04E-09,-96.65045166,-13.93924141,0.089577943,-7.51E-10,1.631
0.014969928,-371.3965759,-371.3965759,563.5658569,563.5658569,49.33583832,-49.33583832,-65.08963013,65.08963013,594.1026001,594.1026001,749.8834839,749.8834229,-0.002485987,7.43E-12,-0.001449411,0.001449411,0.001949418,-0.001949418,1000,0.93658483,-1.51E-10,1.396030784,-5.13E-09,-96.64987946,-13.9384613,0.102927268,-8.21E-10,1.641
0.016078291,-360.5249023,-360.5249023,562.3355103,562.3355103,48.89793396,-48.89793396,-73.97085571,73.97085571,592.4925537,592.4925537,752.7005615,752.7005615,-0.002539661,3.44E-11,-0.001435963,0.001435963,0.00219487,-0.00219487,1000,0.93658483,-1.74E-10,1.466009974,-2.25E-08,-96.64922333,-13.93756866,0.117376834,-8.46E-10,1.651
0.017337658,1002.023987,1002.024048,319.1646729,319.1650696,41.10358047,-41.10356903,-97.08540344,97.08538055,589.2139893,589.2139893,756.6919556,756.6919556,-0.002595881,6.25E-11,-0.001504513,0.001504513,0.002775363,-0.002775362,-1000,0.93658483,1.67E-09,9.548536301,-7.63E-06,-96.64847565,-13.93655491,0.133017242,-8.64E-10,1.661
0.018790218,-619.1469727,-619.1505127,585.3831177,585.5154419,58.2681427,-58.31408691,-152.4173889,152.4125671,567.4239502,567.4229736,766.0205688,766.0203857,-0.002757196,-4.13E-09,-0.001978499,0.001980255,0.004395955,-0.004395896,-15.22452736,0.93658483,-2.52E-07,-0.320149064,-0.001644159,-96.64761353,-13.93538475,0.158221245,-2.20E-07,1.671
0.020430099,-1427.255127,-1425.908691,1659.46167,1751.504517,51.556633,-47.90599442,-136.3451385,117.9038696,561.3756714,561.3242188,778.1177979,777.6747437,-0.002964059,-6.47E-08,-0.003619225,0.003332464,0.005525348,-0.005152341,-0.013036932,0.936584592,0.000200425,0.890882909,-2.15286088,-96.64664459,-13.93406487,0.167511791,-1.88E-05,1.681
0.022251741,1502.914551,-1475.122559,1854.669556,2050.625977,1.908012748,-101.2644348,-139.585556,115.3828506,567.0369873,556.4442749,786.1010742,792.604126,-0.003150636,4.55E-06,9.24E-06,0.011597098,0.006571449,-0.008197023,0.000611984,0.936592162,-0.00320337,13.90661621,54.89430237,-96.64556122,-13.93259716,0.183242351,0.000233443,1.691
0.024294366,-173.2984161,1087.328857,1024.018188,1641.97937,279.0605164,-88.97358704,-425.5193481,134.7217102,552.3760376,556.3591309,798.4235229,792.9783936,-0.003279533,-4.10E-06,-0.009865151,0.004159107,0.01284229,-0.005191584,-0.000829346,0.93658644,0.005059391,12.81087017,-54.72000122,-96.64435577,-13.93095303,0.213064551,0.000455555,1.701
0.026549232,-1467.30481,871.0388184,1964.38916,2090.386719,82.62306213,-59.62603378,-345.5117188,-9.01157856,562.3699951,560.1372681,796.6289673,805.4057007,-0.003330708,-1.08E-06,-0.011327435,0.002293662,0.018714705,0.000637792,0.002639412,0.936602056,0.018526616,12.30106068,20.06647301,-96.64302063,-13.92913628,0.229970932,0.000499804,1.711
0.029017518,1517.551147,831.3676758,2049.134277,2071.956299,8.877037048,-266.7554932,-64.80641174,133.649353,579.4208374,573.1913452,788.5974121,798.859375,-0.00329793,-3.70E-06,-0.000537955,0.010768408,0.005002759,-0.010206648,0.001300392,0.9366045,0.006771737,23.72534943,45.57188416,-96.64155579,-13.92714787,0.243384183,0.000167186,1.721
0.031718343,1536.064453,6.902772427,-2047.354614,1952.988403,63.75680161,55.37267685,-209.3919678,-32.44620132,589.7329712,572.1884155,790.2080688,767.5401001,-0.003211802,2.09E-05,-0.009235557,-0.002165159,0.016081942,0.003749456,-0.001462061,0.93657732,-0.000140154,5.424592495,-49.11766815,-96.63995361,-13.9249754,0.267917365,-0.000950156,1.731
0.034645094,1493.920532,1542.21936,464.0688477,1990.98999,89.36265564,17.08936119,-545.5501709,-85.70005035,581.3378296,592.0783691,769.9467773,764.4031982,-0.003136085,3.44E-07,-0.006928204,-0.002755951,0.015558081,0.007021569,-0.001082356,0.93656373,-0.014113442,19.95404053,-79.27568054,-96.63822174,-13.922616,0.292873442,-0.000365969,1.741
0.037819566,1508.967163,1406.961182,1237.955078,1379.886108,16.87100029,-36.78700638,-122.3788681,10.78652096,582.8789673,580.239502,766.3922119,760.743103,-0.003102788,1.02E-05,-0.001137881,0.002127854,0.00407337,-0.000395799,0.006375427,0.936591327,0.007399241,20.57434464,15.91074944,-96.63633728,-13.92006111,0.319138855,-0.001011517,1.751
0.041236672,-1490.91626,-1500.959839,1005.275574,1512.280396,38.68467712,4.299679756,-137.4069366,32.36728287,562.8364868,566.538147,765.770874,773.9765625,-0.00312852,-6.08E-06,-0.004322596,-0.000739375,0.004254013,-0.001217482,0.006710242,0.936584294,0.001922116,-1.654396892,19.36912346,-96.63430786,-13.91731071,0.360524774,0.000353708,1.761
0.044881809,-1472.497925,-1484.021484,1878.533569,1947.508789,1.78308928,-40.08839798,-10.64378643,99.03997803,574.3812866,565.9034424,773.8965454,765.4638672,-0.003192171,1.62E-05,0.00011425,0.005057489,0.000556428,-0.006098378,-0.005126107,0.936592877,0.001618277,3.374815464,-26.66037369,-96.63214874,-13.91437435,0.369602859,-0.001123119,1.771
0.048766575,-1461.8396,1517.733765,-1074.157837,1442.082764,80.89121246,-5.168649197,-269.3639832,-51.17909241,557.3067017,572.2949829,781.8954468,781.1118774,-0.003271328,-7.31E-07,-0.007008525,0.000368495,0.00832228,0.001786897,-0.002928281,0.936594605,0.022001799,1.486423492,-54.57798004,-96.62984467,-13.91124535,0.399777502,0.000592583,1.781
0.052903756,1347.389893,-1069.780273,1856.248291,-1403.288208,-1.156406999,-175.1899872,22.69285393,253.9597931,561.4655762,558.6752319,780.2655029,790.7695313,-0.003347753,3.73E-06,0.000321269,0.008284588,-0.001078959,-0.00863759,0.001844561,0.936585009,-0.01497628,2.62608099,97.69824219,-96.62739563,-13.90791321,0.42450434,5.59E-05,1.791
0.057293063,1324.031738,-435.1103516,1248.579346,1775.717529,44.47272873,-148.1191864,-154.9400177,79.97371674,560.1349487,556.5229492,788.8427124,783.4310913,-0.003404094,1.01E-05,-0.002556092,0.005249284,0.004989813,-0.003477389,-0.009524307,0.936575413,-0.011999499,14.42643547,-20.74593544,-96.62479401,-13.90437794,0.444460034,-0.000122021,1.801
0.061953125,-1401.303467,-1024.255981,-1572.94751,1677.964478,78.50289917,-35.33470154,-219.0963135,18.28205299,549.5540161,551.8174438,795.7814331,791.4846191,-0.003433862,-2.46E-06,-0.005846471,0.001434773,0.007973924,-0.000729654,-0.007989906,0.936589003,0.015706792,-8.578575134,-29.37555313,-96.62203217,-13.90062523,0.484435618,0.000142726,1.811
0.066870082,-279.9595337,-776.4814453,1782.727783,-1586.059692,53.71259689,-134.6470947,-13.53024483,209.5483704,553.3675537,556.1738892,786.1281128,795.6398926,-0.003434976,-6.48E-06,-0.001703692,0.005317621,0.000591447,-0.007677723,0.004810641,0.936576545,-0.012853966,-3.135218859,52.90821457,-96.61911774,-13.89666557,0.504496276,0.00017548,1.821
0.072057653,-1407.67041,1371.534546,1055.67041,1555.726929,72.86885071,-17.47694016,-195.7680206,52.1634407,552.7017212,559.8196411,790.0771484,784.4762573,-0.003416668,-4.78E-06,-0.005350252,0.000952263,0.005939722,-0.001932158,-0.004347975,0.936575294,0.003689755,9.563328743,-64.43744659,-96.61604309,-13.89248753,0.52927798,-0.000299671,1.831
0.077530173,-599.0971069,-1193.195313,-948.8340454,1417.009399,98.89130402,-43.33485413,-161.8970337,76.30780792,562.0004883,552.8567505,793.0459595,787.9139404,-0.003391454,-1.52E-05,-0.003539651,0.0021225,0.004766627,-0.002622893,0.052497014,0.936584592,0.014773512,-4.994957924,6.06798315,-96.61279297,-13.88808155,0.564048111,-0.000831072,1.841
0.083279061,1248.149048,-544.2124634,1483.635864,-1008.624084,18.17592239,-134.3482819,-20.26840591,214.3161926,564.8651123,562.4093018,786.6923828,791.145813,-0.003372012,-2.39E-05,-0.000771596,0.004819298,0.000721972,-0.006414063,0.007387714,0.936556995,-0.018462541,4.256553173,46.44560623,-96.60938263,-13.88345337,0.585776329,-0.000377299,1.851
0.089320488,-1294.644531,1209.774048,-532.9309082,1071.138794,77.90886688,-18.85172272,-217.2661896,37.21756744,556.2102661,561.8636475,792.3262939,787.9720459,-0.003368099,-2.84E-05,-0.004495164,0.000778111,0.005982501,-0.001135597,-0.007358431,0.936557174,0.011769902,1.679743528,-51.96737289,-96.60579681,-13.87859058,0.618362069,-0.000550515,1.861
