#Name,"Car.Distance","Car.FxFL","Car.FxFR","Car.FxRL","Car.FxRR","Car.FyFL","Car.FyFR","Car.FyRL","Car.FyRR","Car.FzFL","Car.FzFR","Car.FzRL","Car.FzRR","Car.Pitch","Car.Roll","Car.SlipAngleFL","Car.SlipAngleFR","Car.SlipAngleRL","Car.SlipAngleRR","Car.TrackRadius","Car.Yaw","Car.YawRate","Car.ax","Car.ay","Car.tx","Car.ty","Car.vx","Car.vy","Time"
#Unit,"m","N","N","N","N","N","N","N","N","N","N","N","N","rad","rad","rad","rad","rad","rad","m","rad","rad/s","m/s^2","m/s^2","m","m","m/s","m/s","s"
1.621997378e-010,0.007831318304,0.007831409574,0.009245999157,0.009245936759,-0.0003257690405,0.0003244359395,0.0003268593282,-0.0003292636247,642.0627441,642.0627441,706.2649536,706.2650146,-0.0003790722985,3.387653491e-010,-1.819780437e-009,1.810913197e-009,2.368195196e-009,-2.379340502e-009,2.630611675e-007,0.9365848303,3.762172865e-011,0.0001177954036,1.685462436e-008,-96.65717316,-13.94838238,1.621922081e-007,1.43056799e-011,0.001
4.719211965e-009,0.0007763729664,0.0007766548079,-0.000846224546,-0.0008462643018,0.001056694542,-0.001049702172,-0.001231129165,0.001242652768,642.0696411,642.0696411,706.2580566,706.2581177,-0.0003790532646,2.600940574e-010,-4.148322574e-008,4.119272035e-008,4.386273389e-008,-4.419688437e-008,1.338382731e-006,0.9365848303,-1.267266674e-011,2.743570576e-006,1.267870005e-007,-96.65717316,-13.94838238,4.07208347e-007,4.374092477e-010,0.011
1.045622314e-008,-0.000494979904,-0.0004946971894,-0.0001647026074,-0.000165012636,0.0009054365801,-0.0008871871396,-0.0008379665087,0.0008528209873,642.0776978,642.0776978,706.2503052,706.2503052,-0.0003789970942,1.233891045e-010,-3.380461067e-008,3.334310605e-008,3.007128413e-008,-3.055726694e-008,2.568376658e-006,0.9365848303,-8.938030177e-011,4.257407795e-007,8.125688566e-008,-96.65717316,-13.94838238,5.06944275e-007,1.441242459e-009,0.021
1.723095952e-008,-0.0001246849424,-0.0001247666223,-0.0003720277746,-0.0003724662529,-0.0003226332483,0.0003302271944,0.0004684267333,-0.0004596470972,642.0826416,642.0826416,706.2446289,706.2446289,-0.0003789217735,-1.243356893e-011,3.958678718e-009,-4.295679368e-009,-7.382784162e-009,7.076737862e-009,1.719372563e-006,0.9365848303,-2.605343996e-010,-2.474990879e-007,2.45371421e-008,-96.65717316,-13.94838238,4.148702999e-007,2.544755073e-009,0.031
2.542364308e-008,0.001714215032,0.001716383034,-0.0006582766655,-0.0006585877272,-0.001167642418,0.001171353855,0.00167030585,-0.001671838108,642.0844727,642.0844727,706.2420654,706.2420654,-0.0003788530012,-1.186325205e-010,2.790497966e-008,-2.80209953e-008,-3.937870829e-008,3.935266335e-008,-6.814609037e-007,0.9365848303,-1.336856598e-010,1.075219734e-005,-5.220276478e-008,-96.65717316,-13.94838238,3.202245864e-007,2.914796404e-009,0.041
3.528521818e-008,0.001794035081,0.001797384582,-0.0009204017697,-0.000925230619,-0.001415524515,0.001411973266,0.002142365789,-0.002149481559,642.0836792,642.0836792,706.2420044,706.2420044,-0.0003788085596,-1.788020704e-010,3.294547923e-008,-3.280771921e-008,-4.946708998e-008,4.964814337e-008,7.27747647e-007,0.9365848303,2.000485055e-010,3.558302296e-006,2.651356965e-007,-96.65717316,-13.94838238,4.201826869e-007,2.707833513e-009,0.051
4.563311886e-008,-0.0006209701532,-0.0006222440861,-0.002552362857,-0.002545017051,-0.001222294988,0.001204745029,0.001861560391,-0.001875643269,642.081665,642.081665,706.2428589,706.2428589,-0.0003787931637,-1.337166489e-010,2.502630458e-008,-2.450070014e-008,-3.875084076e-008,3.911720015e-008,1.054326958e-006,0.9365848303,4.2450507e-010,-2.645948916e-005,-1.947142465e-007,-96.65717316,-13.94838238,3.25057016e-007,1.585731435e-009,0.061
5.469721279e-008,-0.001565266401,-0.001567224856,-0.002685491461,-0.002673816634,-0.0008291681297,0.0008099736879,0.001260537771,-0.001274240785,642.0792847,642.0792847,706.2438354,706.2438354,-0.0003788005852,-4.136230247e-011,1.202233069e-008,-1.140057027e-008,-2.006978583e-008,2.046714265e-008,1.520969484e-008,0.9365848303,2.68045891e-010,-3.363882934e-005,-1.433241863e-007,-96.65717316,-13.94838238,3.931161885e-008,3.587196373e-010,0.071
6.218560819e-008,-0.001420554006,-0.001423161128,-0.001941789058,-0.001933098538,-0.0004024759692,0.0003871937515,0.0007208084571,-0.0007327684434,642.0770874,642.0770874,706.244873,706.244873,-0.0003788222966,5.634704855e-011,-1.051637333e-009,1.507121761e-009,-4.264075315e-009,4.610886783e-009,5.988089811e-007,0.9365848303,-5.811583853e-011,-2.639381819e-005,-1.146249105e-007,-96.65717316,-13.94838238,-2.444575955e-007,-7.342983999e-010,0.081
6.878167273e-008,-0.0007495384198,-0.000753225293,-0.001187274815,-0.001181578264,1.366392371e-005,-2.178668183e-005,0.0004043952795,-0.0004123427207,642.0755615,642.0756226,706.2460938,706.2460938,-0.0003788508475,1.422141155e-010,-1.302100827e-008,1.322675747e-008,4.482010763e-009,-4.25155422e-009,1.920256409e-006,0.9365848303,-1.680792866e-010,-1.527640779e-005,-7.947828351e-008,-96.65717316,-13.94838238,-4.380314351e-007,-1.514933068e-009,0.091
7.480359577e-008,-6.804303848e-005,-7.226967136e-005,-0.0004619850079,-0.0004567000724,0.0002958804253,-0.0002966573229,0.0002362599043,-0.0002387451532,642.0748291,642.0748291,706.2473145,706.2473145,-0.0003788802132,2.115027042e-010,-2.025225321e-008,2.027653956e-008,8.712178534e-009,-8.640112625e-009,2.772599828e-006,0.9365848303,-7.695905718e-011,-4.480634743e-006,-3.567321016e-008,-96.65717316,-13.94838238,-5.264625997e-007,-1.86870186e-009,0.101
8.025548977e-008,0.00038594543,0.000382261147,0.0002565699397,0.0002617204154,0.0003817165561,-0.0003811612842,0.000125888866,-0.0001241174905,642.074585,642.074585,706.248291,706.248291,-0.0003789061448,2.592894233e-010,-2.136546762e-008,2.12837179e-008,1.106621639e-008,-1.113933656e-008,2.699406878e-006,0.9365848303,3.080280475e-011,4.522462405e-006,-4.939518572e-009,-96.65717316,-13.94838238,-5.19547541e-007,-1.828333929e-009,0.111
8.515321151e-008,0.0006130158436,0.0006105643115,0.0008444384439,0.000848651689,0.0003181275097,-0.0003163516521,6.651144213e-005,-5.917482849e-005,642.074646,642.074646,706.2489624,706.2489624,-0.0003789261682,2.849339653e-010,-1.810463424e-008,1.797459959e-008,1.198223387e-008,-1.214883838e-008,1.928354777e-006,0.9365848303,9.697788406e-011,1.083542702e-005,1.003248329e-007,-96.65717316,-13.94838238,-4.391862376e-007,-1.504963043e-009,0.121
8.953551178e-008,0.0006852776278,0.0006838803529,0.001213960582,0.001217221376,0.0001797452715,-0.0001782199979,5.707655146e-005,-5.008448352e-005,642.0748291,642.0748291,706.2493286,706.2492676,-0.0003789392067,2.961035861e-010,-1.287584972e-008,1.274427053e-008,1.144938544e-008,-1.162766594e-008,9.760068451e-007,0.9365848303,1.656704461e-011,1.430953944e-005,4.457547931e-008,-96.65717316,-13.94838238,-3.125144303e-007,-1.068065081e-009,0.131
9.35508882e-008,0.000659178535,0.0006619780906,0.001357181696,0.001350762905,2.306916394e-005,-1.423887261e-005,9.595774463e-005,-8.832737512e-005,642.0751343,642.0751953,706.2493286,706.2493286,-0.0003789452894,2.603018912e-010,-7.504025845e-009,7.227999976e-009,9.670048762e-009,-9.865555484e-009,-2.562172199e-007,0.9365848303,-3.438153928e-010,1.528464054e-005,1.42969526e-007,-96.65717316,-13.94838238,-1.654932902e-007,-3.920955505e-010,0.141
9.750394002e-008,0.0005662409822,0.0005701214541,0.001301668468,0.001291305292,-0.0001260971621,0.0001410361583,0.0001637351088,-0.0001564135164,642.0756226,642.0756226,706.2490845,706.2490845,-0.0003789452603,1.854273124e-010,-2.751397776e-009,2.374263897e-009,7.125160462e-009,-7.337468411e-009,4.00429645e-009,0.9365848303,-2.97308983e-010,1.43804973e-005,5.08421536e-008,-96.65717316,-13.94838238,-2.016195921e-008,1.935291927e-010,0.151
1.016700368e-007,0.0004346045607,0.0004378304875,0.001089285826,0.001081137452,-0.0002439879463,0.0002536351967,0.0002442580299,-0.00023922541,642.0761719,642.0761719,706.2487793,706.2487793,-0.0003789407201,1.113847278e-010,6.676870723e-010,-9.692496805e-010,4.434054013e-009,-4.60777283e-009,1.141719466e-007,0.9365848303,-1.80673726e-010,1.169170173e-005,3.977982743e-008,-96.65717316,-13.94838238,1.066902655e-007,8.115252914e-010,0.161
1.061431425e-007,0.000255984196,0.0002594200487,0.000790914055,0.0007846131339,-0.0003300913668,0.0003360831761,0.0003226112749,-0.0003187238472,642.0767212,642.0767212,706.2484131,706.2484131,-0.0003789333568,4.177662036e-011,3.01951264e-009,-3.206810817e-009,2.022053858e-009,-2.134779242e-009,4.102733726e-007,0.9365848303,-9.263261685e-011,8.06648859e-006,5.186987906e-008,-96.65717316,-13.94838238,2.023917602e-007,1.244560899e-009,0.171
1.108272533e-007,4.323667599e-005,4.686794273e-005,0.0004763432662,0.0004708846682,-0.0004045010137,0.0004045090755,0.0003842451843,-0.0003850226058,642.0772705,642.0772705,706.2481079,706.2481079,-0.0003789249167,-1.779829929e-011,4.786302021e-009,-4.863975001e-009,1.783542342e-010,-2.122724496e-010,6.766109095e-007,0.9365848303,-1.260080928e-010,4.003377853e-006,-1.115786219e-008,-96.65717316,-13.94838238,2.599643096e-007,1.466695765e-009,0.181
1.15467792e-007,-0.0001555000199,-0.0001519874641,0.0001846369123,0.0001790352835,-0.0004535315384,0.0004547738645,0.0004307372728,-0.0004331253876,642.0776367,642.0776367,706.2478638,706.2478638,-0.0003789167968,-6.604745917e-011,5.906067635e-009,-5.908385781e-009,-1.141541084e-009,1.182594245e-009,7.796012369e-007,0.9365848303,-3.991840886e-011,2.895347961e-007,-1.476519262e-008,-96.65717316,-13.94838238,2.790740723e-007,1.465573551e-009,0.191
1.19780802e-007,-0.0003046384954,-0.0003015763068,-3.331503467e-005,-3.779831968e-005,-0.0004835646541,0.0004831175029,0.0004554696789,-0.0004576691717,642.0778809,642.0778198,706.2478027,706.2478027,-0.0003789100447,-9.921152788e-011,6.244512463e-009,-6.196480662e-009,-1.746355283e-009,1.838123653e-009,7.087598419e-007,0.9365848303,-1.311661196e-010,-2.516909944e-006,-2.413550249e-008,-96.65717316,-13.94838238,2.661043652e-007,1.27329447e-009,0.201
1.235515766e-007,-0.0003912063257,-0.0003888052015,-0.0001525639673,-0.000155512942,-0.0004874335427,0.0004809633829,0.0004520408402,-0.0004576984793,642.0778809,642.0778809,706.2478027,706.2478027,-0.0003789052425,-1.198333932e-010,5.8353673e-009,-5.762796462e-009,-1.563369878e-009,1.67205727e-009,5.392744242e-007,0.9365848303,-1.093190052e-010,-4.08914093e-006,-5.207938258e-008,-96.65717316,-13.94838238,2.321220762e-007,1.012767537e-009,0.211
1.266649075e-007,-0.0004147670406,-0.0004133159819,-0.0001887318795,-0.0001902534859,-0.0004703768063,0.0004668666224,0.0004299024877,-0.0004352782271,642.0778198,642.0778198,706.2478027,706.2478027,-0.0003789025068,-1.293549434e-010,4.892568573e-009,-4.813744958e-009,-8.936920093e-010,9.94336391e-010,3.564541942e-007,0.9365848303,-1.790412762e-012,-4.575753792e-006,-8.499959137e-008,-96.65717316,-13.94838238,1.887200085e-007,7.313663564e-010,0.221
1.290918365e-007,-0.0003843261802,-0.0003836065298,-0.000174668734,-0.0001754788827,-0.0004378424201,0.0004335262929,0.0004018534964,-0.0004064142704,642.0776978,642.0776978,706.2479248,706.2479248,-0.0003789015755,-1.323793297e-010,3.601739351e-009,-3.527029779e-009,-1.080564735e-010,1.849372738e-010,2.1096659e-007,0.9365848303,1.913630886e-011,-4.287618594e-006,-3.617594757e-008,-96.65717316,-13.94838238,1.451874567e-007,4.449232649e-010,0.231
1.308695254e-007,-0.0003136612067,-0.0003132490965,-0.0001398351887,-0.0001401886257,-0.0004016685998,0.0004011213314,0.0003818335535,-0.0003825350432,642.0775146,642.0775146,706.2480469,706.2480469,-0.0003789019829,-1.331824928e-010,2.233668361e-009,-2.187279025e-009,4.446895352e-010,-3.964959472e-010,1.156149807e-007,0.9365848303,-2.824857709e-011,-3.46930392e-006,1.054338394e-009,-96.65717316,-13.94838238,1.07484091e-007,2.383877817e-010,0.241
1.320890627e-007,-0.0002224056516,-0.0002219536836,-9.006424807e-005,-8.996534598e-005,-0.0003649558639,0.0003634264576,0.0003700626548,-0.00037047558,642.0773315,642.0773315,706.2481079,706.2481079,-0.0003789032344,-1.323256088e-010,9.984716387e-010,-9.797825884e-010,7.860193052e-010,-7.461929408e-010,6.271176289e-008,0.9365848303,-7.420946496e-011,-2.382519369e-006,-3.448807462e-009,-96.65717316,-13.94838238,7.916728606e-008,1.184833343e-010,0.251
1.328887848e-007,-0.0001292144734,-0.0001289194333,-3.446534174e-005,-3.422792361e-005,-0.0003355400113,0.0003354138753,0.0003614011221,-0.0003622582881,642.0772095,642.0772095,706.24823,706.24823,-0.0003789047478,-1.309555658e-010,2.097377653e-011,-1.703144049e-011,9.534225631e-010,-9.285672231e-010,3.823081585e-008,0.9365848303,-4.670350565e-011,-1.23402026e-006,-1.490145962e-008,-96.65717316,-13.94838238,6.182211365e-008,2.477313667e-011,0.261
1.334708998e-007,-4.562822869e-005,-4.558037836e-005,1.083153438e-005,1.100695408e-005,-0.0003108096425,0.0003100169124,0.0003576853778,-0.0003578769974,642.0770874,642.0770874,706.24823,706.24823,-0.0003789062321,-1.300052982e-010,-7.231124588e-010,7.188553086e-010,9.485258134e-010,-9.429698133e-010,3.018476136e-008,0.9365848303,-1.042142327e-011,-2.538896808e-007,-1.822109041e-008,-96.65717316,-13.94838238,5.494435484e-008,-2.487375063e-011,0.271
1.340836772e-007,1.903938573e-005,1.88223421e-005,3.550414112e-005,3.550459587e-005,-0.000293802208,0.0002939478145,0.000363295956,-0.0003630041901,642.0770874,642.0770264,706.24823,706.24823,-0.0003789074544,-1.291869944e-010,-1.254745308e-009,1.250193726e-009,7.858328432e-010,-7.942936309e-010,3.153822092e-008,0.9365848303,5.063196043e-011,4.235001825e-007,-1.342444733e-008,-96.65717316,-13.94838238,5.617336996e-008,-4.034266671e-011,0.281
1.34867599e-007,5.733116632e-005,5.720612171e-005,4.063205051e-005,4.065393659e-005,-0.0002800274233,0.0002813638421,0.0003712049802,-0.0003708933946,642.0770264,642.0770264,706.24823,706.24823,-0.0003789082402,-1.285213325e-010,-1.480342848e-009,1.468102639e-009,4.997449121e-010,-5.087802957e-010,3.862997033e-008,0.9365848303,5.351517406e-012,7.475676398e-007,1.407062022e-008,-96.65717316,-13.94838238,6.217610604e-008,-6.313537193e-011,0.291
1.358386453e-007,7.377935981e-005,7.369336527e-005,3.072798063e-005,3.079976887e-005,-0.0002818509529,0.0002793704916,0.0003844459134,-0.000383333012,642.0770264,642.0770264,706.2481689,706.2481689,-0.0003789086186,-1.273597061e-010,-1.452875376e-009,1.441551434e-009,1.441979036e-010,-1.480611606e-010,4.877312421e-008,0.9365848303,-2.307157417e-011,8.04860008e-007,7.241369815e-008,-96.65717316,-13.94838238,6.986731194e-008,-5.844081469e-011,0.301
1.36964056e-007,7.789953088e-005,7.796768477e-005,9.130912076e-006,9.253846656e-006,-0.0002841134556,0.0002830231097,0.0003994280996,-0.0003970274993,642.0770264,642.0770264,706.2481079,706.2481079,-0.0003789086477,-1.277108974e-010,-1.322997489e-009,1.297581376e-009,-2.619131023e-010,2.490466722e-010,5.928929525e-008,0.9365848303,-5.207957676e-011,6.631926794e-007,6.398563812e-008,-96.65717316,-13.94838238,7.703345517e-008,-9.820989161e-011,0.311
1.381948619e-007,7.761755842e-005,7.791932148e-005,-1.82855365e-005,-1.801440158e-005,-0.0002846784773,0.0002858955122,0.0004137107753,-0.0004132171453,642.0770264,642.0769653,706.2480469,706.2480469,-0.0003789083858,-1.285841711e-010,-1.185985421e-009,1.147942186e-009,-6.760776938e-010,6.617633108e-010,6.788844331e-008,0.9365848303,-9.25793886e-011,4.681124608e-007,-6.849814049e-009,-96.65717316,-13.94838238,8.243056726e-008,-1.140769909e-010,0.321
1.39473103e-007,7.465085946e-005,7.486153481e-005,-3.963049312e-005,-3.938681766e-005,-0.0002881402906,0.0002881706459,0.0004259989364,-0.0004255374661,642.0769653,642.0769653,706.2479858,706.2479858,-0.0003789079783,-1.284212736e-010,-1.077772427e-009,1.046765119e-009,-9.759432151e-010,9.625613639e-010,7.369855126e-008,0.9365848303,-2.365849357e-011,2.825561864e-007,-7.548746517e-009,-96.65717316,-13.94838238,8.588394707e-008,-1.010525552e-010,0.331
1.407448029e-007,6.824895536e-005,6.853050581e-005,-5.185206464e-005,-5.151627192e-005,-0.0002903849527,0.0002892830234,0.0004327068164,-0.0004316586419,642.0769653,642.0769653,706.2479248,706.2479248,-0.0003789075417,-1.269505612e-010,-1.007606665e-009,9.818437174e-010,-1.114272896e-009,1.111935211e-009,7.696963422e-008,0.9365848303,-1.03252018e-010,1.391751994e-007,-1.114065551e-008,-96.65717316,-13.94838238,8.776633109e-008,-8.496124637e-011,0.341
1.419676913e-007,5.86217684e-005,5.886279905e-005,-5.684458301e-005,-5.642886754e-005,-0.0002900584077,0.0002886999864,0.0004349079391,-0.0004341867752,642.0769653,642.0769653,706.2478638,706.2478638,-0.0003789071052,-1.243112141e-010,-9.576065496e-010,9.394971467e-010,-1.122192672e-009,1.129200955e-009,7.814819725e-008,0.9365848303,-5.006091028e-011,1.961772256e-008,6.349024062e-008,-96.65717316,-13.94838238,8.843170463e-008,-7.490835036e-011,0.351
1.431129613e-007,4.668333713e-005,4.68906801e-005,-5.677177614e-005,-5.642952601e-005,-0.0002891300828,0.0002901291882,0.0004344170447,-0.0004340544692,642.0769653,642.0769653,706.2478638,706.2478638,-0.0003789067268,-1.240981762e-010,-9.26052901e-010,8.948217167e-010,-1.052321119e-009,1.041807307e-009,7.758796272e-008,0.9365848303,-4.307457863e-011,-7.439334127e-008,-6.68715483e-009,-96.65717316,-13.94838238,8.810922481e-008,-1.130872618e-010,0.361
1.441657151e-007,3.396072862e-005,3.40661245e-005,-5.295076335e-005,-5.263859202e-005,-0.0002903862041,0.0002912344353,0.0004315814294,-0.0004293666279,642.0769653,642.0769653,706.2478638,706.2478638,-0.000378906494,-1.235231223e-010,-8.867880319e-010,8.602725754e-010,-9.147248514e-010,9.058712669e-010,7.566262639e-008,0.9365848303,-2.38952174e-011,-1.471522069e-007,3.361319756e-008,-96.65717316,-13.94838238,8.700368426e-008,-6.107335471e-011,0.371
1.45125943e-007,2.185914491e-005,2.190793566e-005,-4.592302867e-005,-4.568996519e-005,-0.0002898522071,0.0002903459826,0.0004255987005,-0.0004274686798,642.0769653,642.0769653,706.2478638,706.2478638,-0.0003789063485,-1.220540197e-010,-8.425382614e-010,8.271028862e-010,-7.412400693e-010,7.403576086e-010,7.285159143e-008,0.9365848303,2.735227192e-012,-1.872162159e-007,-2.362804175e-008,-96.65717316,-13.94838238,8.536630247e-008,-3.94195579e-011,0.381
1.460083248e-007,1.121272999e-005,1.115059695e-005,-3.567111708e-005,-3.563894643e-005,-0.0002930984192,0.0002917146485,0.0004220406699,-0.0004206665326,642.0769653,642.0769653,706.2478638,706.2478638,-0.0003789063776,-1.222794366e-010,-8.020064612e-010,7.843201089e-010,-5.555024774e-010,5.431117778e-010,6.974942579e-008,0.9365848303,1.373261227e-011,-1.937441141e-007,5.067927589e-008,-96.65717316,-13.94838238,8.352292724e-008,-5.873629361e-011,0.391
1.468400109e-007,2.345157327e-006,2.229971415e-006,-2.347394548e-005,-2.359056998e-005,-0.0002917042584,0.0002913513745,0.0004164210986,-0.0004138969525,642.0769653,642.0769653,706.2478638,706.2478638,-0.0003789064649,-1.233661923e-010,-7.5403217e-010,7.34356187e-010,-3.651555724e-010,3.468101084e-010,6.688696885e-008,0.9365848303,-3.54718234e-011,-1.756940833e-007,2.539467481e-008,-96.65717316,-13.94838238,8.178520972e-008,-3.246832664e-011,0.401
1.476532315e-007,-4.653982614e-006,-4.377282039e-006,-1.075415548e-005,-1.055980101e-005,-0.0002944140579,0.0002952334471,0.000409907545,-0.0004099915386,642.0769653,642.0769653,706.2478638,706.2478638,-0.0003789066395,-1.235754277e-010,-6.999392177e-010,6.743263725e-010,-1.762781171e-010,1.787139464e-010,6.465750602e-008,0.9365848303,-7.726552037e-011,-1.3417133e-007,4.897048544e-009,-96.65717316,-13.94838238,8.040520783e-008,-1.431513241e-011,0.411
1.484752374e-007,-8.88714294e-006,-8.556783541e-006,5.087740078e-007,8.148804227e-007,-0.0002976016258,0.0002972774964,0.0004052338481,-0.0004055759055,642.0769653,642.0769653,706.2479248,706.2479248,-0.0003789068724,-1.231087732e-010,-6.308175093e-010,6.104313721e-010,-4.075201981e-011,5.067073844e-011,6.324099644e-008,0.9365848303,-5.960004018e-011,-6.12373583e-008,-3.635487289e-008,-96.65717316,-13.94838238,7.951500436e-008,1.143198557e-011,0.421
1.493219768e-007,-1.098100074e-005,-1.079396498e-005,1.146920749e-005,1.167758728e-005,-0.0002979239216,0.0002993040544,0.0004007183888,-0.0003999791224,642.0769653,642.0769653,706.2479248,706.2479248,-0.0003789070761,-1.223997154e-010,-5.59612412e-010,5.470835451e-010,6.279397835e-011,-5.677450524e-011,6.279771014e-008,0.9365848303,-1.455585652e-011,-3.040196761e-009,-1.92015488e-008,-96.65717316,-13.94838238,7.923235046e-008,3.960319486e-012,0.431
1.501979799e-007,-1.189178784e-005,-1.179333867e-005,2.115947791e-005,2.132621012e-005,-0.0003008925123,0.0003011425142,0.0003958707093,-0.0003960955655,642.0769653,642.0769653,706.2479858,706.2479858,-0.0003789072507,-1.216720613e-010,-4.974305412e-010,4.896159589e-010,1.483878714e-010,-1.418679341e-010,6.342025927e-008,0.9365848303,-3.38169423e-012,6.848805612e-008,-1.476564648e-009,-96.65717316,-13.94838238,7.962189841e-008,1.723754993e-011,0.441
1.510992198e-007,-1.273138696e-005,-1.261902162e-005,2.841385503e-005,2.855537969e-005,-0.0003007586056,0.0003011423978,0.0003928932128,-0.0003930249077,642.0770264,642.0770264,706.2479858,706.2479858,-0.0003789073962,-1.218082163e-010,-4.40296577e-010,4.282999233e-010,2.071421923e-010,-2.033227336e-010,6.496493654e-008,0.9365848303,-2.73095626e-011,1.142818036e-007,-4.652580099e-009,-96.65717316,-13.94838238,8.05847975e-008,1.254520446e-011,0.451
1.520165056e-007,-1.371218514e-005,-1.353643984e-005,3.225375258e-005,3.238101999e-005,-0.000302361761,0.0003060456656,0.0003929702798,-0.0003918577859,642.0770264,642.0770264,706.2479858,706.2479858,-0.0003789074835,-1.234392588e-010,-3.901846068e-010,3.668663429e-010,2.324936771e-010,-2.371666752e-010,6.709348099e-008,0.9365848303,-1.150044209e-011,1.428544039e-007,3.534906412e-008,-96.65717316,-13.94838238,8.189461198e-008,-1.774175251e-011,0.461
1.529391661e-007,-1.466533467e-005,-1.455267102e-005,3.265667328e-005,3.269516674e-005,-0.0003058098955,0.0003075508284,0.0003901796881,-0.0003898565774,642.0770264,642.0770264,706.2479858,706.2480469,-0.0003789075126,-1.253799009e-010,-3.437194418e-010,3.198170895e-010,2.304575697e-010,-2.398268251e-010,6.93877098e-008,0.9365848303,1.348236106e-011,1.339032281e-007,1.646970382e-008,-96.65717316,-13.94838238,8.328428436e-008,-2.353990917e-012,0.471
1.538577779e-007,-1.520041405e-005,-1.528450412e-005,3.002086305e-005,2.986059008e-005,-0.0003089322709,0.0003093916748,0.000391135487,-0.0003907152859,642.0770264,642.0770264,706.2480469,706.2480469,-0.0003789075126,-1.265839239e-010,-3.070595722e-010,2.926988929e-010,2.027415458e-010,-2.149260214e-010,7.145484204e-008,0.9365848303,7.729012569e-011,1.090466668e-007,2.434704705e-008,-96.65717316,-13.94838238,8.45177226e-008,2.008066022e-012,0.481
1.547658211e-007,-1.523785886e-005,-1.53396486e-005,2.524384763e-005,2.503376891e-005,-0.0003115090658,0.0003096752043,0.0003924717603,-0.0003905450285,642.0770874,642.0770264,706.2480469,706.2480469,-0.0003789074544,-1.258996518e-010,-2.870837179e-010,2.838362045e-010,1.639930552e-010,-1.64225647e-010,7.30136378e-008,0.9365848303,-2.549344763e-011,7.914843536e-008,6.925328222e-008,-96.65717316,-13.94838238,8.543704411e-008,9.613640613e-012,0.491
1.556601968e-007,-1.460818385e-005,-1.449621413e-005,1.915339453e-005,1.916142719e-005,-0.0003102983464,0.0003087253426,0.0003924016783,-0.0003925852943,642.0770874,642.0770874,706.2480469,706.2480469,-0.0003789073671,-1.251034554e-010,-2.946896616e-010,2.831031798e-010,1.103872549e-010,-1.05062993e-010,7.393315826e-008,0.9365848303,-3.982938285e-011,3.322968212e-008,-1.558733231e-008,-96.65717316,-13.94838238,8.597597656e-008,-1.591402357e-011,0.501
1.5654081e-007,-1.314655219e-005,-1.280177457e-005,1.276580497e-005,1.304597936e-005,-0.0003093939158,0.0003112028353,0.0003944738419,-0.0003946455254,642.0770874,642.0770874,706.2479858,706.2480469,-0.0003789073089,-1.250053672e-010,-3.229609358e-010,2.96655811e-010,5.029963945e-011,-4.532128839e-011,7.421919435e-008,0.9365848303,-5.348184742e-011,2.946464628e-009,-1.159515861e-008,-96.65717316,-13.94838238,8.614477309e-008,-3.818575664e-011,0.511
1.574096243e-007,-1.086589418e-005,-1.07402393e-005,6.917814062e-006,7.107444162e-006,-0.0003094120475,0.000308085524,0.0003965827636,-0.0003965379437,642.0770874,642.0770874,706.2479858,706.2479858,-0.0003789072216,-1.244977177e-010,-3.52633589e-010,3.335277332e-010,-1.085397397e-011,9.554248018e-012,7.396601376e-008,0.9365848303,-1.405989474e-011,-3.489014944e-008,2.277551658e-008,-96.65717316,-13.94838238,8.600023449e-008,-3.307994156e-011,0.521
1.582694583e-007,-8.243902812e-006,-8.071771845e-006,1.629874305e-006,1.801294275e-006,-0.0003088636149,0.0003078622103,0.0003985944495,-0.0004001584603,642.0770874,642.0770874,706.2479858,706.2479858,-0.0003789071343,-1.253726151e-010,-3.999262033e-010,3.708403029e-010,-6.918779438e-011,5.890254257e-011,7.330868357e-008,0.9365848303,-5.526216637e-011,-4.044214919e-008,-4.751946392e-008,-96.65717316,-13.94838238,8.561949727e-008,-6.016805804e-011,0.531
1.591229296e-007,-5.338467417e-006,-5.174913895e-006,-2.861871963e-006,-2.620964096e-006,-0.000306590664,0.00030719192,0.0003990556288,-0.0004001394555,642.0770264,642.0770264,706.2479858,706.2479858,-0.0003789070761,-1.245374637e-010,-4.408276799e-010,4.220324368e-010,-1.104813394e-010,1.139897066e-010,7.238877942e-008,0.9365848303,-2.63954518e-011,-6.331594449e-008,-2.191976201e-008,-96.65717316,-13.94838238,8.508256855e-008,4.637393984e-013,0.541
1.599718851e-007,-2.035835223e-006,-2.167991624e-006,-6.558720997e-006,-6.541153653e-006,-0.0003054317203,0.0003074046399,0.0004016561143,-0.0004027048417,642.0770264,642.0770264,706.2479858,706.2479858,-0.000378907047,-1.226492519e-010,-4.770542295e-010,4.75590678e-010,-1.579686798e-010,1.605272026e-010,7.133306923e-008,0.9365848303,4.264417985e-011,-6.150735743e-008,-3.979916841e-008,-96.65717316,-13.94838238,8.446144761e-008,-7.824297633e-012,0.551
1.60817338e-007,1.107505682e-006,9.380690926e-007,-9.053524082e-006,-9.185404451e-006,-0.0003057900467,0.0003043268516,0.0004032592406,-0.0004037173057,642.0770264,642.0770264,706.2479858,706.2479858,-0.0003789069888,-1.233130403e-010,-5.26060806e-010,5.115911028e-010,-2.04455966e-010,1.898861346e-010,7.02830576e-008,0.9365848303,1.822398135e-011,-5.367099121e-008,2.028778745e-008,-96.65717316,-13.94838238,8.383868533e-008,-4.701343134e-011,0.561
1.616598567e-007,3.903962806e-006,3.891702363e-006,-1.051424988e-005,-1.064242497e-005,-0.0003041477175,0.0003032950044,0.0004042955406,-0.0004034563608,642.0770264,642.0770264,706.2479858,706.2479858,-0.0003789069888,-1.259301968e-010,-5.773984624e-010,5.438453576e-010,-2.345062478e-010,2.101717134e-010,6.937577979e-008,0.9365848303,-3.88938326e-011,-4.349189808e-008,-1.561969754e-008,-96.65717316,-13.94838238,8.329658385e-008,-7.117124945e-011,0.571
1.624997766e-007,6.068927178e-006,6.118319561e-006,-1.117997908e-005,-1.127202086e-005,-0.0002991471265,0.0003020519216,0.000404620514,-0.0004030909331,642.0770264,642.0770264,706.2479858,706.2479858,-0.0003789069597,-1.273477712e-010,-6.129318719e-010,5.82702997e-010,-2.439296265e-010,2.274953004e-010,6.86617696e-008,0.9365848303,1.487715159e-011,-3.875981136e-008,-3.286247496e-009,-96.65717316,-13.94838238,8.286730946e-008,-3.0323178e-011,0.581
1.633370099e-007,7.230879419e-006,7.241756521e-006,-1.117301417e-005,-1.115926534e-005,-0.0003027038183,0.0003027381899,0.0004061408399,-0.0004066006513,642.0770264,642.0770264,706.2479858,706.2479858,-0.0003789069597,-1.24496205e-010,-6.225326366e-010,6.214582182e-010,-2.323777837e-010,2.4571159e-010,6.811620068e-008,0.9365848303,-1.426644133e-011,-1.907896596e-008,-1.766741953e-008,-96.65717316,-13.94838238,8.253755368e-008,4.256550667e-011,0.591
1.641712022e-007,7.382046988e-006,7.692426152e-006,-1.095041353e-005,-1.064882599e-005,-0.0002992239024,0.0002986074251,0.0004039927444,-0.0004046978429,642.0770264,642.0770264,706.2479858,706.2479858,-0.0003789069597,-1.221570761e-010,-6.40864084e-010,6.298019883e-010,-2.257263126e-010,2.461719439e-010,6.768424754e-008,0.9365848303,-1.084091358e-010,-3.040106122e-008,-4.622951977e-008,-96.65717316,-13.94838238,8.227529946e-008,-9.971590394e-012,0.601
1.650017979e-007,7.181666206e-006,7.449698842e-006,-1.039565723e-005,-1.001695182e-005,-0.0002999058634,0.0003006835468,0.0004060289648,-0.000407119107,642.0770264,642.0770264,706.2479858,706.2479858,-0.0003789069888,-1.220325646e-010,-6.497865024e-010,6.25476726e-010,-2.291343226e-010,2.330268756e-010,6.730290636e-008,0.9365848303,-2.443532182e-011,-2.358669882e-008,-3.486486833e-008,-96.65717316,-13.94838238,8.204280988e-008,-2.785377831e-011,0.611
1.658284372e-007,6.828399364e-006,7.055173683e-006,-9.477525964e-006,-9.122183656e-006,-0.0003018264251,0.0003007782507,0.0004058643535,-0.0004057310289,642.0770264,642.0770264,706.2479858,706.2479858,-0.0003789069888,-1.227407898e-010,-6.499588645e-010,6.225160387e-010,-2.2436078e-010,2.204944144e-010,6.69810305e-008,0.9365848303,-4.46043584e-011,-7.462130469e-009,6.334182245e-008,-96.65717316,-13.94838238,8.184582612e-008,-3.761078948e-011,0.621
1.666512638e-007,6.309480341e-006,6.606799161e-006,-8.232537766e-006,-7.888349501e-006,-0.0002999941935,0.000299025327,0.0004054279998,-0.0004053525336,642.0770264,642.0770264,706.2479858,706.2479858,-0.0003789070179,-1.240185732e-010,-6.470249336e-010,6.167387157e-010,-2.117076653e-010,2.095187357e-010,6.673845832e-008,0.9365848303,-6.35792391e-011,-1.197850086e-008,-2.11135518e-008,-96.65717316,-13.94838238,8.169678267e-008,1.218471851e-011,0.631
1.674709087e-007,5.660041097e-006,5.859164958e-006,-6.559117992e-006,-6.343939276e-006,-0.000298534258,0.0003010143118,0.0004047352704,-0.0004039735068,642.0770264,642.0770264,706.2479858,706.2479858,-0.000378907047,-1.238208841e-010,-6.320888812e-010,6.151369414e-010,-1.916200532e-010,1.973161357e-010,6.659951879e-008,0.9365848303,-2.167179977e-011,-8.638338045e-009,-2.148967937e-008,-96.65717316,-13.94838238,8.161089227e-008,3.428191064e-011,0.641
1.682884071e-007,4.861858088e-006,4.928818271e-006,-4.846905995e-006,-4.792794698e-006,-0.0003000193392,0.0002993674134,0.0004041976936,-0.0004043432127,642.0770264,642.0770264,706.2479858,706.2479858,-0.0003789070761,-1.235211933e-010,-6.159993626e-010,6.060452695e-010,-1.7603137e-010,1.802516886e-010,6.656046025e-008,0.9365848303,9.246508073e-012,-5.92612226e-009,2.790114628e-008,-96.65717316,-13.94838238,8.158612275e-008,1.535971003e-011,0.651
1.691048981e-007,3.973296771e-006,3.988720437e-006,-3.152218596e-006,-3.22863184e-006,-0.0003013334644,0.0003000198631,0.0004038823827,-0.0004035633756,642.0770264,642.0770264,706.2479858,706.2479858,-0.0003789071052,-1.249837595e-010,-6.051609769e-010,5.856505836e-010,-1.668880867e-010,1.576375835e-010,6.661122853e-008,0.9365848303,-8.237258098e-012,6.534556451e-009,3.208617372e-008,-96.65717316,-13.94838238,8.161639897e-008,-1.959219245e-011,0.661
1.699215248e-007,3.132762231e-006,3.001558753e-006,-1.497965968e-006,-1.735007118e-006,-0.0002999027784,0.0003005782492,0.0004025614471,-0.0004028622352,642.0770264,642.0770264,706.2479858,706.2479858,-0.0003789071052,-1.267817795e-010,-5.893108224e-010,5.681958792e-010,-1.563695284e-010,1.373065273e-010,6.674783748e-008,0.9365848303,6.074651199e-011,2.671682653e-009,-1.296080576e-008,-96.65717316,-13.94838238,8.169927668e-008,-2.653054512e-011,0.671
1.70739286e-007,2.275642373e-006,2.046248483e-006,-9.663641265e-008,-4.595822247e-007,-0.0003004995815,0.0003019703145,0.0004030356358,-0.0004014132428,642.0770264,642.0770264,706.2479858,706.2479858,-0.0003789071343,-1.276163897e-010,-5.706556339e-010,5.550135906e-010,-1.423349077e-010,1.230744673e-010,6.695334775e-008,0.9365848303,5.62896188e-011,1.192979671e-008,3.293758866e-008,-96.65717316,-13.94838238,8.182426825e-008,-3.20784406e-011,0.681
1.715587948e-007,1.444227109e-006,1.11329382e-006,8.556883131e-007,4.34206413e-007,-0.0003012121015,0.0003013765963,0.0004025869712,-0.0004040776694,642.0770264,642.0770264,706.2479858,706.2479858,-0.0003789071343,-1.268084387e-010,-5.483830612e-010,5.432408412e-010,-1.293249119e-010,1.171799741e-010,6.718440204e-008,0.9365848303,5.716702806e-011,1.787731208e-008,-4.613343663e-008,-96.65717316,-13.94838238,8.196478518e-008,-2.563448238e-011,0.691
1.7238027e-007,7.46995056e-007,3.701801745e-007,1.598047561e-006,1.183048994e-006,-0.0003035222471,0.000301794702,0.0004023172078,-0.0004017897591,642.0770264,642.0770264,706.2479858,706.2479858,-0.0003789071343,-1.261304394e-010,-5.367422617e-010,5.301710182e-010,-1.215015727e-010,1.062074803e-010,6.742575209e-008,0.9365848303,6.883447284e-011,6.696757371e-009,1.206834965e-009,-96.65717316,-13.94838238,8.211146252e-008,-4.264887402e-011,0.701
1.73203632e-007,-3.518084668e-008,-2.527978324e-007,1.921935109e-006,1.64794551e-006,-0.0003037087154,0.0003042071767,0.0004020799825,-0.0004034597951,642.0770264,642.0770264,706.2479858,706.2479858,-0.0003789071343,-1.255714421e-010,-5.309134243e-010,5.153315552e-010,-1.146233317e-010,9.926368755e-011,6.764767591e-008,0.9365848303,2.621351573e-011,1.646707304e-008,-2.953447797e-008,-96.65717316,-13.94838238,8.224620274e-008,-7.44337994e-011,0.711
1.740284769e-007,-7.950527561e-007,-8.683210808e-007,1.975882697e-006,1.867595984e-006,-0.0003019014257,0.000304651534,0.0004019247717,-0.0004013433645,642.0770264,642.0770264,706.2479858,706.2479858,-0.0003789071343,-1.255033438e-010,-5.268355752e-010,5.014413884e-010,-1.101222585e-010,9.326278638e-011,6.781810669e-008,0.9365848303,6.050160373e-012,1.479177669e-008,-1.648800985e-009,-96.65717316,-13.94838238,8.234963644e-008,-8.13439871e-011,0.721
1.748541525e-007,-1.451374374e-006,-1.315278155e-006,1.771903612e-006,1.951289732e-006,-0.0003022287274,0.0003028887731,0.0004015105369,-0.0003996612795,642.0770264,642.0770264,706.2479858,706.2479858,-0.0003789071343,-1.236904329e-010,-5.166042594e-010,4.959719302e-010,-9.811036705e-011,1.001242353e-010,6.791304941e-008,0.9365848303,-5.502428374e-011,5.613766119e-010,3.665110526e-008,-96.65717316,-13.94838238,8.24073183e-008,-3.27685136e-011,0.731
1.756800104e-007,-1.974002771e-006,-1.363306183e-006,1.342341875e-006,1.969097639e-006,-0.0003021453158,0.000305158057,0.0004031517892,-0.000399869954,642.0770264,642.0770264,706.2479858,706.2479858,-0.0003789071343,-1.221757973e-010,-5.192117292e-010,4.856087199e-010,-9.033206821e-011,1.061746524e-010,6.794213192e-008,0.9365848303,-1.845284897e-010,3.224113199e-009,2.46763463e-008,-96.65717316,-13.94838238,8.242511029e-008,-3.378671995e-011,0.741
1.7650555e-007,-1.879381557e-006,-1.64047151e-006,1.068645361e-006,1.545546979e-006,-0.0003043278411,0.0003049360821,0.0004004644579,-0.0004016537569,642.0770264,642.0770264,706.2479858,706.2479858,-0.0003789071052,-1.20740154e-010,-5.115599611e-010,4.925473918e-010,-9.556211378e-011,1.022632048e-010,6.791646001e-008,0.9365848303,5.959580746e-011,-2.518769915e-010,2.304070712e-008,-96.65717316,-13.94838238,8.240977678e-008,-2.366899732e-011,0.751
1.773303695e-007,-1.503797762e-006,-1.844001645e-006,8.7115518e-007,6.964642125e-007,-0.0003042730968,0.0003029566433,0.0004003133799,-0.0004010903067,642.0770264,642.0770264,706.2479858,706.2479858,-0.0003789071052,-1.229421426e-010,-5.132711478e-010,4.938507381e-010,-1.190329224e-010,8.592433709e-011,6.783508866e-008,0.9365848303,1.084667078e-010,-7.650188927e-009,2.199071858e-008,-96.65717316,-13.94838238,8.236067117e-008,-6.025468319e-011,0.761
1.781541905e-007,-1.282892072e-006,-1.57672082e-006,5.061102684e-007,1.315638798e-007,-0.0003019758733,0.0003050498781,0.0004006785748,-0.0004010044213,642.0770264,642.0770264,706.2479858,706.2479858,-0.0003789071052,-1.272189853e-010,-5.245082701e-010,4.889897931e-010,-1.296231039e-010,8.343377378e-011,6.771342953e-008,0.9365848303,1.037649341e-010,-9.524028677e-009,-7.109035138e-009,-96.65717316,-13.94838238,8.228709447e-008,-7.401870783e-011,0.771
1.789769114e-007,-8.694001963e-007,-1.163602178e-006,4.697420408e-008,-4.765027199e-007,-0.0003019620781,0.0003028089122,0.0004006885574,-0.0003994738217,642.0770264,642.0770264,706.2479858,706.2479858,-0.0003789071052,-1.294857832e-010,-5.249395918e-010,4.984682112e-010,-1.299126084e-010,9.468816009e-011,6.757133519e-008,0.9365848303,5.457900451e-011,-1.641069147e-008,4.082627569e-008,-96.65717316,-13.94838238,8.220106196e-008,-5.057585253e-011,0.781
1.797985532e-007,-4.51706768e-007,-6.201485689e-007,-4.687940987e-007,-8.959600564e-007,-0.0003058013681,0.0003043921315,0.0004005426017,-0.0004009750555,642.0770264,642.0770264,706.2479858,706.2479858,-0.0003789070761,-1.292241592e-010,-5.257072e-010,5.095509015e-010,-1.256797444e-010,1.103676942e-010,6.742404679e-008,0.9365848303,1.192799939e-011,-1.153935969e-008,-1.152297546e-008,-96.65717316,-13.94838238,8.211174674e-008,-3.084214134e-011,0.791
1.806192185e-007,-1.805314298e-007,8.418777497e-008,-1.197384677e-006,-1.163470984e-006,-0.0003035494883,0.0003042473109,0.0004003704526,-0.0004005595401,642.0770264,642.0770264,706.2479858,706.2479858,-0.0003789070761,-1.270147598e-010,-5.358904986e-010,5.140770587e-010,-1.206881123e-010,1.261715038e-010,6.728015478e-008,0.9365848303,-8.299931575e-011,-1.848171749e-008,-1.174656106e-008,-96.65717316,-13.94838238,8.202434998e-008,-6.439494077e-011,0.801
1.814389446e-007,1.422934588e-007,5.86392332e-007,-1.920642717e-006,-1.490981049e-006,-0.000303289271,0.0003041575837,0.0004033559526,-0.0004018664185,642.0770264,642.0770264,706.2479858,706.2479858,-0.0003789070761,-1.24270913e-010,-5.440249917e-010,5.168825923e-010,-1.239040259e-010,1.362154556e-010,6.71233451e-008,0.9365848303,-1.194279953e-010,-6.734035551e-009,5.440567552e-009,-96.65717316,-13.94838238,8.192895251e-008,-5.706519285e-011,0.811
1.822577208e-007,6.259853649e-007,9.501987961e-007,-2.372585186e-006,-1.810807362e-006,-0.0003051278181,0.0003039257135,0.0004026389797,-0.0004029823176,642.0770264,642.0770264,706.2479858,706.2479858,-0.0003789070761,-1.213391054e-010,-5.467619135e-010,5.241302947e-010,-1.308326503e-010,1.407883393e-010,6.696340193e-008,0.9365848303,-6.91924712e-011,9.502625353e-010,1.314143128e-009,-96.65717316,-13.94838238,8.183146605e-008,-6.006341952e-011,0.821
1.830756017e-007,1.110318635e-006,1.293113428e-006,-2.645520681e-006,-2.090306225e-006,-0.0003029972722,0.0003018497373,0.0004020036722,-0.0004010489502,642.0770264,642.0770264,706.2479858,706.2479858,-0.0003789070761,-1.198237898e-010,-5.531525793e-010,5.284513382e-010,-1.401953553e-010,1.403629574e-010,6.681629827e-008,0.9365848303,-2.716918704e-011,-1.266624938e-008,5.685989635e-008,-96.65717316,-13.94838238,8.174168187e-008,-4.862720296e-011,0.831
1.838926778e-007,1.399920393e-006,1.662787326e-006,-2.872368441e-006,-2.380159003e-006,-0.0003026417689,0.0003038214636,0.0004041919601,-0.0004029503325,642.0770264,642.0770264,706.2479858,706.2479858,-0.0003789070761,-1.205879702e-010,-5.642651346e-010,5.273889658e-010,-1.48146384e-010,1.398608451e-010,6.668204122e-008,0.9365848303,-9.651097282e-011,2.749568351e-009,-9.199988327e-009,-96.65717316,-13.94838238,8.165962129e-008,-4.672410722e-011,0.841
1.847089898e-007,1.578398155e-006,1.951786771e-006,-3.038982641e-006,-2.626080914e-006,-0.0003043248726,0.0003038201539,0.0004024124937,-0.0004030268465,642.0770264,642.0770264,706.2479858,706.2479858,-0.0003789070761,-1.229692598e-010,-5.718605034e-010,5.274300996e-010,-1.52049956e-010,1.420794454e-010,6.655363904e-008,0.9365848303,-7.656317941e-011,-2.010775324e-009,-4.129179487e-008,-96.65717316,-13.94838238,8.158102816e-008,-1.111089692e-011,0.851
1.855245432e-007,1.781365654e-006,1.958242137e-006,-2.906552481e-006,-2.824462172e-006,-0.0003015153343,0.0003016709525,0.0004016172606,-0.0004010265693,642.0770264,642.0770264,706.2479858,706.2479858,-0.0003789070761,-1.255904963e-010,-5.692358251e-010,5.340393128e-010,-1.568426916e-010,1.3971381e-010,6.642956407e-008,0.9365848303,4.778288876e-012,-8.330754753e-009,2.778280006e-008,-96.65717316,-13.94838238,8.150496456e-008,-9.728785486e-012,0.861
1.863393631e-007,1.778146498e-006,2.06390564e-006,-2.816266033e-006,-2.802229574e-006,-0.0003043477773,0.0003036364797,0.0004035192833,-0.0004029875563,642.0770264,642.0770264,706.2479858,706.2479858,-0.0003789070761,-1.282557949e-010,-5.711447981e-010,5.331714514e-010,-1.563589813e-010,1.409400097e-010,6.631620408e-008,0.9365848303,-3.365485321e-011,1.245214154e-009,2.38161828e-008,-96.65717316,-13.94838238,8.143536689e-008,-2.907351963e-011,0.871
1.871535263e-007,1.909257207e-006,1.958525445e-006,-2.622707598e-006,-2.783336868e-006,-0.0003026180202,0.0003024209,0.0004015395534,-0.0004029925622,642.0770264,642.0770264,706.2479858,706.2479858,-0.0003789070761,-1.290685753e-010,-5.650071522e-010,5.409286352e-010,-1.545891332e-010,1.410851019e-010,6.621836235e-008,0.9365848303,4.74098677e-011,-8.891877457e-009,-3.438415419e-008,-96.65717316,-13.94838238,8.137523366e-008,-1.578820928e-011,0.881
1.879670956e-007,1.8742885e-006,1.900118264e-006,-2.494452701e-006,-2.678780902e-006,-0.0003026329214,0.0003024585021,0.0004015257873,-0.000401043013,642.0770264,642.0770264,706.2479858,706.2479858,-0.0003789070761,-1.292188995e-010,-5.645413026e-010,5.397534641e-010,-1.54190008e-010,1.401908034e-010,6.613066716e-008,0.9365848303,-3.555195418e-012,-6.857897805e-009,2.39837572e-008,-96.65717316,-13.94838238,8.132123952e-008,-6.387970708e-011,0.891
1.887801316e-007,1.980090929e-006,1.706866215e-006,-2.236227829e-006,-2.57420561e-006,-0.0003027316125,0.000301440974,0.0003997262102,-0.0004008209798,642.0770264,642.0770264,706.2479858,706.2479858,-0.0003789070761,-1.289324619e-010,-5.614569365e-010,5.412283399e-010,-1.579153475e-010,1.337526617e-010,6.605574754e-008,0.9365848303,8.881861913e-011,-1.184129417e-008,9.569331105e-009,-96.65717316,-13.94838238,8.127506135e-008,-8.2489654e-011,0.901
1.895927305e-007,1.868428512e-006,1.656999075e-006,-2.092991735e-006,-2.348262115e-006,-0.0003026569611,0.0003034985857,0.0004015783197,-0.0004026790848,642.0770264,642.0770264,706.2479858,706.2479858,-0.0003789070761,-1.28253505e-010,-5.637903477e-010,5.374817813e-010,-1.557138446e-010,1.319956644e-010,6.599654512e-008,0.9365848303,2.60186369e-011,1.229026103e-009,-3.728757036e-008,-96.65717316,-13.94838238,8.123851103e-008,-1.0366287e-010,0.911
1.904049633e-007,1.783425546e-006,1.470415668e-006,-1.975158511e-006,-2.18729997e-006,-0.0003027913626,0.0003015178663,0.0004014646984,-0.0004007535172,642.0770264,642.0770264,706.2479858,706.2479858,-0.0003789070761,-1.266425298e-010,-5.595889307e-010,5.388254287e-010,-1.524184806e-010,1.317963516e-010,6.594293467e-008,0.9365848303,7.184403766e-011,-4.607109361e-009,6.38109583e-008,-96.65717316,-13.94838238,8.120540684e-008,-9.938504186e-011,0.921
1.912168465e-007,1.674838131e-006,1.240848292e-006,-1.763968726e-006,-2.079148317e-006,-0.0003008940839,0.0003015910042,0.0004015897284,-0.0004004755174,642.0770264,642.0770264,706.2479858,706.2479858,-0.0003789070761,-1.256473398e-010,-5.583240537e-010,5.365387024e-010,-1.560443302e-010,1.23734592e-010,6.58892958e-008,0.9365848303,8.9613518e-011,-8.82528095e-009,5.718772567e-009,-96.65717316,-13.94838238,8.117224581e-008,-1.186259979e-010,0.931
1.920283733e-007,1.544155452e-006,1.031156103e-006,-1.625666187e-006,-1.990628789e-006,-0.0003010071814,0.0003035518748,0.0004015714512,-0.0004022992507,642.0770264,642.0770264,706.2479858,706.2479858,-0.0003789070761,-1.244903208e-010,-5.547888815e-010,5.358161692e-010,-1.555145734e-010,1.209809614e-010,6.582992285e-008,0.9365848303,1.513627418e-010,9.097683717e-010,3.148286964e-008,-96.65717316,-13.94838238,8.113556049e-008,-1.210577333e-010,0.941
1.92839529e-007,1.404736167e-006,8.341517059e-007,-1.372568022e-006,-1.874810437e-006,-0.0003020196746,0.0003036319104,0.0004015801242,-0.000402111531,642.0770264,642.0770264,706.2479858,706.2479858,-0.0003789070761,-1.241631242e-010,-5.534706582e-010,5.333145037e-010,-1.557654838e-010,1.155373991e-010,6.577054279e-008,0.9365848303,1.143198453e-010,-5.248627311e-009,-2.252871001e-009,-96.65717316,-13.94838238,8.109888228e-008,-1.133369995e-010,0.951
1.936503134e-007,1.230356474e-006,7.632027632e-007,-1.291984859e-006,-1.79411586e-006,-0.0003019685973,0.0003037986753,0.0004015615268,-0.000402044534,642.0770264,642.0770264,706.2479858,706.2479858,-0.0003789070761,-1.246083514e-010,-5.550671034e-010,5.281010629e-010,-1.552262485e-010,1.135948696e-010,6.570773792e-008,0.9365848303,8.846953031e-011,-4.116854413e-009,-7.142452407e-009,-96.65717316,-13.94838238,8.106007954e-008,-1.137528821e-010,0.961
1.944607136e-007,1.173985765e-006,6.556532526e-007,-1.154603979e-006,-1.692465162e-006,-0.0003030940425,0.000301803957,0.000401463767,-0.0004010957491,642.0770264,642.0770264,706.2479858,706.2479858,-0.0003789070761,-1.245151898e-010,-5.501274991e-010,5.298824157e-010,-1.523919185e-010,1.138680261e-010,6.564491173e-008,0.9365848303,8.5834298e-011,-7.084224762e-009,7.779672018e-009,-96.65717316,-13.94838238,8.102129101e-008,-8.339731683e-011,0.971
1.952707694e-007,1.018620537e-006,6.569746915e-007,-1.061322905e-006,-1.474989745e-006,-0.0003031068482,0.0003037761198,0.0004022251233,-0.0004020991037,642.0770264,642.0770264,706.2479858,706.2479858,-0.0003789070761,-1.240827024e-010,-5.497268196e-010,5.28805888e-010,-1.466170518e-010,1.151769513e-010,6.559201893e-008,0.9365848303,6.652833145e-011,-1.954123668e-010,2.655297093e-010,-96.65717316,-13.94838238,8.098859894e-008,-8.818357156e-011,0.981
1.96080508e-007,1.006205139e-006,5.395560265e-007,-1.021230219e-006,-1.51239351e-006,-0.0003031500091,0.0003037982679,0.0004013807047,-0.0004019583866,642.0770264,642.0770264,706.2479858,706.2479858,-0.0003789070761,-1.241650394e-010,-5.483777876e-010,5.28114108e-010,-1.499827068e-010,1.110967013e-010,6.553711529e-008,0.9365848303,1.032914657e-010,5.685853122e-009,-2.97718401e-008,-96.65717316,-13.94838238,8.095467763e-008,-8.289399722e-011,0.991
1.968898989e-007,9.315807006e-007,5.382904078e-007,-9.941628605e-007,-1.453732693e-006,-0.0003031184897,0.0003019245341,0.0004003852373,-0.0004019356275,642.0770264,642.0770264,706.2479858,706.2479858,-0.0003789070761,-1.243796038e-010,-5.493635546e-010,5.261133196e-010,-1.490371299e-010,1.104373398e-010,6.548052767e-008,0.9365848303,5.595842539e-011,-7.913270927e-009,-1.275523243e-008,-96.65717316,-13.94838238,8.091969761e-008,-9.727707528e-011,1.001
1.976989264e-007,8.617043932e-007,5.444005637e-007,-1.042599251e-006,-1.44383614e-006,-0.0003020461882,0.0003020839358,0.0004014334991,-0.0004008988908,642.0770264,642.0770264,706.2479858,706.2479858,-0.0003789070761,-1.253790405e-010,-5.526423763e-010,5.21130139e-010,-1.515143844e-010,1.081588569e-010,6.542013864e-008,0.9365848303,6.89361207e-011,-1.162454222e-008,-2.276152422e-008,-96.65717316,-13.94838238,8.088238701e-008,-1.012933903e-010,1.011
1.985075609e-007,8.581632756e-007,5.892540003e-007,-1.081143296e-006,-1.426020845e-006,-0.000303086912,0.0003039957082,0.0004013461876,-0.0004019830958,642.0770264,642.0770264,706.2479858,706.2479858,-0.0003789070761,-1.256273974e-010,-5.503504319e-010,5.219418231e-010,-1.489821461e-010,1.118135237e-010,6.535679375e-008,0.9365848303,6.421214255e-011,-4.375162899e-009,7.663185086e-010,-96.65717316,-13.94838238,8.084327163e-008,-8.808737767e-011,1.021
1.9931583e-007,8.884967428e-007,5.687497264e-007,-9.984893268e-007,-1.336332275e-006,-0.0003032271343,0.0003038382565,0.0004011914134,-0.0004001377383,642.0770264,642.0770264,706.2479858,706.2479858,-0.0003789070761,-1.246551473e-010,-5.459672714e-010,5.268641634e-010,-1.444944581e-010,1.139397951e-010,6.530272145e-008,0.9365848303,9.317871474e-011,1.569156138e-009,4.091156214e-008,-96.65717316,-13.94838238,8.080987612e-008,-6.353974291e-011,1.031
2.001237526e-007,9.09788298e-007,6.366653338e-007,-1.159941689e-006,-1.47831679e-006,-0.0003031748347,0.0003038928262,0.0004012823047,-0.0004020876659,642.0770264,642.0770264,706.2479858,706.2479858,-0.0003789070761,-1.241329955e-010,-5.476017972e-010,5.251583612e-010,-1.471296696e-010,1.148455428e-010,6.524457774e-008,0.9365848303,6.42406614e-011,1.838212693e-009,2.035488578e-008,-96.65717316,-13.94838238,8.077391556e-008,-8.495527892e-011,1.041
2.009312907e-007,1.031975557e-006,6.25347127e-007,-1.177255285e-006,-1.561739509e-006,-0.0003031951783,0.000301884691,0.0004004131479,-0.0004020292254,642.0770264,642.0770264,706.2479858,706.2479858,-0.0003789070761,-1.237807634e-010,-5.469656394e-010,5.273586012e-010,-1.498465241e-010,1.131510233e-010,6.518203577e-008,0.9365848303,8.453195088e-011,4.690315247e-009,-1.23273951e-008,-96.65717316,-13.94838238,8.073524782e-008,-7.527084511e-011,1.051
2.017384284e-007,9.714159432e-007,7.591918347e-007,-1.321237733e-006,-1.583986659e-006,-0.0003029755899,0.0003020500008,0.0004014292499,-0.0004010608536,642.0770264,642.0770264,706.2479858,706.2479858,-0.0003789070761,-1.244084141e-010,-5.538303149e-010,5.221913457e-010,-1.513905945e-010,1.128553154e-010,6.511705664e-008,0.9365848303,1.965058151e-011,-1.016519224e-008,7.300772431e-009,-96.65717316,-13.94838238,8.069500268e-008,-1.022648008e-010,1.061
2.02545124e-007,8.92194123e-007,8.732357628e-007,-1.535034698e-006,-1.659410032e-006,-0.000300829066,0.0003032033856,0.0004005536612,-0.0004010683333,642.0770264,642.0770264,706.2479858,706.2479858,-0.0003789070761,-1.259135851e-010,-5.603562614e-010,5.164695893e-010,-1.539211952e-010,1.130729815e-010,6.503988459e-008,0.9365848303,2.968325238e-011,-1.273477679e-008,7.215505415e-010,-96.65717316,-13.94838238,8.064720447e-008,-1.097889557e-010,1.071
2.033512998e-007,1.077021807e-006,7.704334735e-007,-1.527743507e-006,-1.816787517e-006,-0.0003011471417,0.000300921005,0.0004014821025,-0.0004002138739,642.0770264,642.0770264,706.2479858,706.2479858,-0.0003789070761,-1.256037496e-010,-5.504135481e-010,5.270583969e-010,-1.529237154e-010,1.161479524e-010,6.495235993e-008,0.9365848303,8.522387657e-011,-9.470628726e-009,4.847466784e-008,-96.65717316,-13.94838238,8.059300427e-008,-6.292428384e-011,1.081
2.041569371e-007,1.15275634e-006,8.285626905e-007,-1.536275818e-006,-1.890479552e-006,-0.0003031058004,0.000303749257,0.0004034047306,-0.0004021654022,642.0770264,642.0770264,706.2479858,706.2479858,-0.0003789070761,-1.251126008e-010,-5.497596822e-010,5.296464378e-010,-1.530378324e-010,1.170997327e-010,6.486605741e-008,0.9365848303,7.597582979e-011,8.603846524e-009,5.062141994e-008,-96.65717316,-13.94838238,8.053945777e-008,-7.268835533e-011,1.091
2.049620504e-007,1.117492502e-006,9.617690466e-007,-1.636509637e-006,-1.867724563e-006,-0.000301046035,0.0003028524807,0.0004014128644,-0.0004003522918,642.0770264,642.0770264,706.2479858,706.2479858,-0.0003789070761,-1.245594877e-010,-5.535739089e-010,5.274380377e-010,-1.509152525e-010,1.201616445e-010,6.478319392e-008,0.9365848303,2.87118801e-011,-1.257436466e-008,3.261868287e-008,-96.65717316,-13.94838238,8.048801448e-008,-7.577535821e-011,1.101
2.057666457e-007,1.274866236e-006,8.716704656e-007,-1.625174605e-006,-1.950770638e-006,-0.0003031497181,0.0003026349586,0.0004014413571,-0.0004022622888,642.0770264,642.0770264,706.2479858,706.2479858,-0.0003789070761,-1.232940833e-010,-5.483865584e-010,5.342377651e-010,-1.51741994e-010,1.199095129e-010,6.469945646e-008,0.9365848303,1.002613201e-010,-1.723000853e-009,-1.272863237e-008,-96.65717316,-13.94838238,8.043601696e-008,-5.063893749e-011,1.111
2.065707132e-007,1.326456868e-006,9.007798667e-007,-1.69203031e-006,-2.044049324e-006,-0.0003031421802,0.0003035865084,0.0004015122249,-0.000401311263,642.0770264,642.0770264,706.2479858,706.2479858,-0.0003789070761,-1.225033686e-010,-5.486222032e-010,5.347329801e-010,-1.537968503e-010,1.201169303e-010,6.461227997e-008,0.9365848303,4.312852506e-011,-9.918618149e-010,-2.565614388e-008,-96.65717316,-13.94838238,8.038182386e-008,-4.394759556e-011,1.121
2.073742427e-007,1.314322844e-006,1.011531936e-006,-1.697297421e-006,-1.985093832e-006,-0.0003030040825,0.000301759399,0.0004015291343,-0.0004022612411,642.0770264,642.0770264,706.2479858,706.2479858,-0.0003789070761,-1.22579058e-010,-5.529395275e-010,5.312750795e-010,-1.542873468e-010,1.198786903e-010,6.452828671e-008,0.9365848303,2.66820871e-011,1.447073128e-009,-2.683064793e-008,-96.65717316,-13.94838238,8.032955634e-008,-5.795677827e-011,1.131
2.08177288e-007,1.257117901e-006,1.081147843e-006,-1.625346499e-006,-1.905855015e-006,-0.0003027269559,0.0003019963333,0.000401706493,-0.0004020159831,642.0770264,642.0770264,706.2479858,706.2479858,-0.0003789070761,-1.249432224e-010,-5.616025422e-010,5.238690592e-010,-1.594305105e-010,1.127671845e-010,6.445568346e-008,0.9365848303,6.328713942e-011,-5.533055791e-009,2.426626722e-008,-96.65717316,-13.94838238,8.028433029e-008,-8.098662019e-011,1.141
2.089798849e-007,1.203891429e-006,1.089602847e-006,-1.666550588e-006,-1.949120815e-006,-0.00030079711,0.0003039531875,0.0004036311875,-0.0004020451161,642.0770264,642.0770264,706.2479858,706.2479858,-0.0003789070761,-1.269827993e-010,-5.613555176e-010,5.232710376e-010,-1.596043714e-010,1.136118838e-010,6.438133227e-008,0.9365848303,5.651899088e-011,7.776976396e-009,3.34260335e-008,-96.65717316,-13.94838238,8.023802422e-008,-6.34068284e-011,1.151
2.097820093e-007,1.240487904e-006,1.122674007e-006,-1.684553922e-006,-1.955446805e-006,-0.0003029313812,0.0003037553397,0.0004034383746,-0.0004022721259,642.0770264,642.0770264,706.2479858,706.2479858,-0.0003789070761,-1.270238775e-010,-5.552115434e-010,5.294555905e-010,-1.540131633e-010,1.201949235e-010,6.430615684e-008,0.9365848303,3.689036229e-011,3.339621024e-009,5.030883443e-008,-96.65717316,-13.94838238,8.019117814e-008,-4.551516108e-011,1.161
2.10583685e-007,1.287612008e-006,1.077465072e-006,-1.623770572e-006,-1.889462169e-006,-0.0003021227312,0.0003016148694,0.0004023145884,-0.0004023742222,642.0770264,642.0770264,706.2479858,706.2479858,-0.0003789070761,-1.255663074e-010,-5.502496236e-010,5.357929656e-010,-1.492112822e-010,1.23155236e-010,6.423752552e-008,0.9365848303,6.290863663e-011,-8.436141563e-009,3.799850656e-009,-96.65717316,-13.94838238,8.014836794e-008,-3.437521795e-011,1.171
2.113849358e-007,1.321146783e-006,9.156215697e-007,-1.552811113e-006,-1.900673055e-006,-0.0003032090317,0.0003034649999,0.0004004315415,-0.0004022896755,642.0770264,642.0770264,706.2479858,706.2479858,-0.0003789070761,-1.239256336e-010,-5.46532819e-010,5.385318302e-010,-1.503798613e-010,1.207035444e-010,6.416865261e-008,0.9365848303,1.026626215e-010,1.418683615e-009,-4.38537171e-008,-96.65717316,-13.94838238,8.010538011e-008,-3.259942663e-011,1.181
2.1218573e-007,1.29748139e-006,9.707742947e-007,-1.646934493e-006,-1.954116442e-006,-0.0003029875224,0.000301760505,0.0004025502421,-0.0004002460919,642.0770264,642.0770264,706.2479858,706.2479858,-0.0003789070761,-1.2383157e-010,-5.534570025e-010,5.312408846e-010,-1.560448437e-010,1.17082094e-010,6.409225506e-008,0.9365848303,1.48203446e-011,-3.1254348e-009,2.834403645e-008,-96.65717316,-13.94838238,8.005763874e-008,-7.040876909e-011,1.191
2.129860452e-007,1.251849881e-006,9.974322666e-007,-1.611259563e-006,-1.826970561e-006,-0.0003029606014,0.0003018277348,0.0004015210143,-0.0004012480495,642.0770264,642.0770264,706.2479858,706.2479858,-0.0003789070761,-1.23828392e-010,-5.542985515e-010,5.291392324e-010,-1.54052035e-010,1.18284077e-010,6.401776886e-008,0.9365848303,3.942140451e-012,-1.10773879e-009,5.477339915e-009,-96.65717316,-13.94838238,8.00111053e-008,-5.465738626e-011,1.201
2.137859351e-007,1.13682745e-006,1.117682018e-006,-1.588409987e-006,-1.672779263e-006,-0.0003008043277,0.0003030063526,0.0004005702795,-0.0004002064525,642.0770264,642.0770264,706.2479858,706.2479858,-0.0003789070761,-1.252420945e-010,-5.611297538e-010,5.22628496e-010,-1.544027406e-010,1.159329299e-010,6.395532637e-008,0.9365848303,3.168955376e-011,-1.263876648e-008,1.763037893e-008,-96.65717316,-13.94838238,7.997205387e-008,-6.146456261e-011,1.211
2.145854479e-007,1.119394256e-006,1.099951987e-006,-1.596966399e-006,-1.687215899e-006,-0.0003009007196,0.0003019373398,0.0004014776787,-0.0004012119025,642.0770264,642.0770264,706.2479858,706.2479858,-0.0003789070761,-1.25808669e-010,-5.581161644e-010,5.257130842e-010,-1.527946658e-010,1.172361236e-010,6.389483787e-008,0.9365848303,4.087394919e-012,-3.097889945e-009,-7.447575889e-009,-96.65717316,-13.94838238,7.993422457e-008,-5.552397778e-011,1.221
2.153845671e-007,1.107516482e-006,1.028676706e-006,-1.556090638e-006,-1.687354143e-006,-0.0003019618744,0.000301892258,0.0004005140509,-0.0004002418136,642.0770264,642.0770264,706.2479858,706.2479858,-0.0003789070761,-1.261142718e-010,-5.552779347e-010,5.271218462e-010,-1.527720034e-010,1.169583597e-010,6.38304698e-008,0.9365848303,3.10955324e-011,-1.012260942e-008,1.029614527e-008,-96.65717316,-13.94838238,7.98939368e-008,-5.378437279e-011,1.231
2.161832769e-007,1.157669999e-006,9.656536122e-007,-1.503562316e-006,-1.750437036e-006,-0.0003019856231,0.0003018834395,0.00040253927,-0.0004001446359,642.0770264,642.0770264,706.2479858,706.2479858,-0.0003789070761,-1.265333949e-010,-5.545350845e-010,5.273971815e-010,-1.55726057e-010,1.141402806e-010,6.376454564e-008,0.9365848303,3.729473327e-011,-1.004809569e-008,5.670267456e-008,-96.65717316,-13.94838238,7.985264716e-008,-6.828777821e-011,1.241
2.169815723e-007,1.091415129e-006,1.015507564e-006,-1.559704742e-006,-1.688913244e-006,-0.0003019911819,0.0003018876305,0.0004004452494,-0.0004012743011,642.0770264,642.0770264,706.2479858,706.2479858,-0.0003789070761,-1.260837545e-010,-5.543613346e-010,5.272663972e-010,-1.507773906e-010,1.190454541e-010,6.36975841e-008,0.9365848303,2.342886128e-011,-3.680534544e-009,-3.286620753e-008,-96.65717316,-13.94838238,7.981071803e-008,-4.866256009e-011,1.251
2.177794532e-007,1.130815463e-006,9.086606383e-007,-1.486910037e-006,-1.693534841e-006,-0.0003011628578,0.0003027378698,0.0004013865837,-0.0004003000504,642.0770264,642.0770264,706.2479858,706.2479858,-0.0003789070761,-1.249218923e-010,-5.499221079e-010,5.310210049e-010,-1.501536395e-010,1.186463983e-010,6.363185179e-008,0.9365848303,5.002813441e-011,-1.180155085e-008,3.22192335e-008,-96.65717316,-13.94838238,7.976951366e-008,-4.948405227e-011,1.261
2.185769162e-007,1.151327979e-006,8.60527507e-007,-1.47463993e-006,-1.712655035e-006,-0.0003031527449,0.0003036510607,0.0004033015575,-0.0004022073699,642.0770264,642.0770264,706.2479858,706.2479858,-0.0003789070761,-1.236603042e-010,-5.48292578e-010,5.327155383e-010,-1.50045365e-010,1.183164261e-010,6.356439286e-008,0.9365848303,5.609493425e-011,3.678739258e-010,1.963276297e-008,-96.65717316,-13.94838238,7.972722216e-008,-3.756223457e-011,1.271
2.193739446e-007,1.094774916e-006,8.647848517e-007,-1.523937044e-006,-1.707031174e-006,-0.0003030885418,0.00030178405,0.000401386671,-0.0004022028006,642.0770264,642.0770264,706.2479858,706.2479858,-0.0003789070761,-1.231434815e-010,-5.502989175e-010,5.305044182e-010,-1.501564151e-010,1.181840459e-010,6.349235804e-008,0.9365848303,2.701610637e-011,-1.393795523e-009,-4.644391982e-009,-96.65717316,-13.94838238,7.968203874e-008,-3.253136996e-011,1.281
2.20170507e-007,9.761067759e-007,9.811305972e-007,-1.608562457e-006,-1.653692266e-006,-0.0003028167412,0.0003030414518,0.0003995688749,-0.000402108155,642.0770264,642.0770264,706.2479858,706.2479858,-0.0003789070761,-1.245083897e-010,-5.587953988e-010,5.215310961e-010,-1.53352428e-010,1.154395884e-010,6.34169055e-008,0.9365848303,-3.873505249e-012,-6.659636398e-009,-4.201289627e-008,-96.65717316,-13.94838238,7.963465976e-008,-6.907847905e-011,1.291
2.209665949e-007,9.860543742e-007,1.014809186e-006,-1.592633453e-006,-1.652857009e-006,-0.0003017199051,0.0003022083256,0.0004016640305,-0.0004000379995,642.0770264,642.0770264,706.2479858,706.2479858,-0.0003789070761,-1.270134276e-010,-5.628410515e-010,5.172416939e-010,-1.581985931e-010,1.110479972e-010,6.33421493e-008,0.9365848303,-4.662013831e-012,-4.42617587e-009,5.710097994e-008,-96.65717316,-13.94838238,7.958770709e-008,-7.101019078e-011,1.301
