Car.Distance,Car.FxFL,Car.FxFR,Car.FxRL,Car.FxRR,Car.FyFL,Car.FyFR,Car.FyRL,Car.FyRR,Car.FzFL,Car.FzFR,Car.FzRL,Car.FzRR,Car.Pitch,Car.Roll,Car.SlipAngleFL,Car.SlipAngleFR,Car.SlipAngleRL,Car.SlipAngleRR,Car.TrackRadius,Car.Yaw,Car.YawRate,Car.ax,Car.ay,Car.tx,Car.ty,Car.vx,Car.vy,Time
m,N,N,N,N,N,N,N,N,N,N,N,N,rad,rad,rad,rad,rad,rad,m,rad,rad/s,m/s^2,m/s^2,m,m,m/s,m/s,s
1.23E-10,0.006480241,0.00648139,0.006751504,0.006749743,-0.005792983,0.005842683,-0.002417743,0.002405345,642.0757446,642.0730591,706.2485962,706.2514648,-0.000133015,3.92E-07,-1.61E-08,1.62E-08,1.34E-08,-1.33E-08,1.50E-07,0.93658483,8.51E-10,9.59E-05,3.20E-07,-96.65712738,-13.94831848,1.22E-07,3.24E-10,0.001
8.68E-09,-0.001882937,-0.0022906,-0.002347856,-0.002556073,-0.127719924,0.160607532,-0.036554191,0.036180258,642.1159668,642.1155396,706.2433472,706.2463379,-0.000133011,3.94E-07,-3.09E-08,1.34E-07,1.78E-08,-1.85E-08,9.23E-09,0.93658483,6.55E-07,-2.25E-05,1.84E-05,-96.65712738,-13.94831848,4.52E-07,1.45E-07,0.011
4.18E-08,0.000697354,-0.002045667,-0.000291504,-0.002439364,-0.301503509,0.314838558,-0.109033398,0.075593084,642.1380005,642.1471558,706.2449951,706.2476196,-0.000133037,4.17E-07,2.81E-07,4.06E-07,-9.61E-08,-8.39E-08,6.66E-08,0.93658483,3.69E-06,-2.54E-05,-0.000108229,-96.65712738,-13.94831848,9.98E-08,9.75E-07,0.021
1.24E-07,-0.000494596,-0.001255486,-0.000626983,-0.003277961,-0.385048926,0.380461931,-0.195136696,0.176747829,642.1428223,642.1395874,706.2745361,706.2678833,-0.000133134,4.01E-07,2.14E-07,4.01E-07,-4.48E-07,-3.81E-07,1.83E-09,0.93658489,5.82E-06,-3.51E-05,-9.42E-06,-96.65712738,-13.94831848,-1.84E-07,7.45E-08,0.031
2.73E-07,0.001239199,-0.003781958,-0.000515518,0.000552404,-0.388044119,0.38643676,-0.226799354,0.232598841,642.1275635,642.1164551,706.28125,706.2805786,-0.000133278,3.68E-07,8.29E-08,4.79E-07,-4.32E-07,-3.92E-07,-5.92E-09,0.93658495,5.44E-06,-3.55E-05,5.72E-06,-96.65712738,-13.94831848,-2.39E-07,-3.69E-07,0.041
4.84E-07,0.008029153,-0.009848207,-0.002074249,-0.00996038,-0.317872137,0.375913799,-0.236488104,0.20751603,642.0895386,642.0999756,706.2669067,706.2717285,-0.000133411,3.80E-07,3.31E-07,8.96E-07,-3.81E-07,-2.22E-07,7.79E-09,0.936585009,7.45E-06,-4.39E-05,-8.74E-05,-96.65712738,-13.94831848,-3.74E-07,6.95E-07,0.051
7.35E-07,0.025759688,-0.013158235,0.003311577,-0.028408574,-0.2967107,0.380829245,-0.23621431,0.157405302,642.0692749,642.1010742,706.2518921,706.2296753,-0.000133494,4.15E-07,8.09E-07,1.48E-06,-9.70E-07,-6.11E-07,-1.81E-07,0.936585128,1.56E-05,-4.12E-05,6.82E-05,-96.65712738,-13.94831848,-8.88E-07,1.10E-06,0.061
9.96E-07,0.044425033,-0.020805303,0.015179428,-0.045217078,-0.296544761,0.371401459,-0.220045269,0.1516992,642.0644531,642.0960693,706.2436523,706.2110596,-0.000133535,4.37E-07,1.22E-06,1.85E-06,-1.40E-06,-8.44E-07,-7.35E-08,0.936585307,2.13E-05,-1.81E-05,9.56E-05,-96.65712738,-13.94831848,-1.25E-06,1.43E-06,0.071
1.25E-06,0.052721031,-0.025456334,0.023115236,-0.052947901,-0.307150632,0.362262517,-0.205532327,0.150558353,642.0627441,642.086853,706.2338257,706.2069702,-0.000133553,4.57E-07,1.37E-06,1.92E-06,-1.46E-06,-8.89E-07,-2.31E-07,0.936585546,2.22E-05,-5.52E-06,3.60E-05,-96.65712738,-13.94831848,-1.43E-06,1.60E-06,0.081
1.47E-06,0.051659048,-0.025210073,0.025004914,-0.050259996,-0.316901118,0.359740883,-0.198466271,0.153791785,642.0603638,642.0808105,706.2243652,706.2046509,-0.000133565,4.79E-07,1.32E-06,1.79E-06,-1.34E-06,-8.49E-07,-1.62E-06,0.936585784,2.05E-05,6.19E-06,-2.53E-06,-96.65712738,-13.94831848,-1.46E-06,1.54E-06,0.091
1.66E-06,0.046249349,-0.022890195,0.023481371,-0.043417867,-0.323360652,0.36172393,-0.197234631,0.159725323,642.0582886,642.078125,706.21875,706.2032471,-0.000133577,4.98E-07,1.19E-06,1.59E-06,-1.18E-06,-7.85E-07,-5.01E-07,0.936585963,1.81E-05,1.29E-05,-1.93E-06,-96.65712738,-13.94831848,-1.37E-06,1.50E-06,0.101
1.81E-06,0.03994621,-0.02080092,0.021695618,-0.036624741,-0.329006463,0.36431846,-0.197450325,0.166578218,642.0579224,642.0765381,706.2165527,706.2034302,-0.000133592,5.09E-07,1.08E-06,1.39E-06,-1.01E-06,-7.21E-07,-1.82E-07,0.936586142,1.59E-05,1.53E-05,1.68E-05,-96.65712738,-13.94831848,-1.23E-06,1.60E-06,0.111
1.92E-06,0.033727098,-0.019154353,0.020526694,-0.030573981,-0.336492479,0.365897507,-0.195623279,0.17283693,642.0596313,642.0753784,706.2159424,706.2052002,-0.00013361,5.12E-07,9.76E-07,1.21E-06,-8.26E-07,-6.41E-07,-1.49E-07,0.936586261,1.38E-05,1.65E-05,3.07E-05,-96.65712738,-13.94831848,-1.07E-06,1.81E-06,0.121
1.99E-06,0.027239917,-0.01721416,0.019141568,-0.024538562,-0.347009808,0.367138267,-0.189977571,0.177111447,642.0632935,642.0748901,706.2156372,706.2084351,-0.000133631,5.08E-07,8.58E-07,1.01E-06,-6.12E-07,-5.25E-07,-1.71E-07,0.93658638,1.12E-05,1.72E-05,3.51E-05,-96.65712738,-13.94831848,-9.06E-07,2.07E-06,0.131
2.03E-06,0.019939667,-0.014360755,0.01654429,-0.017840583,-0.361586392,0.36944288,-0.177097067,0.178187981,642.0685425,642.0752563,706.2149658,706.2128906,-0.000133656,5.00E-07,7.00E-07,7.88E-07,-3.55E-07,-3.58E-07,-2.05E-07,0.936586499,7.98E-06,1.58E-05,4.80E-05,-96.65712738,-13.94831848,-7.42E-07,2.35E-06,0.141
2.06E-06,0.011077852,-0.009894279,0.01158483,-0.009665214,-0.385644496,0.376183033,-0.124122031,0.161318854,642.0755615,642.0764771,706.2109985,706.2184448,-0.000133686,4.94E-07,4.74E-07,5.09E-07,1.88E-08,-6.71E-08,-1.70E-07,0.936586559,3.18E-06,2.11E-05,0.000135818,-96.65712738,-13.94831848,-6.06E-07,2.83E-06,0.151
2.10E-06,0.00082394,-0.004145469,0.004214377,-0.001819616,-0.404473931,0.392181188,-0.183815986,0.187692612,642.0853882,642.0786743,706.2164307,706.2244873,-0.000133732,4.78E-07,1.61E-07,1.63E-07,2.01E-07,9.24E-08,2.16E-07,0.936586559,-4.19E-07,-1.64E-05,-9.27E-05,-96.65712738,-13.94831848,-5.66E-07,2.69E-06,0.161
2.16E-06,-0.002550098,-0.002518822,0.002236537,0.000927537,-0.393395811,0.401137799,-0.226312488,0.208988115,642.0830078,642.0826416,706.2414551,706.2416992,-0.000133776,4.55E-07,2.98E-07,2.46E-07,1.88E-07,4.35E-08,6.34E-07,0.936586559,9.36E-07,-1.70E-06,-5.63E-05,-96.65712738,-13.94831848,-6.46E-07,2.90E-06,0.171
2.22E-06,-0.00127297,-0.002640225,0.007659164,0.002919497,-0.416101128,0.384569824,-0.175777316,0.171222597,642.0924072,642.0818481,706.2397461,706.2366333,-0.000133805,4.20E-07,1.41E-07,7.47E-08,1.99E-07,-4.13E-08,1.52E-07,0.936586559,-1.46E-07,2.91E-05,-0.000242604,-96.65712738,-13.94831848,-5.35E-07,2.11E-06,0.181
2.28E-06,-0.002764283,-0.001115684,0.007855703,0.004666616,-0.317809701,0.323310971,-0.149116337,0.146644056,642.0835571,642.069519,706.2331543,706.2258301,-0.000133819,3.80E-07,7.06E-08,-6.29E-08,1.12E-07,-7.48E-08,-9.32E-08,0.936586559,-2.62E-07,3.60E-05,-9.81E-05,-96.65712738,-13.94831848,-2.46E-07,9.50E-07,0.191
2.35E-06,-0.002002412,-0.000453852,0.006456919,0.004359959,-0.329696,0.318314463,-0.129687443,0.126417771,642.0808716,642.0722046,706.2297363,706.2254028,-0.000133815,3.64E-07,6.66E-08,-3.22E-08,7.16E-08,-6.21E-08,-1.13E-09,0.936586559,-2.00E-07,4.02E-05,-7.49E-05,-96.65712738,-13.94831848,7.43E-08,2.49E-07,0.201
2.44E-06,-0.001692639,-0.000885972,0.005162876,0.004364791,-0.328278214,0.323684156,-0.121846028,0.120877504,642.0903931,642.0863647,706.2294922,706.2301636,-0.000133804,3.66E-07,7.77E-08,-5.31E-08,6.36E-08,-7.17E-08,7.44E-09,0.936586559,-1.29E-07,2.29E-05,1.37E-05,-96.65712738,-13.94831848,3.61E-07,-2.02E-07,0.211
2.53E-06,-0.003020615,-0.002840616,0.004254972,0.004673085,-0.299843431,0.298140556,-0.127018184,0.128722772,642.0893555,642.0876465,706.2340088,706.2379761,-0.000133793,3.74E-07,9.64E-08,-1.03E-07,6.51E-08,-8.68E-08,1.36E-07,0.936586559,-1.90E-07,8.18E-06,-1.92E-06,-96.65712738,-13.94831848,5.29E-07,-3.64E-07,0.221
2.62E-06,-0.003371252,-0.003477317,0.004475491,0.005537029,-0.290514141,0.292086303,-0.12824899,0.130783916,642.0889282,642.0878906,706.2382813,706.2432861,-0.000133777,3.82E-07,9.52E-08,-1.07E-07,7.30E-08,-9.60E-08,3.28E-08,0.936586559,-1.85E-07,1.35E-05,1.05E-05,-96.65712738,-13.94831848,6.42E-07,-2.85E-07,0.231
2.71E-06,-0.00300057,-0.003084083,0.00500279,0.006107676,-0.298387885,0.300265878,-0.124706939,0.126607001,642.0947876,642.0932617,706.2393799,706.2437744,-0.000133752,3.87E-07,9.51E-08,-9.86E-08,7.50E-08,-9.14E-08,3.78E-08,0.936586559,-1.71E-07,2.12E-05,1.44E-05,-96.65712738,-13.94831848,8.05E-07,-1.34E-07,0.241
2.80E-06,-0.003238953,-0.003174307,0.004516937,0.005308735,-0.296794772,0.297332823,-0.12559329,0.126453683,642.0991821,642.0968018,706.2400513,706.2434082,-0.000133725,3.88E-07,1.02E-07,-9.72E-08,6.49E-08,-7.47E-08,1.01E-07,0.936586559,-1.64E-07,1.14E-05,8.92E-06,-96.65712738,-13.94831848,9.63E-07,-2.91E-08,0.251
2.87E-06,-0.003602887,-0.003391899,0.003395356,0.003846335,-0.285769641,0.285253972,-0.131924883,0.132089406,642.0982666,642.0952759,706.2419434,706.2446289,-0.000133699,3.87E-07,9.83E-08,-9.08E-08,5.03E-08,-5.57E-08,6.49E-07,0.936586559,-1.68E-07,-6.98E-07,1.62E-06,-96.65712738,-13.94831848,1.02E-06,-2.00E-09,0.261
2.93E-06,-0.003147435,-0.002858259,0.002631078,0.002900006,-0.282691926,0.282047033,-0.13307482,0.132892162,642.0973511,642.0942993,706.2426758,706.2452393,-0.000133672,3.87E-07,8.17E-08,-7.41E-08,3.83E-08,-4.16E-08,-2.57E-07,0.936586559,-1.71E-07,-3.57E-08,-4.05E-06,-96.65712738,-13.94831848,1.02E-06,-2.23E-08,0.271
2.97E-06,-0.002368781,-0.002076673,0.002063588,0.002308651,-0.286802858,0.286324441,-0.128327549,0.128228888,642.098938,642.0960693,706.2405396,706.2433472,-0.000133643,3.87E-07,6.56E-08,-5.83E-08,2.62E-08,-3.03E-08,-5.88E-07,0.936586559,-1.69E-07,9.42E-07,-1.81E-06,-96.65712738,-13.94831848,1.01E-06,-5.15E-08,0.281
3.01E-06,-0.002013168,-0.001750457,0.000991031,0.001287219,-0.280887842,0.280597657,-0.134790853,0.134840146,642.0986938,642.0961304,706.2392578,706.2423706,-0.000133617,3.88E-07,5.61E-08,-5.05E-08,7.46E-09,-1.42E-08,-9.26E-07,0.936586559,-1.66E-07,-8.49E-06,-4.57E-07,-96.65712738,-13.94831848,9.85E-07,-6.96E-08,0.291
3.03E-06,-0.001586617,-0.001440816,0.000190789,0.000361035,-0.274785042,0.274996102,-0.165619895,0.160077155,642.0963745,642.093689,706.2408447,706.2431641,-0.000133593,3.89E-07,4.00E-08,-4.44E-08,-2.86E-08,-1.70E-08,-1.43E-08,0.936586559,-1.31E-08,-1.72E-05,-5.67E-05,-96.65712738,-13.94831848,9.05E-07,-1.38E-07,0.301
3.04E-06,0.000723629,-0.001314146,0.001116656,-0.002010426,-0.263137788,0.258213341,-0.217008531,0.191270202,642.0983887,642.0936279,706.2560425,706.2491455,-0.00013356,3.73E-07,2.48E-08,-4.55E-08,-2.63E-07,-1.91E-07,-1.53E-08,0.936586559,1.58E-06,-1.12E-05,-0.000135467,-96.65712738,-13.94831848,8.26E-07,-9.15E-07,0.311
3.06E-06,0.004609559,-0.001272644,0.005132166,-0.003152835,-0.211940289,0.207853839,-0.220290706,0.221610263,642.0888062,642.0840454,706.2562256,706.250061,-0.000133499,3.57E-07,9.27E-08,-5.72E-09,-3.08E-07,-2.11E-07,4.05E-08,0.936586559,2.09E-06,1.55E-05,9.20E-05,-96.65712738,-13.94831848,8.95E-07,-1.34E-06,0.321
3.09E-06,0.010030142,-0.001333776,0.006353176,-0.002193225,-0.260099441,0.330449075,-0.198371291,0.184233323,642.0874023,642.1060791,706.2399902,706.2462769,-0.000133404,3.98E-07,5.33E-07,5.06E-07,-1.67E-07,-2.41E-08,4.06E-08,0.936586618,4.98E-06,7.45E-05,6.57E-05,-96.65712738,-13.94831848,1.27E-06,3.60E-07,0.331
3.12E-06,0.016735453,-0.010478402,0.008982765,-0.010290464,-0.332633674,0.359414518,-0.194000498,0.15062885,642.1011353,642.1287842,706.2276001,706.2261353,-0.000133326,4.63E-07,8.20E-07,7.97E-07,-4.76E-07,-3.06E-07,-3.14E-07,0.936586678,9.34E-06,1.52E-05,-5.25E-06,-96.65712738,-13.94831848,1.62E-06,1.27E-06,0.341
3.17E-06,0.015131369,-0.017962541,0.009543108,-0.022730192,-0.354957163,0.320242941,-0.211203277,0.159211665,642.1083984,642.1075439,706.2383423,706.2197266,-0.000133302,4.35E-07,4.46E-07,4.29E-07,-8.32E-07,-6.35E-07,-9.39E-09,0.936586797,8.90E-06,-7.38E-05,-0.000194764,-96.65712738,-13.94831848,1.37E-06,-2.12E-07,0.351
3.23E-06,0.007491014,-0.013283372,0.007720005,-0.024176696,-0.292547882,0.218886063,-0.221733153,0.186180458,642.0978394,642.0629272,706.2501221,706.2207642,-0.000133319,3.22E-07,-2.61E-07,-2.31E-07,-9.02E-07,-7.52E-07,-1.04E-07,0.936586857,3.98E-06,-7.22E-05,-0.000333071,-96.65712738,-13.94831848,6.15E-07,-3.59E-06,0.361
3.31E-06,0.002458279,-0.000414909,0.002890151,-0.014422829,-0.369176239,0.347242355,-0.231051132,0.220582798,642.1083984,642.0765991,706.2506104,706.2277222,-0.000133336,2.26E-07,-6.84E-07,-4.42E-07,-7.11E-07,-6.09E-07,-1.37E-06,0.936586857,2.23E-07,-2.77E-05,-0.00016771,-96.65712738,-13.94831848,7.47E-08,-6.38E-06,0.371
3.41E-06,0.0005208,0.004197229,-0.003186358,-0.005035046,-0.398910165,0.392004341,-0.234376431,0.247000352,642.1112671,642.1031494,706.2407227,706.2389526,-0.000133358,2.33E-07,-6.30E-07,-4.40E-07,-4.56E-07,-3.87E-07,-4.33E-06,0.936586857,-1.46E-06,-1.30E-05,-3.21E-05,-96.65712738,-13.94831848,-1.47E-07,-7.31E-06,0.381
3.51E-06,-0.001933969,0.00321742,-0.009962833,0.001466227,-0.409553438,0.418256044,-0.186555222,0.240194812,642.0993652,642.1054077,706.2243042,706.2471924,-0.000133398,3.17E-07,-5.69E-07,-4.09E-07,-1.52E-07,-1.02E-07,-1.46E-06,0.936586857,-3.41E-06,-1.89E-05,0.000179938,-96.65712738,-13.94831848,-3.59E-07,-6.48E-06,0.391
3.60E-06,-0.004577522,0.002879647,-0.01496897,0.00547552,-0.406860888,0.425043643,-0.082224891,0.106029883,642.086792,642.098938,706.1950684,706.2277222,-0.000133474,4.19E-07,-5.42E-07,-2.93E-07,1.53E-08,-1.61E-08,-3.39E-07,0.936586797,-3.55E-06,-4.16E-05,0.000149176,-96.65712738,-13.94831848,-6.89E-07,-4.58E-06,0.401
3.68E-06,-0.005917593,0.001141719,-0.017592413,0.001579938,-0.398584306,0.429219574,-0.045567356,0.139010713,642.0789795,642.0910034,706.1876831,706.2211304,-0.000133604,4.85E-07,-4.33E-07,-8.63E-08,1.50E-07,1.62E-07,-1.49E-08,0.936586738,-3.91E-06,-9.84E-05,0.000548585,-96.65712738,-13.94831848,-1.29E-06,-2.00E-06,0.411
3.73E-06,-0.011862017,0.007403402,-0.024097912,0.005695412,-0.361468017,0.324340105,-0.120626807,0.197978795,642.0700684,642.0675659,706.2074585,706.2567139,-0.000133758,5.49E-07,-6.28E-07,-3.21E-07,7.67E-07,7.77E-07,-5.40E-07,0.936586678,-1.04E-05,-9.63E-05,6.60E-05,-96.65712738,-13.94831848,-2.16E-06,1.19E-06,0.421
3.77E-06,-0.017426012,0.02119959,-0.022156769,0.018713031,-0.349567026,0.304017514,-0.185171455,0.190335617,642.0714111,642.053894,706.2337646,706.2623901,-0.000133869,5.28E-07,-9.32E-07,-6.75E-07,7.83E-07,6.71E-07,6.69E-08,0.936586559,-1.23E-05,5.88E-06,-0.00017594,-96.65712738,-13.94831848,-2.57E-06,1.72E-06,0.431
3.80E-06,-0.01458437,0.02724546,-0.009730785,0.022108668,-0.364951283,0.318179041,-0.217795432,0.129692435,642.0874634,642.0570068,706.2532349,706.2347412,-0.000133905,3.98E-07,-1.04E-06,-8.99E-07,1.56E-07,3.32E-08,8.43E-09,0.93658644,-8.07E-06,0.000112425,-0.0005688,-96.65712738,-13.94831848,-2.05E-06,-7.93E-07,0.441
3.84E-06,-0.005891884,0.019667437,0.004502092,0.010354008,-0.389491975,0.363885284,-0.21944508,0.181791559,642.1062012,642.0670776,706.2631226,706.2124023,-0.000133885,2.23E-07,-8.91E-07,-8.72E-07,-5.49E-07,-5.53E-07,2.06E-07,0.93658644,-2.36E-06,0.000107629,-0.000114428,-96.65712738,-13.94831848,-1.02E-06,-5.04E-06,0.451
3.90E-06,-0.001454236,0.010970647,0.005729737,0.00278757,-0.406381935,0.400105804,-0.225064844,0.233774185,642.1066284,642.0828857,706.2522583,706.2356567,-0.000133842,1.75E-07,-5.58E-07,-6.40E-07,-3.33E-07,-2.54E-07,5.63E-07,0.93658638,-2.17E-06,7.13E-05,-8.19E-05,-96.65712738,-13.94831848,-1.83E-07,-6.43E-06,0.461
3.97E-06,-0.000365831,0.005433839,0.000454895,0.004742138,-0.416590393,0.419861704,-0.239793271,0.223793283,642.0951538,642.0978394,706.2366943,706.2467041,-0.000133795,2.47E-07,-3.81E-07,-4.72E-07,-3.10E-07,-2.54E-07,1.42E-06,0.93658638,-1.08E-06,3.84E-05,-9.94E-05,-96.65712738,-13.94831848,3.33E-07,-6.91E-06,0.471
4.04E-06,0.002474402,0.00016778,-0.002107354,0.003264955,-0.414013296,0.433075965,-0.241942018,0.245300606,642.0891113,642.1026001,706.2330933,706.2440796,-0.000133754,3.23E-07,-3.29E-07,-3.85E-07,-5.37E-07,-4.41E-07,2.33E-06,0.93658638,8.61E-07,1.22E-05,0.000101242,-96.65712738,-13.94831848,5.92E-07,-6.92E-06,0.481
4.11E-06,0.005283319,-0.00304463,-0.002390454,-0.000415267,-0.373333633,0.415574819,-0.242070675,0.259597987,642.083252,642.098999,706.2324829,706.2437134,-0.000133719,3.85E-07,-1.71E-07,-1.99E-07,-5.35E-07,-4.09E-07,2.36E-06,0.93658638,2.16E-06,-1.04E-05,0.000201966,-96.65712738,-13.94831848,6.40E-07,-5.49E-06,0.491
4.16E-06,0.008646663,-0.004896923,0.000736234,-0.002886378,-0.228464618,0.2230995,-0.243597299,0.257940441,642.0552368,642.072876,706.229248,706.2415161,-0.000133669,4.45E-07,8.42E-08,-1.80E-08,-4.71E-07,-3.11E-07,7.08E-07,0.93658644,2.87E-06,-2.02E-06,0.00010349,-96.65712738,-13.94831848,6.33E-07,-3.40E-06,0.501
4.19E-06,0.013485436,-0.001869333,0.005653242,-0.002228397,-0.191688702,0.293706626,-0.23310186,0.255698949,642.0454712,642.0701904,706.2242432,706.2360229,-0.000133565,4.88E-07,4.07E-07,3.64E-07,-3.84E-07,-1.77E-07,5.14E-09,0.93658644,5.40E-06,8.36E-05,0.000429548,-96.65712738,-13.94831848,9.70E-07,-9.63E-07,0.511
4.21E-06,0.02216767,-0.007204989,0.012410876,-0.005581328,-0.293642491,0.358710796,-0.180361599,0.179143801,642.0735474,642.1157227,706.2094727,706.2243652,-0.000133432,5.76E-07,1.06E-06,9.95E-07,-2.49E-07,-1.04E-07,2.23E-07,0.936586559,9.37E-06,0.000100026,0.00026775,-96.65712738,-13.94831848,1.71E-06,2.88E-06,0.521
4.26E-06,0.017375804,-0.016666722,0.014427488,-0.013635267,-0.368579,0.352265745,-0.151062504,0.134569645,642.1004028,642.1194458,706.2017822,706.2073364,-0.000133349,5.98E-07,9.14E-07,7.35E-07,-2.90E-07,-2.32E-07,-1.99E-06,0.936586618,8.14E-06,-1.55E-06,-2.53E-05,-96.65712738,-13.94831848,2.13E-06,4.03E-06,0.531
4.31E-06,0.000560796,-0.015639365,0.00724783,-0.017496271,-0.341675729,0.26062569,-0.190144658,0.142014787,642.1165161,642.0783081,706.2250977,706.2061157,-0.000133357,4.80E-07,-1.28E-07,-3.04E-07,-4.22E-07,-4.25E-07,-7.53E-09,0.936586678,1.30E-06,-0.000117836,-0.000535948,-96.65712738,-13.94831848,1.62E-06,7.87E-07,0.541
4.36E-06,-0.007840222,-0.009400768,0.003384717,-0.01365954,-0.273602635,0.301583737,-0.222737342,0.190128624,642.0975952,642.0670166,706.2553101,706.2197876,-0.000133411,3.39E-07,-7.72E-08,-1.26E-07,-4.32E-07,-5.44E-07,-2.26E-08,0.936586678,2.89E-06,-0.000122535,-3.08E-05,-96.65712738,-13.94831848,6.01E-07,-1.57E-06,0.551
4.42E-06,-0.003181387,-0.005946765,0.00735348,-0.005176493,-0.261086196,0.236383393,-0.192651615,0.229885593,642.0777588,642.062439,706.2502441,706.241272,-0.000133446,3.21E-07,-1.25E-07,-1.85E-07,-1.00E-07,-2.89E-07,3.46E-06,0.936586738,-3.57E-07,2.79E-06,7.29E-05,-96.65712738,-13.94831848,-1.92E-08,-2.84E-06,0.561
4.49E-06,-0.002374925,0.001504776,0.004326409,0.007827381,-0.344188958,0.336746633,-0.170219794,0.145790279,642.0949707,642.0974121,706.229187,706.2405396,-0.000133442,3.71E-07,-2.08E-07,-2.18E-07,3.48E-09,-2.08E-07,1.35E-07,0.936586678,-1.11E-06,6.49E-05,0.000130554,-96.65712738,-13.94831848,1.36E-07,-3.08E-06,0.571
4.55E-06,-0.002692068,-0.00166582,0.001559153,0.00587619,-0.37512219,0.38849932,-0.20131819,0.196616069,642.1100464,642.1155396,706.2310181,706.2391357,-0.000133449,3.91E-07,-1.76E-07,-2.61E-07,-2.18E-07,-3.36E-07,1.54E-06,0.936586678,2.51E-07,-5.31E-09,5.73E-05,-96.65712738,-13.94831848,4.02E-07,-3.25E-06,0.581
4.60E-06,-0.003359716,-0.006564357,-0.000132015,-7.52E-05,-0.329233557,0.342059791,-0.232016921,0.239091635,642.0998535,642.1026001,706.2485352,706.2532959,-0.000133481,3.96E-07,-8.79E-08,-2.05E-07,-2.53E-07,-3.48E-07,-1.67E-07,0.936586678,9.79E-07,-5.12E-05,8.63E-05,-96.65712738,-13.94831848,2.13E-07,-2.71E-06,0.591
4.63E-06,-0.00173218,-0.004839018,0.001609285,0.0002557,-0.345223337,0.3320719,-0.238412485,0.254608214,642.0889282,642.0860596,706.2514648,706.2572021,-0.000133506,3.98E-07,-1.63E-07,-1.93E-07,-1.50E-07,-2.48E-07,-7.52E-07,0.936586678,-2.46E-07,-5.84E-06,2.18E-05,-96.65712738,-13.94831848,-5.99E-08,-2.20E-06,0.601
4.66E-06,-0.000660619,0.001669587,0.000970406,0.00353397,-0.395034343,0.380953997,-0.242589861,0.23185727,642.1048584,642.0977173,706.2452393,706.2493896,-0.000133506,3.93E-07,-3.05E-07,-2.44E-07,-1.18E-07,-1.69E-07,1.92E-07,0.936586678,-1.28E-06,2.58E-05,-0.000105544,-96.65712738,-13.94831848,5.10E-10,-2.22E-06,0.611
4.69E-06,-0.001457972,0.003284212,-0.000840551,0.001646706,-0.411148101,0.403716773,-0.247093424,0.24606505,642.1107788,642.1011353,706.2441406,706.241333,-0.000133503,3.68E-07,-3.80E-07,-3.47E-07,-2.59E-07,-2.23E-07,1.09E-06,0.936586678,-1.23E-06,8.74E-06,-8.73E-06,-96.65712738,-13.94831848,1.52E-07,-3.00E-06,0.621
4.74E-06,-0.002338934,0.002598513,-0.003824937,-0.000768112,-0.413468093,0.419112831,-0.225709111,0.248186365,642.1040649,642.0996094,706.2391968,706.2433472,-0.000133511,3.63E-07,-3.18E-07,-2.56E-07,-1.62E-07,-8.50E-08,-8.74E-07,0.936586678,-1.57E-06,-1.33E-05,0.000118083,-96.65712738,-13.94831848,1.01E-07,-2.82E-06,0.631
4.79E-06,-0.004102979,0.003849718,-0.009026797,0.00212671,-0.397357822,0.387806267,-0.157440797,0.233770102,642.0935059,642.0950928,706.2148438,706.2438965,-0.00013354,4.13E-07,-2.93E-07,-1.64E-07,3.37E-07,3.83E-07,-1.82E-08,0.936586618,-5.25E-06,-4.04E-05,0.000161288,-96.65712738,-13.94831848,-1.07E-07,-1.01E-06,0.641
4.85E-06,-0.010239256,0.010968958,-0.019251555,0.009603951,-0.359061897,0.328412741,-0.176689878,0.224137232,642.0806885,642.0778198,706.2095337,706.2490234,-0.000133579,4.79E-07,-5.41E-07,-3.88E-07,6.10E-07,7.18E-07,5.57E-08,0.936586559,-9.41E-06,-3.60E-05,2.98E-05,-96.65712738,-13.94831848,-4.24E-07,4.85E-07,0.651
4.89E-06,-0.014394038,0.019383583,-0.022367276,0.01517351,-0.353964031,0.315473378,-0.183615938,0.208699435,642.0825806,642.0691528,706.2186279,706.2437744,-0.000133607,4.75E-07,-8.16E-07,-6.39E-07,5.77E-07,6.64E-07,3.80E-08,0.93658644,-1.10E-05,-4.37E-06,-3.83E-05,-96.65712738,-13.94831848,-6.26E-07,7.98E-07,0.661
4.92E-06,-0.015985852,0.023521513,-0.01847057,0.016547667,-0.357981592,0.326294959,-0.18773295,0.192148134,642.0924072,642.0700684,706.2262573,706.2327271,-0.000133617,4.07E-07,-9.08E-07,-7.81E-07,4.43E-07,4.90E-07,4.75E-09,0.93658632,-1.04E-05,2.35E-05,-9.04E-05,-96.65712738,-13.94831848,-5.46E-07,2.31E-07,0.671
4.94E-06,-0.014949098,0.020874895,-0.013066941,0.013618859,-0.360795826,0.344866902,-0.186144471,0.180167139,642.0966187,642.074646,706.2305908,706.2255859,-0.000133618,3.31E-07,-7.54E-07,-7.00E-07,2.85E-07,3.14E-07,1.04E-08,0.936586261,-7.91E-06,2.58E-05,-8.36E-05,-96.65712738,-13.94831848,-3.19E-07,-7.07E-07,0.681
4.95E-06,-0.011364909,0.013801233,-0.008593589,0.009168774,-0.362861246,0.363058299,-0.180528998,0.174145848,642.0942993,642.0807495,706.2301025,706.225647,-0.000133623,2.97E-07,-4.78E-07,-4.64E-07,1.77E-07,1.79E-07,1.26E-07,0.936586201,-4.86E-06,1.11E-05,-4.22E-05,-96.65712738,-13.94831848,-1.49E-07,-1.39E-06,0.691
4.97E-06,-0.006287232,0.005537479,-0.004711359,0.00503427,-0.360919654,0.387673497,-0.172140732,0.15186967,642.0881348,642.0881958,706.2277832,706.2282715,-0.000133638,3.12E-07,-1.57E-07,-1.51E-07,6.23E-08,2.50E-08,2.06E-07,0.936586142,-1.15E-06,4.49E-06,-8.66E-05,-96.65712738,-13.94831848,-1.07E-07,-1.48E-06,0.701
4.99E-06,-0.0015865,-0.001192613,-0.00093513,0.00156739,-0.268937469,0.252696753,-0.165471837,0.16978249,642.0701294,642.0751953,706.2240601,706.2315063,-0.00013366,3.51E-07,2.44E-08,-4.28E-08,-6.85E-09,-5.10E-08,-4.10E-08,0.936586142,-2.76E-08,-1.34E-05,0.000134543,-96.65712738,-13.94831848,-1.70E-07,-1.15E-06,0.711
5.02E-06,0.00161645,-0.000828633,0.001677566,0.002312523,-0.218393132,0.263346821,-0.162578464,0.176782802,642.0611572,642.0661621,706.2311401,706.2400513,-0.000133652,3.79E-07,6.05E-08,1.65E-08,-3.35E-08,-5.85E-08,2.93E-08,0.936586142,8.01E-07,4.37E-05,0.000152652,-96.65712738,-13.94831848,-1.22E-07,-6.40E-07,0.721
5.07E-06,0.007885277,-0.003097528,0.007483491,0.003253974,-0.308114708,0.355747551,-0.101756699,0.117586993,642.0785522,642.1016235,706.2157593,706.2286987,-0.000133617,4.38E-07,5.64E-07,5.45E-07,7.05E-08,-4.00E-08,9.45E-06,0.936586201,4.12E-06,6.48E-05,0.000381206,-96.65712738,-13.94831848,3.14E-07,1.84E-06,0.731
5.14E-06,0.005274427,-0.007544144,0.0054936,-0.000331397,-0.383633822,0.369046032,-0.159487799,0.190168768,642.1014404,642.1152344,706.2183228,706.2426758,-0.000133602,4.92E-07,5.45E-07,4.24E-07,3.18E-07,2.74E-07,2.38E-06,0.936586201,1.04E-06,6.46E-07,4.63E-05,-96.65712738,-13.94831848,6.42E-07,3.96E-06,0.741
5.20E-06,-0.005688253,-0.003802898,-0.001729284,0.001340908,-0.316375464,0.329858065,-0.220813423,0.224131897,642.1074219,642.0946045,706.2474365,706.2583008,-0.000133616,4.70E-07,6.83E-08,-1.09E-07,3.60E-07,2.76E-07,4.14E-07,0.936586201,-2.63E-06,-4.92E-05,-0.000136682,-96.65712738,-13.94831848,4.51E-07,3.61E-06,0.751
5.26E-06,-0.004790831,-0.002186954,0.001646525,0.002914633,-0.34374696,0.359412283,-0.241513878,0.226451263,642.0893555,642.0882568,706.2587891,706.2536011,-0.000133621,4.38E-07,4.13E-07,3.30E-07,2.68E-07,1.47E-07,8.11E-06,0.936586201,1.14E-06,1.95E-06,7.76E-05,-96.65712738,-13.94831848,2.34E-07,4.31E-06,0.761
5.30E-06,0.001228035,-0.001066186,0.006034783,0.001050635,-0.401628256,0.397944003,-0.22815381,0.24136591,642.1057739,642.1027222,706.2487793,706.2492065,-0.000133602,4.24E-07,4.11E-07,4.00E-07,3.38E-07,2.80E-07,-6.62E-07,0.936586201,5.38E-07,3.26E-05,1.99E-05,-96.65712738,-13.94831848,3.71E-07,4.50E-06,0.771
5.35E-06,-7.53E-06,0.00050002,0.001848012,0.000120363,-0.425605208,0.414117783,-0.250074029,0.245893896,642.1110229,642.1064453,706.2426758,706.2485962,-0.00013358,4.23E-07,3.21E-07,2.96E-07,3.58E-07,3.98E-07,-1.20E-06,0.936586201,-7.08E-07,7.37E-06,-7.39E-05,-96.65712738,-13.94831848,5.48E-07,4.41E-06,0.781
5.40E-06,-0.001764487,0.001082926,-0.00242807,-0.001858506,-0.424986661,0.419847906,-0.250866085,0.245301113,642.1063843,642.1000977,706.243103,706.2449951,-0.000133571,4.06E-07,2.17E-07,2.34E-07,2.50E-07,3.44E-07,9.66E-07,0.936586201,-7.38E-07,-1.95E-05,-3.07E-05,-96.65712738,-13.94831848,4.83E-07,3.85E-06,0.791
5.47E-06,-0.001369817,0.001778343,-0.004207785,-0.003406394,-0.425959647,0.41893658,-0.237356424,0.24042283,642.0997925,642.0941772,706.2387085,706.2397461,-0.000133576,3.88E-07,1.67E-07,2.66E-07,2.37E-07,3.51E-07,4.96E-07,0.936586201,-8.47E-07,-2.66E-05,-5.78E-07,-96.65712738,-13.94831848,2.56E-07,3.61E-06,0.801
5.54E-06,-0.001171179,0.003924168,-0.006393823,-0.003091722,-0.401820242,0.394249678,-0.225521326,0.240751475,642.0958862,642.0880127,706.2321777,706.2374878,-0.00013359,3.79E-07,5.59E-08,2.09E-07,3.15E-07,4.50E-07,3.46E-07,0.936586201,-2.20E-06,-3.44E-05,4.40E-06,-96.65712738,-13.94831848,-1.08E-09,3.45E-06,0.811
5.62E-06,-0.001561396,0.006586475,-0.008862896,-0.000460365,-0.363855958,0.347957701,-0.223951042,0.242825583,642.0825806,642.0776978,706.2270508,706.2384033,-0.000133601,3.88E-07,6.31E-08,2.12E-07,4.40E-07,5.95E-07,6.94E-07,0.936586142,-3.32E-06,-2.15E-05,3.29E-07,-96.65712738,-13.94831848,-2.14E-07,3.85E-06,0.821
5.69E-06,-0.001457802,0.010186195,-0.009427514,0.003667172,-0.265909702,0.250862688,-0.229911044,0.239656419,642.069397,642.0633545,706.2252197,706.2370605,-0.000133588,3.96E-07,1.42E-08,1.07E-07,4.73E-07,6.42E-07,3.54E-06,0.936586142,-4.14E-06,-1.25E-06,-5.28E-05,-96.65712738,-13.94831848,-2.45E-07,3.97E-06,0.831
5.74E-06,-0.000438302,0.013817342,-0.00621336,0.007584919,-0.219905525,0.130088717,-0.241185844,0.230995193,642.0557251,642.0422974,706.2260742,706.2303467,-0.000133522,3.79E-07,-9.38E-08,-1.16E-07,3.51E-07,5.51E-07,-1.27E-07,0.936586082,-5.01E-06,8.04E-05,-0.000217836,-96.65712738,-13.94831848,8.49E-08,3.31E-06,0.841
5.76E-06,-0.005675705,0.024107773,-0.005553848,0.013001041,-0.333738446,0.241361007,-0.21608384,0.194865644,642.1067505,642.0537109,706.2279053,706.2156982,-0.000133404,2.65E-07,-1.04E-06,-1.04E-06,1.27E-07,2.97E-07,-1.11E-08,0.936585963,-1.00E-05,0.000123124,-0.000389288,-96.65712738,-13.94831848,8.96E-07,-1.02E-06,0.851
5.80E-06,-0.015694542,0.023827473,-0.009938022,0.015445163,-0.353846431,0.337824374,-0.14411585,0.140293747,642.1309814,642.0860596,706.2145386,706.1989746,-0.00013331,1.61E-07,-9.90E-07,-1.12E-06,1.51E-07,2.00E-07,-9.71E-07,0.936585903,-9.60E-06,5.24E-05,-0.000165005,-96.65712738,-13.94831848,1.65E-06,-3.79E-06,0.861
5.85E-06,-0.018377084,0.007410296,-0.014615452,0.009360086,-0.295340449,0.397444874,-0.126460969,0.154304549,642.1033936,642.1079102,706.2044067,706.2094727,-0.000133305,2.06E-07,-1.66E-07,-3.27E-07,2.63E-07,2.31E-07,1.54E-07,0.936585844,-3.37E-06,-9.10E-05,0.00034297,-96.65712738,-13.94831848,1.54E-06,-3.03E-06,0.871
5.90E-06,-0.010857754,-0.008536737,-0.013301402,0.001758598,-0.305089742,0.283937037,-0.168686152,0.211983517,642.0653076,642.0991211,706.2106934,706.25,-0.000133369,3.73E-07,2.91E-07,2.03E-07,4.78E-07,3.90E-07,2.66E-09,0.936585784,-1.84E-06,-0.000126888,0.000119776,-96.65712738,-13.94831848,6.02E-07,2.43E-07,0.881
5.95E-06,-0.008158714,-0.004256535,-0.009274096,0.007266066,-0.183258012,0.2418717,-0.21032235,0.200495228,642.0619507,642.0769653,706.2305298,706.2611084,-0.000133431,4.44E-07,6.18E-08,2.85E-08,3.91E-07,1.93E-07,6.14E-08,0.936585784,-1.40E-06,-5.62E-05,0.000114488,-96.65712738,-13.94831848,-2.36E-07,1.51E-06,0.891
6.02E-06,0.00171898,-0.003832846,0.005631819,0.005756949,-0.303451389,0.318570346,-0.136143759,0.189198881,642.0861206,642.088623,706.239563,706.2382202,-0.000133447,4.28E-07,2.18E-07,2.32E-07,4.92E-08,-1.95E-07,-4.40E-08,0.936585784,1.90E-06,5.06E-05,0.000438078,-96.65712738,-13.94831848,-2.61E-07,2.12E-06,0.901
6.09E-06,0.000989604,-0.003387975,0.007986964,0.003564446,-0.380357266,0.366063118,-0.16405642,0.138972774,642.1127319,642.1063843,706.232605,706.2297363,-0.000133456,4.10E-07,2.87E-07,2.30E-07,2.03E-07,1.66E-08,-2.33E-07,0.936585784,1.15E-06,3.38E-05,-0.000115278,-96.65712738,-13.94831848,1.07E-07,2.97E-06,0.911
6.14E-06,-0.005298552,-0.004566014,0.003954892,-0.000509439,-0.260947466,0.288174957,-0.182137176,0.160095111,642.1074219,642.0875244,706.2443237,706.2322998,-0.000133493,3.60E-07,5.26E-08,-1.00E-07,8.27E-08,-5.04E-08,4.26E-08,0.936585784,4.88E-08,-4.42E-05,-0.000111616,-96.65712738,-13.94831848,1.03E-07,1.21E-06,0.921
6.19E-06,-0.005335975,-0.003397795,0.002945232,-4.91E-05,-0.213760421,0.206845999,-0.185901567,0.15697439,642.0756836,642.0650024,706.2491455,706.2424316,-0.000133525,3.40E-07,9.59E-08,6.47E-09,1.07E-07,-1.11E-08,3.41E-09,0.936585784,6.51E-08,-1.90E-05,-0.000149806,-96.65712738,-13.94831848,-1.51E-07,4.49E-07,0.931
6.23E-06,-0.001066618,0.001609075,0.005006897,0.004738774,-0.292382509,0.234025493,-0.13763541,0.12373624,642.0853882,642.0725708,706.2375488,706.2371826,-0.000133514,3.38E-07,-1.92E-07,-1.99E-07,6.82E-08,-5.58E-08,1.48E-08,0.936585784,-1.93E-06,6.37E-05,-0.000301212,-96.65712738,-13.94831848,-1.49E-08,-1.00E-06,0.941
6.29E-06,-0.004876884,0.006810002,0.000846203,0.008723482,-0.359832108,0.336709261,-0.090193473,0.103044041,642.1203003,642.0986938,706.2279663,706.2271729,-0.000133494,3.10E-07,-5.58E-07,-5.87E-07,1.11E-08,-8.82E-08,2.05E-07,0.936585784,-4.45E-06,5.07E-05,-4.69E-05,-96.65712738,-13.94831848,4.26E-07,-2.95E-06,0.951
6.34E-06,-0.010117306,0.001605411,-0.005459358,0.006378951,-0.321612865,0.394521564,-0.076686524,0.090561137,642.1131592,642.1148071,706.2245483,706.229187,-0.000133521,3.24E-07,-1.60E-07,-2.47E-07,5.93E-08,-5.58E-08,6.28E-06,0.936585724,-1.36E-06,-5.09E-05,0.000270128,-96.65712738,-13.94831848,4.64E-07,-2.42E-06,0.961
6.38E-06,-0.007683337,-0.007021818,-0.006096132,0.00075615,-0.255348831,0.221106291,-0.130069614,0.167014167,642.078125,642.0905151,706.2318726,706.255127,-0.000133591,4.01E-07,2.90E-08,-5.54E-08,2.09E-07,1.20E-07,-3.16E-09,0.936585724,-1.86E-06,-0.000105583,5.82E-06,-96.65712738,-13.94831848,-1.14E-07,-5.64E-07,0.971
6.41E-06,-0.002872515,-0.002381761,-0.003812948,0.004541742,-0.258289665,0.30365175,-0.195742369,0.184826106,642.0653076,642.0836792,706.2487793,706.2702637,-0.00013363,4.52E-07,2.27E-07,2.71E-07,2.33E-07,1.39E-07,-1.22E-07,0.936585724,7.19E-07,4.68E-06,4.83E-05,-96.65712738,-13.94831848,-5.54E-07,1.51E-06,0.981
6.44E-06,0.008950316,-0.00308989,0.007729897,0.002593422,-0.321002156,0.372191489,-0.125375688,0.175638989,642.0952148,642.1134644,706.2441406,706.2554932,-0.00013362,4.81E-07,5.72E-07,6.35E-07,1.46E-07,2.30E-08,-1.17E-07,0.936585724,3.90E-06,7.47E-05,0.000324331,-96.65712738,-13.94831848,-2.63E-07,3.40E-06,0.991
6.49E-06,0.00776419,-0.004353506,0.00585255,0.000109284,-0.38590464,0.394413143,-0.192856789,0.219590873,642.1072998,642.12146,706.234436,706.2595825,-0.000133601,5.31E-07,7.20E-07,6.91E-07,4.85E-07,5.08E-07,-1.48E-06,0.936585784,1.42E-06,3.04E-05,9.18E-05,-96.65712738,-13.94831848,2.12E-07,6.34E-06,1.001
6.57E-06,0.001505433,-0.002111521,-0.000899296,-0.00249641,-0.422866494,0.408765763,-0.238326326,0.233099237,642.111145,642.1107788,706.2493896,706.2601929,-0.000133597,5.27E-07,4.65E-07,4.59E-07,4.03E-07,4.95E-07,3.02E-06,0.936585784,-1.50E-07,-1.70E-05,-4.84E-05,-96.65712738,-13.94831848,2.73E-07,6.73E-06,1.011
6.66E-06,-0.001187592,0.001684253,-0.002138434,-0.004568011,-0.429807901,0.413274616,-0.251794308,0.23317495,642.1107178,642.0977783,706.255127,706.2490234,-0.000133604,4.58E-07,2.38E-07,3.30E-07,2.74E-07,3.80E-07,1.57E-06,0.936585784,-4.68E-07,-2.42E-05,-0.000109744,-96.65712738,-13.94831848,8.13E-08,5.98E-06,1.021
6.76E-06,-0.000558565,0.005050917,-0.001499475,-0.007069863,-0.425824076,0.379249007,-0.250566751,0.212444171,642.1070557,642.0860596,706.2521973,706.2352295,-0.000133612,3.66E-07,1.08E-08,1.87E-07,8.33E-08,2.48E-07,6.47E-07,0.936585784,-6.60E-07,-1.93E-05,-0.000279381,-96.65712738,-13.94831848,-1.01E-07,4.12E-06,1.031
6.87E-06,-0.005981787,0.013836345,-0.006147988,-0.003468596,-0.410144955,0.30295074,-0.167936862,0.212879971,642.1072388,642.0551147,706.2322998,706.2237549,-0.000133616,2.47E-07,-8.82E-07,-6.80E-07,2.37E-07,4.43E-07,1.54E-09,0.936585724,-9.48E-06,-5.31E-06,-0.000250738,-96.65712738,-13.94831848,-2.04E-07,3.84E-07,1.041
6.97E-06,-0.017989526,0.029294964,-0.023465363,0.011129451,-0.379801244,0.321509361,-0.168748528,0.214874774,642.1010742,642.0583496,706.2169189,706.2325439,-0.000133613,1.93E-07,-1.24E-06,-9.97E-07,7.11E-07,9.83E-07,3.35E-08,0.936585605,-1.59E-05,-3.13E-06,-0.000189826,-96.65712738,-13.94831848,-2.53E-07,-1.12E-06,1.051
7.05E-06,-0.02235724,0.033965334,-0.033454403,0.022123197,-0.360653311,0.326039195,-0.174750641,0.199647903,642.0892944,642.0703735,706.2134399,706.2358398,-0.000133607,2.19E-07,-1.17E-06,-9.87E-07,7.82E-07,1.01E-06,1.58E-07,0.936585426,-1.57E-05,2.97E-06,-0.000108415,-96.65712738,-13.94831848,-2.74E-07,-1.75E-06,1.061
7.12E-06,-0.01988337,0.029278887,-0.031017432,0.023550596,-0.358104318,0.338661879,-0.172852606,0.187145978,642.0853882,642.074646,706.2137451,706.230835,-0.000133601,2.55E-07,-1.03E-06,-8.95E-07,5.89E-07,7.35E-07,3.92E-07,0.936585307,-1.26E-05,9.44E-06,-1.47E-05,-96.65712738,-13.94831848,-2.31E-07,-2.07E-06,1.071
7.16E-06,-0.015591929,0.021746028,-0.02356131,0.018753588,-0.363907963,0.355171591,-0.166004226,0.181112915,642.0875244,642.0766602,706.2149658,706.2261963,-0.000133603,2.75E-07,-8.22E-07,-7.27E-07,4.09E-07,4.92E-07,2.96E-06,0.936585188,-9.32E-06,5.32E-06,4.74E-05,-96.65712738,-13.94831848,-1.68E-07,-2.01E-06,1.081
7.19E-06,-0.012276104,0.014702585,-0.017077774,0.013410428,-0.366139442,0.367327988,-0.166488648,0.183189988,642.0876465,642.0794067,706.2167358,706.2272949,-0.000133617,2.97E-07,-5.75E-07,-5.09E-07,3.46E-07,3.74E-07,-1.69E-07,0.936585069,-6.77E-06,-7.39E-06,6.70E-05,-96.65712738,-13.94831848,-1.71E-07,-1.56E-06,1.091
7.21E-06,-0.009179558,0.008795667,-0.012073734,0.009639787,-0.357204914,0.37077716,-0.179975003,0.190072909,642.0835571,642.0823975,706.2208862,706.2330933,-0.000133642,3.32E-07,-3.05E-07,-2.65E-07,3.09E-07,2.91E-07,-2.07E-08,0.936585069,-4.26E-06,-1.48E-05,6.93E-05,-96.65712738,-13.94831848,-2.55E-07,-8.10E-07,1.101
7.22E-06,-0.004178864,0.003217383,-0.005886269,0.006063607,-0.296298415,0.350173444,-0.206214711,0.192324147,642.0755005,642.0830688,706.2282104,706.2375488,-0.000133666,3.72E-07,1.63E-08,1.80E-08,1.65E-07,1.18E-07,3.57E-09,0.936585009,-3.18E-07,-7.35E-06,-3.10E-05,-96.65712738,-13.94831848,-3.30E-07,6.93E-08,1.111
7.24E-06,0.002806529,-0.002294184,0.002536432,0.001686979,-0.357272297,0.374992669,-0.162727177,0.201984152,642.0782471,642.088501,706.2258911,706.2375488,-0.000133675,4.07E-07,2.75E-07,2.89E-07,1.72E-07,8.38E-08,-4.30E-08,0.936585009,1.20E-06,1.66E-05,0.000172825,-96.65712738,-13.94831848,-2.43E-07,1.39E-06,1.121
7.27E-06,0.002424653,-0.001909539,0.001948398,0.002089699,-0.399088681,0.400935322,-0.220960379,0.227140978,642.0917969,642.0974731,706.2297363,706.24646,-0.000133678,4.47E-07,2.81E-07,2.67E-07,2.84E-07,2.44E-07,-4.30E-07,0.936585009,1.09E-07,1.64E-05,2.05E-05,-96.65712738,-13.94831848,-6.50E-08,2.69E-06,1.131
7.30E-06,-0.000235184,-0.001096405,0.001288546,0.001725487,-0.420636982,0.413957566,-0.245518759,0.237747356,642.1004639,642.0974121,706.242981,706.2474976,-0.00013368,4.39E-07,1.78E-07,1.26E-07,1.78E-07,1.26E-07,-1.21E-06,0.936585009,-4.68E-08,5.36E-06,-3.01E-05,-96.65712738,-13.94831848,3.72E-08,2.64E-06,1.141
7.33E-06,-0.001323606,-0.000670695,0.002156029,0.000845194,-0.417347789,0.418682069,-0.2427959,0.244861901,642.1003418,642.0924072,706.2457275,706.2426758,-0.000133682,4.08E-07,1.59E-07,1.17E-07,1.57E-07,1.06E-07,-2.48E-06,0.936585009,1.42E-08,3.19E-06,2.32E-05,-96.65712738,-13.94831848,8.76E-08,2.40E-06,1.151
7.35E-06,-0.000872824,1.47E-05,0.001358224,-2.11E-06,-0.426550359,0.424934864,-0.251906574,0.250394225,642.0969849,642.0922241,706.2416992,706.2421265,-0.000133682,3.98E-07,1.93E-07,1.95E-07,2.05E-07,2.05E-07,-1.81E-06,0.936585009,-9.35E-08,2.05E-06,-2.70E-05,-96.65712738,-13.94831848,1.20E-07,2.46E-06,1.161
7.38E-06,-5.78E-05,0.00093788,5.39E-06,-0.000902809,-0.433070928,0.423540056,-0.25832364,0.250104159,642.0961304,642.0923462,706.239624,706.2415771,-0.000133678,3.94E-07,1.34E-07,1.65E-07,1.44E-07,1.90E-07,-1.09E-06,0.936585009,-1.58E-07,3.08E-07,-6.19E-05,-96.65712738,-13.94831848,1.29E-07,2.10E-06,1.171
7.41E-06,-0.000408968,0.002582734,-0.001119993,-0.000961751,-0.410861313,0.342683226,-0.241268218,0.248578712,642.0957642,642.0818481,706.2376099,706.237915,-0.000133671,3.71E-07,-1.27E-07,-1.07E-07,7.94E-08,1.52E-07,-7.96E-08,0.936585009,-2.32E-06,2.22E-07,-0.000104679,-96.65712738,-13.94831848,1.22E-07,1.00E-06,1.181
7.44E-06,-0.00701639,0.01085087,-0.006801536,0.005405868,-0.38876769,0.347730696,-0.20553565,0.230018452,642.0939331,642.0665894,706.2264404,706.2337036,-0.000133654,3.27E-07,-5.80E-07,-5.39E-07,2.98E-07,3.80E-07,-1.59E-09,0.93658495,-7.29E-06,1.26E-05,-0.00011664,-96.65712738,-13.94831848,1.72E-07,-2.45E-07,1.191
7.46E-06,-0.011796176,0.016930029,-0.013247666,0.011776336,-0.371043325,0.344126046,-0.190264732,0.20628877,642.0916138,642.0724487,706.2192993,706.2288818,-0.000133631,3.09E-07,-6.59E-07,-6.16E-07,3.87E-07,4.78E-07,-7.77E-08,0.93658489,-8.58E-06,1.56E-05,-7.94E-05,-96.65712738,-13.94831848,2.95E-07,-8.66E-07,1.201
7.47E-06,-0.012913474,0.016094435,-0.015364275,0.013372156,-0.358548909,0.351226449,-0.18019177,0.193684518,642.0889282,642.0789185,706.2177734,706.2279663,-0.000133612,3.13E-07,-5.68E-07,-5.64E-07,3.72E-07,4.38E-07,5.66E-07,0.93658483,-7.57E-06,4.73E-06,-6.49E-06,-96.65712738,-13.94831848,3.79E-07,-1.09E-06,1.211
7.49E-06,-0.010787488,0.010737397,-0.012858725,0.011352311,-0.34205696,0.362386435,-0.181984872,0.189881355,642.0853271,642.0852661,706.2198486,706.2304077,-0.000133604,3.37E-07,-3.04E-07,-3.27E-07,3.15E-07,3.26E-07,1.51E-08,0.936584771,-4.68E-06,-8.78E-06,7.20E-05,-96.65712738,-13.94831848,3.65E-07,-5.78E-07,1.221
7.52E-06,-0.00391923,0.001548382,-0.005615158,0.005518267,-0.322081983,0.372773677,-0.21036154,0.20622462,642.0725708,642.0932617,706.2265625,706.236084,-0.000133604,3.86E-07,3.34E-07,2.81E-07,1.84E-07,1.59E-07,3.11E-08,0.936584711,1.46E-06,-7.16E-06,0.000230808,-96.65712738,-13.94831848,2.84E-07,1.29E-06,1.231
7.55E-06,0.003354552,-0.005346514,0.003028712,-0.000305827,-0.381707102,0.370923579,-0.185292468,0.171744868,642.0883789,642.0979004,706.2328491,706.2398682,-0.000133603,4.21E-07,3.43E-07,3.12E-07,7.72E-08,-1.33E-08,-1.88E-07,0.936584771,2.52E-06,1.41E-05,-5.70E-05,-96.65712738,-13.94831848,2.59E-07,1.98E-06,1.241
7.59E-06,-0.0013082,-0.003096226,0.003181303,0.001030847,-0.288874328,0.342351466,-0.190002546,0.189382717,642.0960693,642.0822754,706.2279663,706.2322388,-0.000133612,3.98E-07,1.13E-08,-8.42E-08,1.95E-07,9.53E-08,6.66E-07,0.936584771,-7.48E-07,-1.84E-05,-8.33E-05,-96.65712738,-13.94831848,2.72E-07,1.56E-06,1.251
7.63E-06,-0.002288829,-0.001464899,0.001580793,0.000976649,-0.343515605,0.336740851,-0.229054406,0.222797871,642.0855103,642.078186,706.2426147,706.2402344,-0.000133612,3.85E-07,1.21E-07,6.31E-08,1.22E-07,8.35E-08,-2.12E-07,0.936584771,-1.17E-07,3.82E-06,-5.45E-05,-96.65712738,-13.94831848,2.31E-07,1.56E-06,1.261
7.67E-06,-0.000611321,0.00018207,0.003153114,0.001996374,-0.397442311,0.389377058,-0.214944467,0.185989469,642.1029663,642.0965576,706.2443848,706.241272,-0.000133599,3.74E-07,8.97E-08,5.79E-08,1.00E-07,1.43E-08,-1.06E-08,0.936584771,2.99E-07,3.58E-05,-0.000249367,-96.65712738,-13.94831848,3.22E-07,1.02E-06,1.271
7.70E-06,-0.001891993,-0.001370636,0.003569954,0.001913046,-0.320869356,0.288454086,-0.170882776,0.156943098,642.0967407,642.0898438,706.230896,706.2285767,-0.000133594,3.62E-07,8.68E-08,-4.07E-08,6.37E-08,-3.32E-08,-4.36E-09,0.936584771,-8.58E-08,-2.51E-06,-8.18E-05,-96.65712738,-13.94831848,4.48E-07,2.99E-07,1.281
7.73E-06,-0.002337427,-0.001935758,0.001155728,0.000564907,-0.255533278,0.2697846,-0.16510345,0.178477943,642.0769043,642.0717773,706.2313843,706.2315063,-0.00013359,3.62E-07,3.29E-08,-5.33E-08,1.68E-11,-9.19E-09,6.64E-10,0.936584771,-1.85E-08,-1.78E-07,0.000354531,-96.65712738,-13.94831848,4.17E-07,-1.97E-07,1.291
7.76E-06,9.97E-07,-0.000231277,0.001407783,0.001455091,-0.284393042,0.283921182,-0.137467787,0.146929979,642.0852051,642.0830688,706.2302856,706.2338867,-0.000133571,3.70E-07,1.16E-08,-1.16E-08,2.88E-08,-1.40E-08,-2.12E-09,0.936584771,-1.17E-07,1.96E-05,-0.000149798,-96.65712738,-13.94831848,4.39E-07,-2.50E-07,1.301
7.81E-06,-0.000349968,-0.0006919,0.00202615,0.002650181,-0.304455072,0.286391109,-0.130334601,0.126090318,642.0957031,642.0946045,706.2229004,706.227417,-0.000133555,3.78E-07,4.21E-08,-3.52E-08,3.83E-08,-3.80E-08,-4.06E-09,0.936584771,-9.75E-08,3.30E-06,-9.87E-05,-96.65712738,-13.94831848,5.67E-07,-2.18E-07,1.311
7.86E-06,-0.002406472,-0.002779288,0.000513498,0.001165376,-0.251208633,0.25946489,-0.168836698,0.173377767,642.0872803,642.0854492,706.2345581,706.2387085,-0.00013355,3.83E-07,6.09E-08,-7.91E-08,1.73E-08,-2.12E-08,-3.18E-09,0.936584771,-1.17E-08,-2.17E-05,-9.76E-05,-96.65712738,-13.94831848,5.34E-07,-1.75E-07,1.321
7.92E-06,-0.001781836,-0.002073061,0.001991518,0.00247208,-0.274551332,0.268543869,-0.150090471,0.152132794,642.0881348,642.0860596,706.2402954,706.2434692,-0.000133538,3.85E-07,4.94E-08,-5.22E-08,4.51E-08,-6.15E-08,8.28E-09,0.936584771,-1.71E-08,1.19E-05,2.76E-05,-96.65712738,-13.94831848,4.83E-07,-9.72E-08,1.331
7.97E-06,-0.001234082,-0.001373743,0.003569631,0.003854469,-0.290140599,0.289505065,-0.13449055,0.13546212,642.0985718,642.0961914,706.2337036,706.2365112,-0.000133521,3.87E-07,5.11E-08,-4.49E-08,5.52E-08,-6.33E-08,9.21E-09,0.936584771,4.13E-08,1.64E-05,3.99E-05,-96.65712738,-13.94831848,6.12E-07,-4.37E-08,1.341
8.02E-06,-0.002424094,-0.002481799,0.002010255,0.002128141,-0.26002273,0.261010706,-0.154174253,0.153895468,642.09552,642.0927124,706.2356567,706.2384033,-0.000133512,3.87E-07,6.22E-08,-6.86E-08,3.21E-08,-3.24E-08,-2.53E-08,0.936584771,-5.31E-10,-1.14E-05,-1.72E-05,-96.65712738,-13.94831848,6.71E-07,-4.84E-08,1.351
8.06E-06,-0.002184548,-0.002219409,0.00112456,0.001171721,-0.2579422,0.257331759,-0.164027467,0.163929522,642.0910034,642.0884399,706.2432251,706.2460938,-0.0001335,3.88E-07,5.15E-08,-5.00E-08,2.38E-08,-2.26E-08,-3.28E-08,0.936584771,5.45E-09,1.78E-07,-1.12E-05,-96.65712738,-13.94831848,6.04E-07,-4.63E-08,1.361
8.09E-06,-0.001001565,-0.001031733,0.002184336,0.002240372,-0.282634407,0.282395482,-0.138746381,0.1385023,642.0976563,642.0951538,706.2366943,706.239624,-0.000133482,3.89E-07,3.05E-08,-3.10E-08,3.74E-08,-3.91E-08,1.00E-07,0.936584771,1.19E-08,1.07E-05,3.07E-06,-96.65712738,-13.94831848,6.33E-07,-5.79E-08,1.371
8.12E-06,-0.001336109,-0.0013823,0.001026501,0.00108991,-0.258399248,0.258415252,-0.159866944,0.164862678,642.0965576,642.0941162,706.2352295,706.2382813,-0.000133469,3.90E-07,4.18E-08,-4.25E-08,7.75E-09,-1.07E-08,4.86E-09,0.936584771,-2.52E-08,-1.34E-05,9.23E-05,-96.65712738,-13.94831848,6.62E-07,-5.62E-08,1.381
8.14E-06,-0.00072699,-0.001687918,0.000541983,-0.000792967,-0.243733168,0.259310216,-0.20766297,0.186013281,642.0931396,642.0887451,706.2468872,706.2439575,-0.000133455,3.82E-07,1.58E-09,-6.08E-08,-1.46E-07,-1.18E-07,-6.03E-09,0.936584771,1.08E-06,-2.28E-05,-0.000134714,-96.65712738,-13.94831848,5.91E-07,-5.74E-07,1.391
8.15E-06,0.002465472,-0.001450029,0.003650002,-0.002091926,-0.211784035,0.218464196,-0.217659846,0.220085874,642.0897217,642.0848999,706.2537231,706.2489624,-0.00013342,3.67E-07,5.17E-08,-2.73E-08,-2.18E-07,-1.76E-07,3.26E-08,0.936584771,1.67E-06,1.35E-05,5.63E-05,-96.65712738,-13.94831848,5.85E-07,-9.87E-07,1.401
8.16E-06,0.003642104,0.001372777,0.004037763,0.001596397,-0.195477977,0.19724755,-0.156114757,0.184095547,642.0872803,642.0849609,706.236145,706.2460327,-0.000133353,3.82E-07,4.11E-08,-4.07E-08,4.38E-08,8.30E-08,1.16E-08,0.936584771,-6.21E-07,4.67E-05,6.32E-05,-96.65712738,-13.94831848,8.55E-07,-4.09E-07,1.411
8.17E-06,0.002651047,0.003265852,0.000744285,0.003356288,-0.189852819,0.19699806,-0.20447655,0.167815417,642.0870361,642.0893555,706.2278442,706.2322998,-0.00013327,4.01E-07,4.55E-08,-4.56E-08,-1.22E-07,2.39E-08,-9.90E-09,0.936584771,5.76E-07,4.09E-05,-0.000205231,-96.65712738,-13.94831753,1.26E-06,-4.49E-07,1.421
8.19E-06,0.006884279,-0.001894898,0.002655258,-0.004924512,-0.233494237,0.261671007,-0.228842691,0.187061325,642.0960693,642.1022339,706.2423096,706.2296143,-0.000133187,3.91E-07,2.63E-07,1.89E-07,-5.07E-07,-3.12E-07,2.40E-07,0.93658483,5.28E-06,1.72E-05,4.03E-06,-96.65712738,-13.94831753,1.48E-06,-8.62E-07,1.431
8.21E-06,0.010103,-0.009264234,0.008403454,-0.013184469,-0.275688648,0.247976705,-0.224709794,0.197069243,642.1085815,642.1050415,706.244873,706.2282104,-0.000133131,3.66E-07,2.33E-07,1.52E-07,-6.38E-07,-5.27E-07,-6.86E-08,0.93658489,6.02E-06,-2.17E-05,-9.68E-05,-96.65712738,-13.94831753,1.45E-06,-1.80E-06,1.441
8.25E-06,0.004449022,-0.007967692,0.006584685,-0.012564684,-0.281104744,0.244616643,-0.228589132,0.213417053,642.1043701,642.0827026,706.2417603,706.2288818,-0.000133101,3.17E-07,-2.17E-07,-2.79E-07,-5.84E-07,-5.00E-07,-2.12E-07,0.93658489,2.18E-06,-2.42E-05,-0.000185992,-96.65712738,-13.94831753,1.18E-06,-3.88E-06,1.451
8.30E-06,6.79E-05,-0.002379473,-0.000153872,-0.008144028,-0.368133068,0.361409247,-0.237435132,0.231859103,642.1190186,642.1036377,706.2407227,706.2338867,-0.000133099,2.91E-07,-4.53E-07,-3.49E-07,-4.88E-07,-4.23E-07,-5.90E-07,0.93658495,2.56E-07,-3.60E-05,-8.13E-05,-96.65712738,-13.94831848,8.38E-07,-5.27E-06,1.461
8.38E-06,-0.002351601,-0.00260366,-0.005772593,-0.005646287,-0.396756381,0.399684668,-0.227063492,0.241402775,642.1166992,642.1169434,706.2362671,706.2402954,-0.00013314,3.16E-07,-3.89E-07,-2.65E-07,-3.47E-07,-3.28E-07,-4.62E-07,0.93658495,-1.76E-07,-6.65E-05,6.27E-05,-96.65712738,-13.94831848,3.28E-07,-5.37E-06,1.471
8.46E-06,-0.004974697,-0.002802641,-0.011000476,-0.002690862,-0.396157384,0.407299489,-0.151062056,0.232402623,642.1017456,642.1061401,706.2213135,706.2463989,-0.000133228,3.81E-07,-4.49E-07,-2.46E-07,1.60E-08,-6.89E-09,-1.63E-07,0.93658489,-3.18E-06,-7.21E-05,0.000338002,-96.65712738,-13.94831848,-3.88E-07,-4.09E-06,1.481
8.54E-06,-0.00908794,0.002981453,-0.020370578,0.004776615,-0.363102049,0.341840714,-0.152685806,0.231359735,642.0831909,642.0951538,706.2020874,706.2554932,-0.000133352,4.94E-07,-4.18E-07,-1.06E-07,6.34E-07,6.33E-07,-7.63E-09,0.93658483,-7.60E-06,-9.77E-05,0.000183499,-96.65712738,-13.94831848,-1.19E-06,-3.80E-07,1.491
8.62E-06,-0.014770884,0.014907384,-0.026885804,0.013051873,-0.353151798,0.305519164,-0.174791828,0.217173949,642.0774536,642.0685425,706.2128906,706.2556763,-0.000133472,5.36E-07,-9.18E-07,-5.60E-07,7.10E-07,7.34E-07,1.33E-07,0.936584771,-1.19E-05,-4.84E-05,-1.30E-05,-96.65712738,-13.94831848,-1.86E-06,7.61E-07,1.501
8.69E-06,-0.017984061,0.026037117,-0.024173589,0.01827438,-0.359172136,0.312842459,-0.183619753,0.194015831,642.0886841,642.062561,706.2269897,706.2401733,-0.000133562,4.63E-07,-1.20E-06,-8.56E-07,5.64E-07,5.58E-07,3.98E-08,0.936584652,-1.26E-05,1.11E-05,-0.000112411,-96.65712738,-13.94831848,-2.05E-06,3.68E-07,1.511
8.75E-06,-0.017671952,0.028276142,-0.017353518,0.017047765,-0.364862144,0.330373675,-0.182370156,0.172723532,642.0955811,642.0649414,706.2351685,706.2260742,-0.000133621,3.48E-07,-1.15E-06,-9.11E-07,3.44E-07,3.50E-07,2.79E-08,0.936584532,-1.05E-05,4.15E-05,-0.000151815,-96.65712738,-13.94831848,-1.80E-06,-1.01E-06,1.521
8.79E-06,-0.014364415,0.023007682,-0.011285154,0.012483309,-0.372427493,0.350515217,-0.167454824,0.154468805,642.0944824,642.0698242,706.234375,706.2213135,-0.000133662,2.64E-07,-9.24E-07,-7.80E-07,1.72E-07,1.81E-07,8.56E-08,0.936584413,-7.60E-06,4.03E-05,-0.000137904,-96.65712738,-13.94831848,-1.43E-06,-2.59E-06,1.531
8.84E-06,-0.009990264,0.014980726,-0.007504676,0.008799353,-0.383045942,0.373156965,-0.124596447,0.103985414,642.0908813,642.076355,706.225647,706.218811,-0.000133703,2.41E-07,-7.05E-07,-5.96E-07,3.67E-08,2.73E-09,2.03E-07,0.936584353,-4.70E-06,3.44E-05,-0.000171452,-96.65712738,-13.94831848,-1.14E-06,-3.89E-06,1.541
8.88E-06,-0.006942063,0.006840043,-0.006339348,0.006435587,-0.391715378,0.402372301,-0.073230453,0.078687839,642.0872192,642.0839233,706.2102661,706.2175903,-0.000133764,2.73E-07,-4.94E-07,-3.84E-07,6.36E-08,-2.09E-08,1.58E-06,0.936584294,-3.17E-06,-2.39E-06,-5.42E-05,-96.65712738,-13.94831848,-1.02E-06,-4.03E-06,1.551
8.92E-06,-0.004881581,4.20E-05,-0.007018135,0.003818958,-0.388407469,0.406297237,-0.070832014,0.086954892,642.0807495,642.0900269,706.2113037,706.2303467,-0.000133854,3.46E-07,-2.19E-07,-1.11E-07,8.53E-08,-2.41E-08,-1.34E-07,0.936584294,-1.29E-06,-4.30E-05,8.83E-05,-96.65712738,-13.94831848,-1.19E-06,-2.90E-06,1.561
8.96E-06,-0.004352859,-0.001943462,-0.005482875,0.004195516,-0.381156594,0.38883853,-0.09711989,0.109953292,642.0769043,642.0797119,706.2251587,706.244873,-0.000133955,4.00E-07,-2.79E-07,-1.98E-07,8.02E-08,-8.27E-08,-1.45E-07,0.936584294,-1.68E-06,-3.16E-05,4.03E-05,-96.65712738,-13.94831848,-1.50E-06,-2.20E-06,1.571
9.00E-06,-0.001860314,-0.000749695,-0.000624745,0.005677558,-0.401034892,0.41447854,-0.116602354,0.150880113,642.0822144,642.0852051,706.2434082,706.2528687,-0.000134033,4.18E-07,-1.45E-07,-7.19E-08,8.95E-11,-1.89E-07,-1.36E-08,0.936584294,-2.61E-07,1.94E-05,0.000426326,-96.65712738,-13.94831848,-1.58E-06,-1.33E-06,1.581
9.04E-06,-0.000357848,0.001110472,0.003835507,0.007651686,-0.41915676,0.405192286,-0.129489899,0.13430123,642.0909424,642.0875854,706.2459106,706.2520142,-0.000134076,4.22E-07,-1.48E-07,-1.48E-07,4.85E-08,-1.46E-07,-4.63E-08,0.936584294,-8.11E-07,5.21E-05,8.88E-05,-96.65712738,-13.94831848,-1.29E-06,-7.80E-07,1.591
9.07E-06,-0.001856822,0.003693387,0.004224322,0.008536127,-0.414912105,0.401905954,-0.119321764,0.114139922,642.0952759,642.0844116,706.2409058,706.2421265,-0.000134089,3.99E-07,-2.57E-07,-2.95E-07,3.56E-08,-9.97E-08,2.92E-08,0.936584234,-1.83E-06,5.83E-05,-2.42E-05,-96.65712738,-13.94831848,-7.76E-07,-1.09E-06,1.601
9.10E-06,-0.002941572,0.004367321,0.00193431,0.006846235,-0.405054987,0.402973771,-0.095765345,0.101002663,642.0940552,642.0847168,706.2355957,706.2353516,-0.00013409,3.80E-07,-2.40E-07,-2.79E-07,5.03E-09,-5.78E-08,6.26E-08,0.936584234,-1.76E-06,4.02E-05,2.48E-05,-96.65712738,-13.94831848,-3.16E-07,-1.42E-06,1.611
9.12E-06,-0.001436487,0.00210421,0.000819456,0.002599198,-0.409637928,0.415377706,-0.176500455,0.158330143,642.09198,642.0889893,706.2435913,706.239563,-0.000134086,3.73E-07,-1.30E-07,-1.63E-07,-2.00E-07,-1.69E-07,5.42E-07,0.936584234,5.27E-07,6.83E-06,5.64E-06,-96.65712738,-13.94831848,-6.15E-08,-1.89E-06,1.621
9.14E-06,0.004167017,-0.00142532,0.003851188,-0.001625806,-0.325432241,0.355290353,-0.208818734,0.212837681,642.0806885,642.0897827,706.2581177,706.2578125,-0.000134059,3.86E-07,2.23E-07,1.21E-07,-2.62E-07,-1.97E-07,5.39E-08,0.936584234,3.32E-06,2.31E-05,0.000183163,-96.65712738,-13.94831848,7.38E-08,-1.33E-06,1.631
9.15E-06,0.009787838,-0.001924007,0.007900597,0.001093791,-0.332549572,0.382074326,-0.140823782,0.200095341,642.0736694,642.0934448,706.2376099,706.2582397,-0.000133985,4.49E-07,4.57E-07,3.80E-07,9.53E-08,1.24E-07,1.06E-08,0.936584294,2.41E-06,7.58E-05,0.000376016,-96.65712738,-13.94831848,5.14E-07,9.57E-07,1.641
9.18E-06,0.010696311,-0.000611684,0.003893217,0.003273633,-0.372624308,0.40572083,-0.201507926,0.220482737,642.0834961,642.1121216,706.222229,706.2531128,-0.000133887,5.43E-07,6.62E-07,5.83E-07,2.78E-07,4.48E-07,-1.04E-06,0.936584294,2.05E-06,6.41E-05,0.000159226,-96.65712738,-13.94831848,1.18E-06,4.11E-06,1.651
9.24E-06,0.00869877,-0.001861071,0.000531336,-0.002250464,-0.402199209,0.413020849,-0.238832414,0.231807455,642.0967407,642.1119385,706.2374268,706.250061,-0.000133788,5.65E-07,6.11E-07,4.95E-07,1.02E-07,3.45E-07,-4.69E-06,0.936584353,2.63E-06,2.17E-05,5.06E-05,-96.65712738,-13.94831848,1.57E-06,5.43E-06,1.661
9.31E-06,0.005307458,-0.002594883,0.002266154,-0.006914324,-0.419704855,0.414194852,-0.205558434,0.205624551,642.1056519,642.0996094,706.2369385,706.2346802,-0.000133709,5.10E-07,4.65E-07,3.82E-07,1.09E-07,2.73E-07,1.04E-05,0.936584353,1.88E-06,-7.64E-06,-1.46E-05,-96.65712738,-13.94831848,1.62E-06,5.65E-06,1.671
9.38E-06,0.00146805,-0.00178464,0.001410087,-0.009830534,-0.432991266,0.418159604,-0.218758911,0.176709428,642.1071167,642.0908203,706.2349243,706.2219849,-0.000133663,4.35E-07,3.23E-07,3.19E-07,1.67E-08,1.89E-07,-1.22E-06,0.936584353,1.94E-06,-2.44E-05,-0.000147178,-96.65712738,-13.94831848,1.42E-06,4.66E-06,1.681
9.44E-06,0.001480059,-0.003820525,0.00299209,-0.014925116,-0.429034859,0.39845565,-0.217040435,0.115947843,642.1043091,642.0848389,706.2369995,706.2030029,-0.000133657,3.37E-07,1.60E-07,2.39E-07,-4.38E-07,-3.19E-07,-2.46E-08,0.936584413,4.90E-06,-6.78E-05,-0.000384804,-96.65712738,-13.94831848,9.92E-07,1.60E-06,1.691
9.48E-06,0.005504081,-0.008607512,0.008319515,-0.021794969,-0.274229884,0.267162204,-0.222399503,0.161926016,642.0814819,642.0592041,706.2490234,706.2040405,-0.000133675,2.24E-07,7.97E-08,1.17E-07,-8.54E-07,-7.15E-07,-4.91E-08,0.936584473,7.21E-06,-7.77E-05,-0.00020277,-96.65712738,-13.94831848,3.80E-07,-2.29E-06,1.701
9.52E-06,0.013033443,-0.008974873,0.013329882,-0.018070091,-0.205219686,0.247428313,-0.215366215,0.199975357,642.0548096,642.0492554,706.2445068,706.2210693,-0.000133657,2.03E-07,2.51E-07,2.96E-07,-7.41E-07,-6.33E-07,1.17E-06,0.936584532,7.83E-06,1.21E-05,3.09E-05,-96.65712738,-13.94831848,5.98E-08,-3.84E-06,1.711
9.55E-06,0.022837155,-0.009657822,0.015636476,-0.009254141,-0.25806275,0.327816039,-0.193643585,0.224493489,642.0617676,642.0932007,706.2258911,706.2369385,-0.000133582,3.25E-07,8.10E-07,8.40E-07,-3.87E-07,-3.12E-07,1.98E-08,0.936584652,9.10E-06,9.09E-05,0.000344602,-96.65712738,-13.94831848,4.74E-07,-1.80E-06,1.721
9.58E-06,0.021566246,-0.012428632,0.011594973,-0.003094354,-0.333445847,0.357834101,-0.122279629,0.192828357,642.0823364,642.1237183,706.2022095,706.2426147,-0.000133497,4.98E-07,9.22E-07,8.13E-07,5.65E-08,7.23E-08,1.81E-08,0.936584711,5.64E-06,6.71E-05,0.000504343,-96.65712738,-13.94831848,1.19E-06,1.69E-06,1.731
9.63E-06,0.005495589,-0.009223138,-0.000334167,0.000383492,-0.395492405,0.355417818,-0.192712665,0.227860704,642.1001587,642.1151123,706.2073975,706.2460938,-0.000133456,5.76E-07,3.74E-07,2.06E-07,3.18E-07,3.57E-07,4.08E-07,0.936584711,-1.10E-06,-2.32E-05,6.02E-05,-96.65712738,-13.94831848,1.41E-06,3.91E-06,1.741
9.68E-06,-0.00811422,-0.0028718,-0.007686806,0.002943339,-0.279086858,0.347925901,-0.211435214,0.235953957,642.0874634,642.0901489,706.2302856,706.2444458,-0.000133458,5.41E-07,3.52E-07,1.96E-07,4.72E-07,4.38E-07,2.94E-07,0.936584711,-1.35E-06,-5.78E-05,0.000309598,-96.65712738,-13.94831848,9.98E-07,5.62E-06,1.751
9.75E-06,-0.003740365,-0.003743062,-0.001651887,-0.000372105,-0.375198573,0.386275262,-0.24644202,0.241613969,642.0892334,642.0975952,706.2402954,706.2445679,-0.000133469,5.28E-07,6.70E-07,6.72E-07,5.16E-07,4.50E-07,1.69E-06,0.936584711,1.50E-06,-3.02E-05,6.22E-05,-96.65712738,-13.94831848,5.54E-07,7.64E-06,1.761
9.83E-06,-0.000429411,-0.003456113,0.003850055,-0.003646594,-0.419846237,0.402553022,-0.254184842,0.237916276,642.1075439,642.1010742,706.2457886,706.2405396,-0.00013348,4.84E-07,5.38E-07,5.51E-07,4.18E-07,3.50E-07,6.92E-06,0.936584711,1.33E-06,-1.17E-05,-9.09E-05,-96.65712738,-13.94831848,3.29E-07,7.22E-06,1.771
9.89E-06,-0.001835982,-0.002390242,0.003933284,-0.004978375,-0.431247234,0.411968291,-0.254923612,0.228073567,642.1112671,642.0952148,706.2471313,706.234436,-0.000133502,4.18E-07,3.65E-07,3.84E-07,3.20E-07,2.76E-07,2.12E-06,0.936584711,7.11E-07,-2.10E-05,-0.000184637,-96.65712738,-13.94831753,1.61E-07,5.81E-06,1.781
9.95E-06,-0.001710485,-0.002392977,0.003165988,-0.006860384,-0.432355374,0.414758116,-0.239211753,0.175845712,642.1047363,642.090271,706.2471924,706.2263794,-0.000133538,3.54E-07,2.71E-07,3.49E-07,7.74E-08,5.05E-08,5.68E-07,0.936584711,2.20E-06,-1.75E-05,-0.000325588,-96.65712738,-13.94831753,-8.67E-08,3.77E-06,1.791
9.98E-06,-7.19E-05,-0.004076873,0.004286874,-0.009165176,-0.434022307,0.39261809,-0.161027134,0.129671693,642.1000366,642.0826416,706.2307739,706.2084351,-0.000133598,2.92E-07,4.77E-08,1.97E-07,-8.71E-08,-1.46E-07,1.19E-08,0.936584771,1.81E-06,-4.30E-05,-0.000298154,-96.65712738,-13.94831753,-3.85E-07,1.19E-06,1.801
1.00E-05,0.001791669,-0.005676112,0.002809511,-0.011781764,-0.321705371,0.340227991,-0.210164353,0.148075551,642.0800171,642.0709229,706.2403564,706.2145386,-0.000133675,2.55E-07,8.66E-08,2.26E-07,-4.20E-07,-3.96E-07,4.06E-08,0.936584771,4.85E-06,-5.99E-05,-0.00015949,-96.65712738,-13.94831753,-8.21E-07,-1.11E-06,1.811
1.00E-05,0.011756082,-0.01011951,0.009953916,-0.013671219,-0.291662037,0.335121572,-0.211827725,0.191655725,642.0638428,642.0717773,706.2497559,706.2306519,-0.000133726,2.64E-07,4.19E-07,5.53E-07,-5.63E-07,-5.77E-07,-8.03E-08,0.93658489,8.49E-06,-3.53E-06,0.000111599,-96.65712738,-13.94831753,-1.11E-06,-1.89E-06,1.821
1.00E-05,0.020212371,-0.012020336,0.015865555,-0.009093997,-0.31015569,0.355753034,-0.172205329,0.216626674,642.0682373,642.0897827,706.2349854,706.2454224,-0.000133729,3.54E-07,7.36E-07,8.06E-07,-2.25E-07,-2.77E-07,-2.09E-09,0.93658495,7.84E-06,6.93E-05,0.000371106,-96.65712738,-13.94831753,-8.30E-07,-1.89E-07,1.831
1.01E-05,0.016136747,-0.00849079,0.009823091,0.000155561,-0.359580725,0.379831672,-0.163666815,0.220626295,642.0792236,642.1066895,706.2093506,706.2548218,-0.000133705,4.95E-07,7.58E-07,7.41E-07,4.14E-07,3.81E-07,-1.70E-07,0.936585009,2.33E-06,6.27E-05,0.000143207,-96.65712738,-13.94831753,-1.97E-07,3.46E-06,1.841
1.01E-05,0.005983051,-0.003501982,-2.34E-05,0.003882609,-0.407187313,0.401876092,-0.226007789,0.230007812,642.0930176,642.1083984,706.2270508,706.2558594,-0.000133682,5.60E-07,4.81E-07,4.03E-07,3.42E-07,3.78E-07,-1.10E-06,0.936585009,2.06E-07,2.49E-05,4.11E-05,-96.65712738,-13.94831753,2.20E-07,5.04E-06,1.851
1.02E-05,-0.000594218,-0.000836692,-0.000600106,0.001705609,-0.4210141,0.417417049,-0.248188838,0.241067722,642.1051636,642.0967407,706.2460938,706.2444458,-0.00013367,5.04E-07,2.35E-07,1.66E-07,2.14E-07,2.06E-07,3.93E-06,0.936585009,-2.06E-07,-6.21E-06,2.29E-06,-96.65712738,-13.94831753,3.17E-07,4.99E-06,1.861
