Car.Distance,Car.FxFL,Car.FxFR,Car.FxRL,Car.FxRR,Car.FyFL,Car.FyFR,Car.FyRL,Car.FyRR,Car.FzFL,Car.FzFR,Car.FzRL,Car.FzRR,Car.Pitch,Car.Roll,Car.SlipAngleFL,Car.SlipAngleFR,Car.SlipAngleRL,Car.SlipAngleRR,Car.TrackRadius,Car.Yaw,Car.YawRate,Car.ax,Car.ay,Car.tx,Car.ty,Car.vx,Car.vy,Time
m,N,N,N,N,N,N,N,N,N,N,N,N,rad,rad,rad,rad,rad,rad,m,rad,rad/s,m/s^2,m/s^2,m,m,m/s,m/s,s
1.67E-10,0.008054439,0.008054522,0.009529715,0.009529656,-0.000307882,0.000306991,0.000309321,-0.000310266,642.0595093,642.0595093,706.2679443,706.2680054,-0.000439802,2.56E-10,-3.21E-09,3.19E-09,4.11E-09,-4.13E-09,2.80E-07,0.93658483,2.26E-11,0.000121316,3.46E-08,-96.65718842,-13.94839859,1.67E-07,1.28E-11,0.001
4.71E-09,0.001026236,0.001026451,-0.000661712,-0.000661687,0.001445395,-0.001434958,-0.001563368,0.001575503,642.0655518,642.0655518,706.2619019,706.2619019,-0.000439783,1.90E-10,-5.07E-08,5.04E-08,5.16E-08,-5.20E-08,1.35E-06,0.93658483,-1.80E-11,5.87E-06,1.28E-07,-96.65718842,-13.94839859,4.04E-07,4.72E-10,0.011
1.04E-08,-0.000454168,-0.000453942,-0.00017677,-0.000176989,0.000919027,-0.000904509,-0.000772025,0.000789354,642.072998,642.072998,706.2548218,706.2548218,-0.000439725,7.48E-11,-3.28E-08,3.24E-08,2.78E-08,-2.82E-08,1.66E-06,0.93658483,-1.23E-10,7.31E-07,1.71E-07,-96.65718842,-13.94839859,5.30E-07,1.48E-09,0.021
1.71E-08,-0.000114346,-0.000114409,-0.000203994,-0.000204384,-0.000511008,0.000520588,0.000618448,-0.000610012,642.0783081,642.0782471,706.2490234,706.2490845,-0.000439644,-4.92E-11,8.44E-09,-8.72E-09,-1.00E-08,9.77E-09,2.11E-06,0.93658483,-2.45E-10,1.64E-06,9.71E-08,-96.65718842,-13.94839859,4.60E-07,2.33E-09,0.031
2.50E-08,0.002387439,0.00238936,-0.000664792,-0.000665143,-0.001346915,0.001350136,0.001826832,-0.001825095,642.0809326,642.0809326,706.2457275,706.2457275,-0.000439564,-1.56E-10,3.06E-08,-3.07E-08,-4.06E-08,4.06E-08,-1.19E-06,0.93658483,-1.36E-10,1.71E-05,6.48E-09,-96.65718842,-13.94839859,3.77E-07,2.76E-09,0.041
3.48E-08,0.002944159,0.002947243,-0.000392221,-0.00039693,-0.001602874,0.001598652,0.002295907,-0.002301689,642.0810547,642.0810547,706.244751,706.244751,-0.000439505,-2.30E-10,3.54E-08,-3.53E-08,-5.02E-08,5.04E-08,-2.11E-06,0.93658483,1.26E-10,1.64E-05,-6.59E-08,-96.65718842,-13.94839859,5.52E-07,2.63E-09,0.051
4.58E-08,-0.000203787,-0.000203686,-0.00240254,-0.00239946,-0.00140737,0.001392632,0.002074368,-0.002082802,642.0797729,642.0797729,706.2451782,706.2451172,-0.000439477,-2.31E-10,2.78E-08,-2.73E-08,-4.15E-08,4.18E-08,2.98E-06,0.93658483,2.16E-10,-2.25E-05,-1.09E-07,-96.65718842,-13.94839859,5.47E-07,1.71E-09,0.061
5.57E-08,-0.00179129,-0.001792666,-0.003275414,-0.003261971,-0.001024148,0.001003204,0.001475505,-0.001487972,642.0777588,642.0777588,706.2459717,706.2459717,-0.000439476,-1.55E-10,1.56E-08,-1.50E-08,-2.36E-08,2.39E-08,5.98E-07,0.93658483,2.57E-10,-3.99E-05,-1.19E-07,-96.65718842,-13.94839859,2.45E-07,5.73E-10,0.071
6.36E-08,-0.001990526,-0.001992239,-0.002737803,-0.002726391,-0.000604982,0.00058737,0.000893018,-0.00090358,642.0755005,642.0755005,706.2470093,706.2470093,-0.000439493,-6.06E-11,3.21E-09,-2.75E-09,-7.19E-09,7.50E-09,1.57E-07,0.93658483,4.74E-11,-3.64E-05,-8.06E-08,-96.65718842,-13.94839859,-1.25E-07,-5.11E-10,0.081
7.05E-08,-0.001456939,-0.001459822,-0.00184854,-0.001841736,-0.000173625,0.000163656,0.000501475,-0.000508511,642.0734863,642.0734863,706.24823,706.24823,-0.000439523,3.50E-11,-8.78E-09,9.03E-09,3.30E-09,-3.05E-09,1.79E-06,0.93658483,-1.14E-10,-2.57E-05,-3.32E-08,-96.65718842,-13.94839859,-4.23E-07,-1.38E-09,0.091
7.73E-08,-0.000640606,-0.000644904,-0.001035012,-0.001029806,0.000203145,-0.000207875,0.000293688,-0.000298409,642.0721436,642.0721436,706.2496338,706.2496338,-0.000439557,1.24E-10,-1.85E-08,1.86E-08,8.42E-09,-8.28E-09,3.66E-06,0.93658483,-6.34E-11,-1.33E-05,-4.08E-08,-96.65718842,-13.94839859,-6.05E-07,-1.89E-09,0.101
8.41E-08,6.79E-05,6.34E-05,-0.000203901,-0.000198749,0.000396944,-0.000397809,0.000150091,-0.00015086,642.0714111,642.0714111,706.2509766,706.2509766,-0.00043959,1.98E-10,-2.26E-08,2.26E-08,1.16E-08,-1.16E-08,4.48E-06,0.93658483,-7.74E-12,-1.50E-06,-2.78E-09,-96.65718842,-13.94839859,-6.69E-07,-2.05E-09,0.111
9.07E-08,0.000534649,0.000530989,0.000574159,0.000579459,0.000404629,-0.000404515,5.49E-05,-5.05E-05,642.071106,642.071167,706.2520142,706.2520142,-0.000439619,2.48E-10,-2.14E-08,2.13E-08,1.34E-08,-1.35E-08,3.96E-06,0.93658483,-4.33E-12,8.06E-06,4.97E-08,-96.65718842,-13.94839859,-6.30E-07,-1.87E-09,0.121
9.67E-08,0.000778634,0.000776494,0.001172458,0.001177009,0.000295272,-0.000289915,1.21E-05,-5.63E-06,642.071167,642.071167,706.2526855,706.2526855,-0.000439641,2.73E-10,-1.71E-08,1.69E-08,1.36E-08,-1.38E-08,2.63E-06,0.93658483,3.45E-11,1.46E-05,5.31E-08,-96.65718842,-13.94839859,-5.13E-07,-1.48E-09,0.131
1.02E-07,0.000857231,0.000859032,0.001528607,0.001523803,0.000129539,-0.000120119,3.18E-05,-2.14E-05,642.0714111,642.0714111,706.2529907,706.2529907,-0.000439654,2.48E-10,-1.15E-08,1.12E-08,1.23E-08,-1.25E-08,-1.02E-06,0.93658483,-2.94E-10,1.80E-05,1.56E-07,-96.65718842,-13.94839859,-3.49E-07,-7.13E-10,0.141
1.07E-07,0.000820188,0.000823665,0.001637984,0.001627161,-4.95E-05,6.33E-05,9.55E-05,-8.81E-05,642.0717773,642.0717773,706.2529297,706.2529297,-0.00043966,1.75E-10,-5.96E-09,5.57E-09,9.86E-09,-1.01E-08,2.79E-07,0.93658483,-2.36E-10,1.86E-05,3.45E-08,-96.65718842,-13.94839859,-1.67E-07,9.24E-11,0.151
1.11E-07,0.000700152,0.000703622,0.001532145,0.001523423,-0.000218218,0.000229452,0.0001886,-0.000181325,642.0723267,642.0723267,706.2526245,706.2526245,-0.000439658,9.41E-11,-1.06E-09,7.35E-10,6.83E-09,-7.02E-09,7.85E-10,0.93658483,-2.56E-10,1.72E-05,4.70E-08,-96.65718842,-13.94839859,8.63E-09,7.56E-10,0.161
1.16E-07,0.00053503,0.000538558,0.001256405,0.001249799,-0.000337459,0.000343848,0.000288711,-0.000284767,642.072937,642.072937,706.2521973,706.2521973,-0.000439651,1.53E-11,2.13E-09,-2.35E-09,3.79E-09,-3.92E-09,2.55E-07,0.93658483,-1.67E-10,1.38E-05,2.65E-08,-96.65718842,-13.94839859,1.59E-07,1.28E-09,0.171
1.21E-07,0.00031812,0.000321511,0.00088743,0.000881632,-0.000427369,0.000432287,0.000381982,-0.000381688,642.0736084,642.0736084,706.25177,706.25177,-0.000439641,-5.46E-11,4.42E-09,-4.50E-09,1.11E-09,-1.17E-09,7.36E-07,0.93658483,-8.47E-12,9.30E-06,-4.54E-08,-96.65718842,-13.94839859,2.71E-07,1.59E-09,0.181
1.26E-07,6.89E-05,7.28E-05,0.000494774,0.000488935,-0.000505902,0.000505375,0.000461908,-0.000463493,642.0742188,642.0742188,706.2513428,706.2513428,-0.000439629,-1.12E-10,6.14E-09,-6.15E-09,-1.04E-09,1.08E-09,1.13E-06,0.93658483,-1.79E-10,4.38E-06,-2.34E-09,-96.65718842,-13.94839859,3.36E-07,1.62E-09,0.191
1.31E-07,-0.000159806,-0.000156155,0.000126079,0.000120811,-0.000554885,0.000555065,0.000526672,-0.000531613,642.074646,642.074646,706.2510376,706.2510376,-0.000439618,-1.53E-10,7.14E-09,-7.10E-09,-2.68E-09,2.79E-09,1.26E-06,0.93658483,-9.94E-11,-1.50E-07,-4.04E-08,-96.65718842,-13.94839859,3.54E-07,1.47E-09,0.201
1.35E-07,-0.000337977,-0.00033517,-0.000143555,-0.000147482,-0.000582227,0.000579917,0.000554983,-0.000559681,642.0748901,642.0748901,706.2508545,706.2508545,-0.000439609,-1.78E-10,7.29E-09,-7.20E-09,-3.27E-09,3.40E-09,1.11E-06,0.93658483,-7.00E-11,-3.56E-06,-4.96E-08,-96.65718842,-13.94839859,3.33E-07,1.17E-09,0.211
1.39E-07,-0.000451482,-0.000449624,-0.000292904,-0.000294971,-0.000580344,0.000575259,0.000548916,-0.000552901,642.0749512,642.0749512,706.2507935,706.2507935,-0.000439602,-1.87E-10,6.68E-09,-6.58E-09,-2.88E-09,3.01E-09,8.20E-07,0.93658483,-1.10E-10,-5.59E-06,-3.19E-08,-96.65718842,-13.94839859,2.86E-07,7.98E-10,0.221
1.42E-07,-0.0004953,-0.000494263,-0.00034477,-0.000345742,-0.000549915,0.000545928,0.000517504,-0.000521315,642.0748901,642.0748291,706.2507935,706.2507935,-0.000439598,-1.87E-10,5.43E-09,-5.33E-09,-1.94E-09,2.04E-09,5.13E-07,0.93658483,-2.49E-11,-6.37E-06,-3.57E-08,-96.65718842,-13.94839859,2.26E-07,4.80E-10,0.231
1.45E-07,-0.000476339,-0.000475881,-0.000329253,-0.000329558,-0.000505534,0.000503133,0.000477972,-0.000479826,642.074707,642.074707,706.2508545,706.2508545,-0.000439597,-1.83E-10,3.83E-09,-3.76E-09,-8.42E-10,9.14E-10,2.71E-07,0.93658483,1.08E-11,-6.14E-06,-5.40E-09,-96.65718842,-13.94839859,1.65E-07,2.42E-10,0.241
1.46E-07,-0.000407713,-0.000407597,-0.000271971,-0.000271882,-0.0004551,0.000453787,0.000443578,-0.000445887,642.0744629,642.0744629,706.2509766,706.2509766,-0.000439598,-1.78E-10,2.18E-09,-2.14E-09,1.15E-10,-7.40E-11,1.19E-07,0.93658483,2.84E-11,-5.22E-06,-1.24E-08,-96.65718842,-13.94839859,1.09E-07,7.24E-11,0.251
1.47E-07,-0.000303398,-0.000303545,-0.000198866,-0.000198751,-0.000408809,0.000407144,0.000422779,-0.000423771,642.0742188,642.0742188,706.2511597,706.2511597,-0.0004396,-1.75E-10,6.90E-10,-6.84E-10,6.80E-10,-6.75E-10,4.23E-08,0.93658483,-1.10E-11,-3.85E-06,-2.26E-08,-96.65718842,-13.94839859,6.51E-08,-4.29E-11,0.261
1.48E-07,-0.000184684,-0.000184568,-0.000114331,-0.000113897,-0.000366727,0.000366106,0.000404776,-0.000406542,642.0740356,642.0740356,706.2512817,706.2512817,-0.000439603,-1.75E-10,-5.26E-10,5.01E-10,1.04E-09,-1.03E-09,1.26E-08,0.93658483,-8.98E-11,-2.26E-06,-5.86E-08,-96.65718842,-13.94839859,3.55E-08,-6.71E-11,0.271
1.48E-07,-6.71E-05,-6.71E-05,-3.38E-05,-3.34E-05,-0.000327421,0.000326725,0.000395842,-0.000395612,642.0738525,642.0738525,706.2513428,706.2514038,-0.000439606,-1.75E-10,-1.58E-09,1.55E-09,1.24E-09,-1.24E-09,4.51E-09,0.93658483,-2.13E-11,-7.79E-07,1.66E-08,-96.65718842,-13.94839859,2.13E-08,-6.39E-11,0.281
1.49E-07,2.66E-05,2.64E-05,2.95E-05,2.95E-05,-0.000302105,0.000301699,0.000391707,-0.000393548,642.0737915,642.0737915,706.2514648,706.2514648,-0.000439608,-1.75E-10,-2.20E-09,2.19E-09,1.24E-09,-1.25E-09,4.08E-09,0.93658483,8.58E-11,3.98E-07,-2.50E-08,-96.65718842,-13.94839859,2.02E-08,-5.79E-11,0.291
1.49E-07,8.56E-05,8.53E-05,7.05E-05,7.04E-05,-0.000292808,0.000293054,0.000397491,-0.000396241,642.0737305,642.0737305,706.2514648,706.2514648,-0.00043961,-1.74E-10,-2.31E-09,2.31E-09,1.06E-09,-1.07E-09,8.17E-09,0.93658483,4.00E-11,1.17E-06,2.12E-08,-96.65718842,-13.94839859,2.86E-08,-4.54E-11,0.301
1.50E-07,0.00011472,0.000114563,8.79E-05,8.78E-05,-0.000297677,0.00029638,0.000407031,-0.000407633,642.0737305,642.0737305,706.2514038,706.2514038,-0.000439612,-1.73E-10,-2.08E-09,2.08E-09,7.30E-10,-7.37E-10,1.78E-08,0.93658483,1.48E-11,1.53E-06,1.13E-08,-96.65718842,-13.94839859,4.23E-08,-5.98E-11,0.311
1.51E-07,0.000123509,0.000123512,8.41E-05,8.41E-05,-0.000307025,0.000306284,0.000421527,-0.000422662,642.0737305,642.0737305,706.2513428,706.2513428,-0.000439612,-1.74E-10,-1.72E-09,1.70E-09,3.14E-10,-3.28E-10,3.33E-08,0.93658483,2.28E-11,1.58E-06,8.88E-09,-96.65718842,-13.94839859,5.77E-08,-8.94E-11,0.321
1.52E-07,0.000119997,0.000119867,6.43E-05,6.42E-05,-0.000317644,0.000317241,0.000439214,-0.000437243,642.0737305,642.0737305,706.2512817,706.2512817,-0.000439612,-1.73E-10,-1.35E-09,1.34E-09,-1.22E-10,1.14E-10,5.24E-08,0.93658483,-9.93E-12,1.39E-06,2.85E-08,-96.65718842,-13.94839859,7.24E-08,-6.65E-11,0.331
1.53E-07,0.000110621,0.000110577,3.08E-05,3.08E-05,-0.000327827,0.000326709,0.000456931,-0.000456797,642.0737305,642.0737305,706.2512207,706.2512207,-0.000439612,-1.72E-10,-1.03E-09,1.02E-09,-6.04E-10,6.00E-10,7.14E-08,0.93658483,-4.60E-11,1.09E-06,-3.06E-08,-96.65718842,-13.94839859,8.45E-08,-7.26E-11,0.341
1.54E-07,9.74E-05,9.74E-05,-3.63E-06,-3.55E-06,-0.000334803,0.000333803,0.000471122,-0.000470868,642.0737305,642.0737305,706.2511597,706.2511597,-0.000439611,-1.70E-10,-7.87E-10,7.70E-10,-9.90E-10,9.83E-10,8.68E-08,0.93658483,-1.01E-11,7.27E-07,3.25E-08,-96.65718842,-13.94839859,9.32E-08,-8.62E-11,0.351
1.56E-07,8.01E-05,8.01E-05,-2.93E-05,-2.93E-05,-0.000339555,0.000340842,0.000479922,-0.000482988,642.0737915,642.0737915,706.2510986,706.2510986,-0.00043961,-1.70E-10,-6.04E-10,5.90E-10,-1.18E-09,1.18E-09,9.69E-08,0.93658483,1.88E-11,4.05E-07,-6.89E-08,-96.65718842,-13.94839859,9.85E-08,-7.22E-11,0.361
1.57E-07,5.94E-05,5.94E-05,-4.57E-05,-4.57E-05,-0.000344275,0.000345833,0.000485752,-0.000485251,642.0737915,642.0737915,706.2510376,706.2510376,-0.000439609,-1.69E-10,-4.90E-10,4.68E-10,-1.21E-09,1.19E-09,1.02E-07,0.93658483,-1.34E-11,1.23E-07,-7.90E-09,-96.65718842,-13.94839859,1.01E-07,-8.40E-11,0.371
1.58E-07,3.77E-05,3.77E-05,-5.52E-05,-5.51E-05,-0.000345375,0.000345972,0.000484397,-0.000483122,642.0737915,642.0737915,706.2509766,706.2510376,-0.000439608,-1.70E-10,-4.36E-10,4.19E-10,-1.10E-09,1.09E-09,1.01E-07,0.93658483,3.01E-11,-1.21E-07,1.90E-08,-96.65718842,-13.94839859,1.01E-07,-5.19E-11,0.381
1.59E-07,1.66E-05,1.65E-05,-5.84E-05,-5.84E-05,-0.000347861,0.000346542,0.000478336,-0.000478348,642.0737915,642.0737915,706.2509766,706.2509766,-0.000439607,-1.68E-10,-4.10E-10,4.02E-10,-9.18E-10,9.18E-10,9.66E-08,0.93658483,-3.05E-11,-3.13E-07,-4.90E-10,-96.65718842,-13.94839859,9.83E-08,-2.47E-11,0.391
1.60E-07,-2.00E-06,-1.84E-06,-5.59E-05,-5.58E-05,-0.000347762,0.000347642,0.000471628,-0.000473262,642.0737915,642.0737915,706.2509766,706.2509766,-0.000439607,-1.68E-10,-4.13E-10,3.93E-10,-6.92E-10,6.92E-10,8.93E-08,0.93658483,-2.08E-11,-4.44E-07,-7.60E-09,-96.65718842,-13.94839859,9.45E-08,-2.84E-11,0.401
1.61E-07,-1.63E-05,-1.61E-05,-4.78E-05,-4.76E-05,-0.000347238,0.000348991,0.000464346,-0.00046403,642.0737915,642.0737915,706.2509766,706.2509766,-0.000439607,-1.70E-10,-4.28E-10,4.00E-10,-4.50E-10,4.41E-10,8.08E-08,0.93658483,-2.13E-11,-4.92E-07,-1.48E-08,-96.65718842,-13.94839859,8.99E-08,-4.00E-11,0.411
1.62E-07,-2.55E-05,-2.54E-05,-3.53E-05,-3.52E-05,-0.000347529,0.000345783,0.000453824,-0.000454223,642.0737915,642.0737915,706.2510376,706.2510376,-0.000439607,-1.70E-10,-4.42E-10,4.24E-10,-2.08E-10,1.96E-10,7.26E-08,0.93658483,-1.19E-12,-4.76E-07,3.26E-09,-96.65718842,-13.94839859,8.52E-08,-3.67E-11,0.421
1.63E-07,-2.95E-05,-2.93E-05,-2.13E-05,-2.12E-05,-0.000347622,0.000346888,0.000446572,-0.000447052,642.0737915,642.0737915,706.2510376,706.2510376,-0.000439607,-1.72E-10,-4.62E-10,4.38E-10,-1.04E-11,1.49E-12,6.56E-08,0.93658483,-2.36E-11,-3.95E-07,1.81E-08,-96.65718842,-13.94839859,8.10E-08,-3.79E-11,0.431
1.64E-07,-2.87E-05,-2.84E-05,-7.09E-06,-6.92E-06,-0.000344935,0.000346613,0.000442786,-0.000441111,642.0737915,642.0737915,706.2510986,706.2510986,-0.000439607,-1.72E-10,-4.71E-10,4.46E-10,1.36E-10,-1.38E-10,6.05E-08,0.93658483,-5.05E-11,-2.84E-07,2.52E-08,-96.65718842,-13.94839859,7.77E-08,-2.97E-11,0.441
1.64E-07,-2.50E-05,-2.49E-05,8.35E-06,8.41E-06,-0.000346259,0.000346494,0.000435954,-0.000436729,642.0737915,642.0737915,706.2511597,706.2511597,-0.000439608,-1.71E-10,-4.56E-10,4.49E-10,2.56E-10,-2.57E-10,5.75E-08,0.93658483,4.97E-11,-1.32E-07,-7.79E-09,-96.65718842,-13.94839859,7.58E-08,-1.53E-11,0.451
1.65E-07,-2.04E-05,-2.02E-05,2.27E-05,2.29E-05,-0.000348101,0.000348374,0.00043361,-0.000433353,642.0737915,642.0737915,706.2511597,706.2511597,-0.000439608,-1.72E-10,-4.48E-10,4.18E-10,3.42E-10,-3.49E-10,5.68E-08,0.93658483,-6.11E-11,1.76E-08,2.17E-08,-96.65718842,-13.94839859,7.53E-08,-6.46E-11,0.461
1.66E-07,-1.60E-05,-1.57E-05,3.38E-05,3.41E-05,-0.000349189,0.000347942,0.000430135,-0.000429989,642.0738525,642.0738525,706.2512207,706.2512207,-0.000439609,-1.72E-10,-4.17E-10,3.85E-10,3.92E-10,-3.96E-10,5.80E-08,0.93658483,-9.68E-11,1.34E-07,-1.25E-08,-96.65718842,-13.94839859,7.61E-08,-6.65E-11,0.471
1.67E-07,-1.24E-05,-1.22E-05,4.02E-05,4.04E-05,-0.00035066,0.000349198,0.000428367,-0.000428155,642.0738525,642.0738525,706.2512207,706.2512207,-0.000439609,-1.72E-10,-3.74E-10,3.48E-10,3.96E-10,-4.02E-10,6.07E-08,0.93658483,-6.25E-11,2.13E-07,-2.55E-10,-96.65718842,-13.94839859,7.79E-08,-6.57E-11,0.481
1.68E-07,-1.00E-05,-9.73E-06,4.16E-05,4.19E-05,-0.000351962,0.000352898,0.000427832,-0.000427768,642.0738525,642.0738525,706.2512207,706.2512207,-0.000439609,-1.72E-10,-3.37E-10,3.10E-10,3.67E-10,-3.68E-10,6.43E-08,0.93658483,-3.10E-11,2.31E-07,-8.98E-09,-96.65718842,-13.94839859,8.02E-08,-4.91E-11,0.491
1.69E-07,-8.58E-06,-8.33E-06,3.85E-05,3.88E-05,-0.00035325,0.000355421,0.000429916,-0.000431896,642.0738525,642.0738525,706.2512207,706.2512207,-0.000439609,-1.70E-10,-2.99E-10,2.82E-10,3.10E-10,-3.00E-10,6.81E-08,0.93658483,-3.96E-11,2.31E-07,-5.91E-08,-96.65718842,-13.94839859,8.25E-08,-2.85E-11,0.501
1.70E-07,-7.81E-06,-7.70E-06,3.20E-05,3.22E-05,-0.000355658,0.000354476,0.000433052,-0.000432324,642.0738525,642.0738525,706.2512207,706.2512207,-0.000439609,-1.69E-10,-2.75E-10,2.64E-10,2.25E-10,-2.22E-10,7.16E-08,0.93658483,1.13E-12,1.85E-07,2.60E-08,-96.65718842,-13.94839859,8.46E-08,-2.99E-11,0.511
1.71E-07,-7.33E-06,-7.44E-06,2.35E-05,2.36E-05,-0.000355786,0.000357107,0.00043496,-0.000435242,642.0739136,642.0738525,706.2512207,706.2512207,-0.000439609,-1.69E-10,-2.71E-10,2.56E-10,1.28E-10,-1.43E-10,7.42E-08,0.93658483,3.66E-11,1.29E-07,-9.67E-09,-96.65718842,-13.94839859,8.61E-08,-5.31E-11,0.521
1.71E-07,-6.84E-06,-7.02E-06,1.42E-05,1.41E-05,-0.000355432,0.000355964,0.000438162,-0.000437651,642.0739136,642.0739136,706.2512207,706.2512207,-0.000439609,-1.69E-10,-2.82E-10,2.66E-10,4.12E-11,-5.50E-11,7.57E-08,0.93658483,2.85E-11,5.68E-08,1.58E-08,-96.65718842,-13.94839859,8.70E-08,-2.92E-11,0.531
1.72E-07,-6.12E-06,-6.21E-06,5.24E-06,5.14E-06,-0.000354516,0.000355887,0.000440103,-0.000441363,642.0739136,642.0739136,706.2512207,706.2512207,-0.000439609,-1.70E-10,-3.08E-10,2.91E-10,-3.39E-11,2.36E-11,7.60E-08,0.93658483,3.84E-11,3.57E-12,-2.93E-09,-96.65718842,-13.94839859,8.72E-08,-2.33E-11,0.541
1.73E-07,-4.75E-06,-4.82E-06,-2.85E-06,-2.97E-06,-0.000354805,0.000353033,0.000442613,-0.000442339,642.0739136,642.0738525,706.2511597,706.2511597,-0.000439608,-1.70E-10,-3.45E-10,3.28E-10,-1.02E-10,9.47E-11,7.55E-08,0.93658483,-3.68E-11,-6.08E-08,-1.45E-09,-96.65718842,-13.94839859,8.69E-08,-1.21E-11,0.551
1.74E-07,-2.74E-06,-2.53E-06,-9.74E-06,-9.66E-06,-0.000353192,0.000353143,0.000448764,-0.000447258,642.0738525,642.0738525,706.2511597,706.2511597,-0.000439608,-1.71E-10,-3.91E-10,3.70E-10,-1.58E-10,1.62E-10,7.41E-08,0.93658483,-4.00E-11,-8.67E-08,3.86E-08,-96.65718842,-13.94839859,8.61E-08,2.99E-12,0.561
1.75E-07,-1.41E-07,6.51E-08,-1.43E-05,-1.41E-05,-0.000351682,0.000352158,0.000446943,-0.000448872,642.0738525,642.0738525,706.2511597,706.2511597,-0.000439608,-1.70E-10,-4.35E-10,4.21E-10,-1.98E-10,2.06E-10,7.24E-08,0.93658483,-1.14E-11,-1.07E-07,-4.15E-08,-96.65718842,-13.94839859,8.51E-08,1.63E-11,0.571
1.76E-07,2.75E-06,2.68E-06,-1.65E-05,-1.65E-05,-0.000350211,0.000349602,0.000447176,-0.000447824,642.0738525,642.0738525,706.2511597,706.2511597,-0.000439608,-1.70E-10,-4.77E-10,4.72E-10,-2.26E-10,2.22E-10,7.06E-08,0.93658483,2.59E-11,-1.02E-07,-1.65E-08,-96.65718842,-13.94839859,8.41E-08,-1.30E-12,0.581
1.77E-07,5.37E-06,5.30E-06,-1.68E-05,-1.69E-05,-0.000348339,0.000347107,0.00044963,-0.000449436,642.0738525,642.0738525,706.2511597,706.2511597,-0.000439608,-1.70E-10,-5.31E-10,5.22E-10,-2.26E-10,2.21E-10,6.91E-08,0.93658483,6.76E-12,-8.83E-08,3.06E-08,-96.65718842,-13.94839859,8.31E-08,-1.05E-11,0.591
1.77E-07,7.21E-06,7.38E-06,-1.65E-05,-1.64E-05,-0.000346568,0.000346723,0.000449344,-0.000449216,642.0738525,642.0738525,706.2511597,706.2511597,-0.000439608,-1.71E-10,-5.83E-10,5.56E-10,-2.18E-10,2.15E-10,6.78E-08,0.93658483,-4.44E-11,-6.53E-08,2.16E-08,-96.65718842,-13.94839859,8.24E-08,-2.92E-11,0.601
1.78E-07,8.31E-06,8.42E-06,-1.55E-05,-1.55E-05,-0.000345743,0.000344992,0.000449004,-0.000448701,642.0738525,642.0738525,706.2511597,706.2511597,-0.000439608,-1.72E-10,-6.06E-10,5.83E-10,-2.09E-10,2.01E-10,6.68E-08,0.93658483,-1.56E-11,-5.69E-08,1.60E-08,-96.65718842,-13.94839859,8.18E-08,-2.29E-11,0.611
1.79E-07,8.71E-06,8.66E-06,-1.40E-05,-1.41E-05,-0.000343971,0.000343719,0.000447716,-0.000448109,642.0738525,642.0738525,706.2511597,706.2511597,-0.000439608,-1.72E-10,-6.13E-10,5.97E-10,-1.96E-10,1.85E-10,6.61E-08,0.93658483,-2.82E-12,-4.60E-08,-3.67E-08,-96.65718842,-13.94839859,8.13E-08,-2.90E-11,0.621
1.80E-07,8.50E-06,8.68E-06,-1.23E-05,-1.22E-05,-0.00034387,0.00034464,0.000449358,-0.000446972,642.0738525,642.0738525,706.2511597,706.2511597,-0.000439608,-1.72E-10,-6.15E-10,5.93E-10,-1.74E-10,1.76E-10,6.55E-08,0.93658483,-6.69E-11,-2.71E-08,2.00E-08,-96.65718842,-13.94839859,8.10E-08,-1.07E-11,0.631
1.81E-07,8.20E-06,8.25E-06,-1.01E-05,-1.01E-05,-0.000344347,0.000343928,0.0004471,-0.00044716,642.0738525,642.0738525,706.2511597,706.2511597,-0.000439608,-1.71E-10,-6.02E-10,5.91E-10,-1.57E-10,1.59E-10,6.52E-08,0.93658483,7.22E-12,-1.61E-08,3.86E-09,-96.65718842,-13.94839859,8.07E-08,-1.56E-11,0.641
1.82E-07,7.58E-06,7.73E-06,-7.83E-06,-7.70E-06,-0.000344578,0.000343812,0.000448099,-0.000448028,642.0738525,642.0738525,706.2511597,706.2511597,-0.000439608,-1.71E-10,-5.95E-10,5.72E-10,-1.40E-10,1.38E-10,6.51E-08,0.93658483,-6.09E-11,3.14E-09,1.33E-08,-96.65718842,-13.94839859,8.07E-08,-4.71E-11,0.651
1.82E-07,6.86E-06,6.96E-06,-5.58E-06,-5.43E-06,-0.0003436,0.000344388,0.000445945,-0.000444843,642.0738525,642.0738525,706.2511597,706.2511597,-0.000439608,-1.71E-10,-5.78E-10,5.55E-10,-1.26E-10,1.18E-10,6.52E-08,0.93658483,-8.63E-12,6.63E-09,9.67E-09,-96.65718842,-13.94839859,8.07E-08,-3.59E-11,0.661
1.83E-07,6.13E-06,5.91E-06,-3.42E-06,-3.42E-06,-0.000344023,0.00034614,0.000443542,-0.000445258,642.0738525,642.0738525,706.2511597,706.2511597,-0.000439608,-1.69E-10,-5.43E-10,5.50E-10,-1.05E-10,1.07E-10,6.54E-08,0.93658483,1.13E-10,1.54E-08,-2.66E-08,-96.65718842,-13.94839859,8.09E-08,2.45E-11,0.671
1.84E-07,5.15E-06,4.68E-06,-1.26E-06,-1.56E-06,-0.000347238,0.000345308,0.000446371,-0.000446112,642.0738525,642.0738525,706.2511597,706.2511597,-0.000439608,-1.67E-10,-5.18E-10,5.29E-10,-9.31E-11,8.61E-11,6.58E-08,0.93658483,4.73E-11,2.51E-08,-5.59E-09,-96.65718842,-13.94839859,8.11E-08,-3.62E-12,0.681
1.85E-07,3.67E-06,3.71E-06,1.62E-07,1.68E-07,-0.000346645,0.000346777,0.000444216,-0.000444093,642.0738525,642.0738525,706.2511597,706.2511597,-0.000439608,-1.68E-10,-5.13E-10,4.86E-10,-7.89E-11,7.56E-11,6.62E-08,0.93658483,-5.35E-11,2.89E-08,-9.22E-11,-96.65718842,-13.94839859,8.14E-08,-2.33E-11,0.691
1.86E-07,2.35E-06,2.67E-06,1.17E-06,1.40E-06,-0.000348029,0.000346934,0.000445438,-0.000444618,642.0738525,642.0738525,706.2511597,706.2511597,-0.000439608,-1.69E-10,-4.95E-10,4.59E-10,-6.78E-11,6.77E-11,6.67E-08,0.93658483,-1.05E-10,3.30E-08,1.22E-08,-96.65718842,-13.94839859,8.17E-08,-1.03E-11,0.701
1.86E-07,1.30E-06,1.61E-06,1.94E-06,2.22E-06,-0.000348807,0.000349555,0.000445788,-0.000445156,642.0738525,642.0738525,706.2511597,706.2511597,-0.000439608,-1.70E-10,-4.73E-10,4.51E-10,-5.52E-11,6.01E-11,6.71E-08,0.93658483,-3.33E-11,2.75E-08,9.46E-09,-96.65718842,-13.94839859,8.19E-08,2.39E-11,0.711
1.87E-07,2.96E-07,4.52E-07,2.34E-06,2.47E-06,-0.000348623,0.000348279,0.000444779,-0.000445615,642.0738525,642.0738525,706.2511597,706.2511597,-0.000439608,-1.70E-10,-4.56E-10,4.43E-10,-4.99E-11,5.05E-11,6.75E-08,0.93658483,4.36E-12,2.00E-08,1.91E-09,-96.65718842,-13.94839859,8.22E-08,1.51E-11,0.721
1.88E-07,-7.29E-07,-6.44E-07,2.39E-06,2.42E-06,-0.000348209,0.000350352,0.000441473,-0.00044288,642.0738525,642.0738525,706.2511597,706.2511597,-0.000439608,-1.71E-10,-4.45E-10,4.28E-10,-4.88E-11,4.26E-11,6.78E-08,0.93658483,3.96E-11,6.69E-09,-9.78E-09,-96.65718842,-13.94839859,8.23E-08,-8.28E-12,0.731
1.89E-07,-1.22E-06,-1.81E-06,2.47E-06,1.99E-06,-0.000349861,0.000349277,0.000443159,-0.000444199,642.0738525,642.0738525,706.2511597,706.2511597,-0.000439608,-1.70E-10,-4.20E-10,4.37E-10,-5.02E-11,3.41E-11,6.79E-08,0.93658483,1.74E-10,4.53E-09,9.66E-09,-96.65718842,-13.94839859,8.24E-08,2.90E-11,0.741
1.90E-07,-1.87E-06,-2.35E-06,2.22E-06,1.66E-06,-0.000349719,0.000349753,0.000443085,-0.000441678,642.0738525,642.0738525,706.2511597,706.2511597,-0.000439608,-1.70E-10,-4.24E-10,4.23E-10,-4.82E-11,3.21E-11,6.80E-08,0.93658483,5.94E-11,-1.76E-09,2.32E-08,-96.65718842,-13.94839859,8.24E-08,-1.37E-11,0.751
1.91E-07,-2.37E-06,-2.46E-06,1.60E-06,1.39E-06,-0.000350336,0.000349249,0.000442808,-0.000442824,642.0738525,642.0738525,706.2511597,706.2511597,-0.000439608,-1.70E-10,-4.29E-10,4.15E-10,-4.06E-11,4.11E-11,6.79E-08,0.93658483,-1.32E-11,-4.79E-09,3.48E-08,-96.65718842,-13.94839859,8.24E-08,-1.17E-12,0.761
1.91E-07,-2.55E-06,-2.23E-06,9.23E-07,1.07E-06,-0.000351531,0.000349464,0.000443564,-0.00044387,642.0738525,642.0738525,706.2511597,706.2511597,-0.000439608,-1.70E-10,-4.39E-10,4.09E-10,-3.90E-11,4.73E-11,6.78E-08,0.93658483,-1.45E-10,-1.18E-08,-3.01E-08,-96.65718842,-13.94839859,8.23E-08,-1.47E-11,0.771
1.92E-07,-2.30E-06,-1.87E-06,2.61E-07,6.30E-07,-0.000351329,0.000350865,0.000443014,-0.000443094,642.0738525,642.0738525,706.2511597,706.2511597,-0.000439608,-1.71E-10,-4.45E-10,4.13E-10,-4.62E-11,4.84E-11,6.76E-08,0.93658483,-7.11E-11,-1.28E-08,-9.09E-09,-96.65718842,-13.94839859,8.22E-08,-1.95E-11,0.781
1.93E-07,-1.64E-06,-1.54E-06,-2.38E-07,-7.56E-08,-0.000350609,0.000350329,0.00044339,-0.000444775,642.0738525,642.0738525,706.2511597,706.2511597,-0.000439608,-1.71E-10,-4.43E-10,4.29E-10,-5.64E-11,4.98E-11,6.74E-08,0.93658483,2.44E-11,-5.84E-09,-2.88E-08,-96.65718842,-13.94839859,8.21E-08,-1.98E-11,0.791
1.94E-07,-1.04E-06,-9.90E-07,-7.10E-07,-6.71E-07,-0.000349395,0.000350198,0.000443717,-0.000444025,642.0738525,642.0738525,706.2511597,706.2511597,-0.000439608,-1.72E-10,-4.56E-10,4.33E-10,-6.53E-11,5.15E-11,6.72E-08,0.93658483,-6.65E-12,-1.35E-08,-2.90E-08,-96.65718842,-13.94839859,8.20E-08,-4.06E-11,0.801
1.95E-07,-2.81E-07,-3.97E-07,-1.31E-06,-1.39E-06,-0.00034934,0.000349718,0.000443146,-0.000443576,642.0738525,642.0738525,706.2511597,706.2511597,-0.000439608,-1.72E-10,-4.57E-10,4.47E-10,-7.21E-11,6.15E-11,6.70E-08,0.93658483,5.50E-11,-1.24E-08,-7.67E-09,-96.65718842,-13.94839859,8.18E-08,-1.53E-11,0.811
1.96E-07,3.77E-07,3.92E-07,-1.88E-06,-1.91E-06,-0.000349025,0.000349496,0.000445621,-0.000444125,642.0738525,642.0738525,706.2511597,706.2511597,-0.000439608,-1.71E-10,-4.67E-10,4.53E-10,-7.28E-11,7.64E-11,6.68E-08,0.93658483,-6.74E-11,-6.43E-09,-2.30E-08,-96.65718842,-13.94839859,8.17E-08,-1.40E-11,0.821
1.96E-07,1.06E-06,1.06E-06,-2.32E-06,-2.27E-06,-0.000348892,0.000349088,0.000444986,-0.000444394,642.0738525,642.0738525,706.2511597,706.2511597,-0.000439608,-1.69E-10,-4.70E-10,4.65E-10,-7.77E-11,8.37E-11,6.66E-08,0.93658483,1.75E-11,-7.80E-09,1.57E-08,-96.65718842,-13.94839859,8.16E-08,2.61E-12,0.831
1.97E-07,1.77E-06,1.54E-06,-2.73E-06,-2.77E-06,-0.000348879,0.000348628,0.000444426,-0.000444633,642.0738525,642.0738525,706.2511597,706.2511597,-0.000439608,-1.67E-10,-4.71E-10,4.78E-10,-8.46E-11,9.02E-11,6.65E-08,0.93658483,5.54E-11,-9.78E-09,7.97E-09,-96.65718842,-13.94839859,8.15E-08,2.26E-11,0.841
1.98E-07,2.24E-06,2.12E-06,-3.26E-06,-3.22E-06,-0.000348499,0.000348602,0.00044631,-0.000444917,642.0738525,642.0738525,706.2511597,706.2511597,-0.000439608,-1.65E-10,-4.82E-10,4.79E-10,-9.15E-11,9.80E-11,6.63E-08,0.93658483,-8.20E-12,-6.32E-10,1.62E-08,-96.65718842,-13.94839859,8.15E-08,2.70E-11,0.851
1.99E-07,2.67E-06,2.48E-06,-3.54E-06,-3.53E-06,-0.000348448,0.000347558,0.000444813,-0.000445107,642.0738525,642.0738525,706.2511597,706.2511597,-0.000439608,-1.64E-10,-4.83E-10,4.86E-10,-9.51E-11,1.03E-10,6.62E-08,0.93658483,1.07E-11,-7.79E-09,1.25E-09,-96.65718842,-13.94839859,8.14E-08,4.84E-11,0.861
2.00E-07,2.82E-06,2.77E-06,-3.66E-06,-3.65E-06,-0.000346545,0.000347661,0.000445006,-0.000443398,642.0738525,642.0738525,706.2511597,706.2511597,-0.000439608,-1.65E-10,-4.93E-10,4.83E-10,-1.00E-10,1.01E-10,6.61E-08,0.93658483,-1.40E-13,-1.84E-08,3.36E-08,-96.65718842,-13.94839859,8.13E-08,4.68E-11,0.871
2.00E-07,2.82E-06,2.88E-06,-3.72E-06,-3.67E-06,-0.000348036,0.000348403,0.00044656,-0.000446768,642.0738525,642.0738525,706.2511597,706.2511597,-0.000439608,-1.66E-10,-4.95E-10,4.85E-10,-9.83E-11,1.04E-10,6.60E-08,0.93658483,-2.51E-11,2.36E-09,-4.07E-09,-96.65718842,-13.94839859,8.13E-08,7.20E-11,0.881
2.01E-07,2.80E-06,2.87E-06,-3.78E-06,-3.83E-06,-0.000348793,0.000347619,0.000445151,-0.000444219,642.0738525,642.0738525,706.2511597,706.2511597,-0.000439608,-1.68E-10,-4.96E-10,4.85E-10,-1.04E-10,1.01E-10,6.59E-08,0.93658483,1.51E-11,-6.25E-09,3.15E-08,-96.65718842,-13.94839859,8.12E-08,6.52E-11,0.891
2.02E-07,2.71E-06,2.83E-06,-3.64E-06,-3.77E-06,-0.000347833,0.000349334,0.000445226,-0.000444827,642.0738525,642.0738525,706.2511597,706.2511597,-0.000439608,-1.71E-10,-5.01E-10,4.80E-10,-1.06E-10,9.55E-11,6.58E-08,0.93658483,-4.81E-12,-4.79E-09,-1.23E-08,-96.65718842,-13.94839859,8.11E-08,3.77E-11,0.901
2.03E-07,2.59E-06,2.70E-06,-3.47E-06,-3.64E-06,-0.00034793,0.000346945,0.000445098,-0.000446452,642.0738525,642.0738525,706.2511597,706.2511597,-0.000439608,-1.74E-10,-4.98E-10,4.81E-10,-1.03E-10,9.54E-11,6.57E-08,0.93658483,2.27E-11,-8.83E-09,2.88E-09,-96.65718842,-13.94839859,8.10E-08,3.98E-11,0.911
2.04E-07,2.46E-06,2.52E-06,-3.22E-06,-3.41E-06,-0.000348157,0.000348342,0.00044479,-0.000444896,642.0738525,642.0738525,706.2511597,706.2511597,-0.000439608,-1.75E-10,-4.92E-10,4.86E-10,-9.45E-11,9.74E-11,6.56E-08,0.93658483,2.16E-11,-7.17E-09,4.24E-09,-96.65718842,-13.94839859,8.10E-08,4.96E-11,0.921
2.04E-07,2.44E-06,2.20E-06,-2.92E-06,-3.27E-06,-0.00034849,0.000347367,0.000444769,-0.000444739,642.0738525,642.0738525,706.2511597,706.2511597,-0.000439608,-1.74E-10,-4.82E-10,4.92E-10,-9.39E-11,9.31E-11,6.55E-08,0.93658483,6.39E-11,-9.18E-09,-8.03E-09,-96.65718842,-13.94839859,8.09E-08,3.35E-11,0.931
2.05E-07,2.31E-06,2.04E-06,-2.68E-06,-2.99E-06,-0.00034849,0.000348277,0.0004438,-0.000444692,642.0738525,642.0738525,706.2511597,706.2511597,-0.000439608,-1.72E-10,-4.82E-10,4.88E-10,-8.98E-11,9.19E-11,6.54E-08,0.93658483,4.05E-11,-7.57E-09,-2.99E-08,-96.65718842,-13.94839859,8.09E-08,4.67E-12,0.941
2.06E-07,2.05E-06,1.95E-06,-2.43E-06,-2.53E-06,-0.00034908,0.000348647,0.000444462,-0.00044457,642.0738525,642.0738525,706.2511597,706.2511597,-0.000439608,-1.71E-10,-4.88E-10,4.78E-10,-8.56E-11,8.85E-11,6.53E-08,0.93658483,-3.07E-11,-2.85E-09,-1.61E-08,-96.65718842,-13.94839859,8.08E-08,-1.98E-11,0.951
2.07E-07,1.74E-06,1.91E-06,-2.27E-06,-2.10E-06,-0.000348133,0.000346681,0.000444361,-0.000444481,642.0738525,642.0738525,706.2511597,706.2511597,-0.000439608,-1.70E-10,-4.92E-10,4.66E-10,-8.29E-11,8.61E-11,6.53E-08,0.93658483,-1.01E-10,-4.65E-09,-5.89E-09,-96.65718842,-13.94839859,8.08E-08,-4.93E-11,0.961
2.08E-07,1.45E-06,1.93E-06,-2.13E-06,-1.68E-06,-0.000347875,0.000347952,0.000446122,-0.000442567,642.0738525,642.0738525,706.2511597,706.2511597,-0.000439608,-1.72E-10,-5.00E-10,4.52E-10,-8.64E-11,7.86E-11,6.52E-08,0.93658483,-1.21E-10,-2.94E-09,7.38E-08,-96.65718842,-13.94839859,8.08E-08,-7.59E-11,0.971
2.09E-07,1.34E-06,1.87E-06,-1.95E-06,-1.44E-06,-0.000347977,0.00034876,0.000444425,-0.000442495,642.0738525,642.0738525,706.2511597,706.2511597,-0.000439608,-1.73E-10,-4.97E-10,4.52E-10,-8.46E-11,7.66E-11,6.52E-08,0.93658483,-1.05E-10,-3.69E-09,4.13E-08,-96.65718842,-13.94839859,8.08E-08,-6.70E-11,0.981
2.09E-07,1.32E-06,1.72E-06,-1.76E-06,-1.37E-06,-0.000348187,0.000349436,0.000445234,-0.000444043,642.0738525,642.0738525,706.2511597,706.2511597,-0.000439608,-1.75E-10,-4.91E-10,4.55E-10,-8.44E-11,7.42E-11,6.52E-08,0.93658483,-5.59E-11,5.49E-09,2.02E-09,-96.65718842,-13.94839859,8.08E-08,-6.02E-11,0.991
2.10E-07,1.33E-06,1.42E-06,-1.56E-06,-1.39E-06,-0.000348691,0.000349005,0.000443339,-0.000444151,642.0738525,642.0738525,706.2511597,706.2511597,-0.000439608,-1.73E-10,-4.76E-10,4.67E-10,-7.73E-11,7.72E-11,6.52E-08,0.93658483,3.39E-11,-3.33E-09,-2.56E-08,-96.65718842,-13.94839859,8.08E-08,-2.16E-11,1.001
2.11E-07,1.30E-06,1.13E-06,-1.49E-06,-1.60E-06,-0.00034886,0.000348958,0.000444262,-0.000444053,642.0738525,642.0738525,706.2511597,706.2511597,-0.000439608,-1.71E-10,-4.71E-10,4.69E-10,-8.02E-11,7.45E-11,6.52E-08,0.93658483,5.25E-11,-6.36E-09,3.03E-08,-96.65718842,-13.94839859,8.07E-08,-4.23E-11,1.011
2.12E-07,1.16E-06,9.46E-07,-1.48E-06,-1.60E-06,-0.000348847,0.000349081,0.000444221,-0.00044483,642.0738525,642.0738525,706.2511597,706.2511597,-0.000439608,-1.70E-10,-4.72E-10,4.65E-10,-7.91E-11,7.34E-11,6.51E-08,0.93658483,5.32E-11,-3.59E-09,-1.72E-08,-96.65718842,-13.94839859,8.07E-08,-3.57E-11,1.021
2.13E-07,1.10E-06,8.10E-07,-1.50E-06,-1.69E-06,-0.000348884,0.000349097,0.000445042,-0.000445622,642.0738525,642.0738525,706.2511597,706.2511597,-0.000439608,-1.68E-10,-4.71E-10,4.65E-10,-7.92E-11,7.28E-11,6.51E-08,0.93658483,3.39E-11,-6.51E-09,-1.43E-08,-96.65718842,-13.94839859,8.07E-08,-3.43E-11,1.031
2.13E-07,1.07E-06,8.00E-07,-1.60E-06,-1.77E-06,-0.000348793,0.000349183,0.000445956,-0.000446376,642.0738525,642.0738525,706.2511597,706.2511597,-0.000439608,-1.68E-10,-4.73E-10,4.62E-10,-8.19E-11,7.12E-11,6.50E-08,0.93658483,2.33E-11,4.99E-09,-3.48E-08,-96.65718842,-13.94839859,8.06E-08,-2.83E-11,1.041
2.14E-07,1.05E-06,9.02E-07,-1.71E-06,-1.81E-06,-0.000349455,0.000350032,0.000445153,-0.000444764,642.0738525,642.0738525,706.2511597,706.2511597,-0.000439608,-1.68E-10,-4.77E-10,4.60E-10,-8.22E-11,7.16E-11,6.49E-08,0.93658483,1.88E-11,-2.96E-09,-9.43E-09,-96.65718842,-13.94839859,8.06E-08,-1.83E-11,1.051
2.15E-07,1.07E-06,1.02E-06,-1.79E-06,-1.85E-06,-0.000349331,0.00034854,0.000445211,-0.000444761,642.0738525,642.0738525,706.2511597,706.2511597,-0.000439608,-1.69E-10,-4.80E-10,4.58E-10,-8.38E-11,7.15E-11,6.48E-08,0.93658483,-2.01E-11,-9.91E-09,2.88E-09,-96.65718842,-13.94839859,8.05E-08,-1.52E-11,1.061
2.16E-07,1.14E-06,1.14E-06,-1.86E-06,-1.88E-06,-0.000348643,0.000349142,0.000445079,-0.000444921,642.0738525,642.0738525,706.2511597,706.2511597,-0.000439608,-1.70E-10,-4.78E-10,4.63E-10,-8.02E-11,7.59E-11,6.47E-08,0.93658483,1.10E-11,-5.79E-09,-1.84E-09,-96.65718842,-13.94839859,8.05E-08,1.32E-11,1.071
2.17E-07,1.26E-06,1.24E-06,-1.93E-06,-2.02E-06,-0.000348636,0.000349104,0.00044603,-0.000445736,642.0738525,642.0738525,706.2511597,706.2511597,-0.000439608,-1.70E-10,-4.78E-10,4.64E-10,-8.39E-11,7.59E-11,6.46E-08,0.93658483,2.73E-11,-3.90E-09,6.96E-09,-96.65718842,-13.94839859,8.04E-08,6.28E-12,1.081
2.17E-07,1.39E-06,1.36E-06,-1.97E-06,-2.07E-06,-0.000348609,0.000349036,0.000446017,-0.000444176,642.0738525,642.0738525,706.2511597,706.2511597,-0.000439608,-1.71E-10,-4.79E-10,4.66E-10,-8.35E-11,7.78E-11,6.46E-08,0.93658483,2.31E-12,-5.05E-09,2.27E-08,-96.65718842,-13.94839859,8.04E-08,1.05E-11,1.091
2.18E-07,1.49E-06,1.43E-06,-2.00E-06,-2.09E-06,-0.00034872,0.000348059,0.000444263,-0.00044513,642.0738525,642.0738525,706.2511597,706.2511597,-0.000439608,-1.70E-10,-4.75E-10,4.72E-10,-8.02E-11,8.16E-11,6.45E-08,0.93658483,2.61E-11,-7.58E-09,-1.67E-08,-96.65718842,-13.94839859,8.03E-08,1.64E-11,1.101
2.19E-07,1.57E-06,1.48E-06,-2.11E-06,-2.19E-06,-0.000348743,0.0003472,0.000442641,-0.000444394,642.0738525,642.0738525,706.2511597,706.2511597,-0.000439608,-1.69E-10,-4.75E-10,4.74E-10,-8.06E-11,8.38E-11,6.44E-08,0.93658483,3.02E-11,-1.47E-08,-2.56E-08,-96.65718842,-13.94839859,8.03E-08,2.21E-11,1.111
2.20E-07,1.59E-06,1.61E-06,-2.28E-06,-2.26E-06,-0.000348585,0.000348893,0.000444277,-0.000445352,642.0738525,642.0738525,706.2511597,706.2511597,-0.000439608,-1.68E-10,-4.79E-10,4.70E-10,-8.06E-11,8.76E-11,6.43E-08,0.93658483,-3.62E-11,-8.60E-09,-6.72E-08,-96.65718842,-13.94839859,8.02E-08,1.77E-11,1.121
2.21E-07,1.63E-06,1.76E-06,-2.44E-06,-2.28E-06,-0.000347684,0.000348931,0.000444308,-0.000444592,642.0738525,642.0738525,706.2511597,706.2511597,-0.000439608,-1.68E-10,-4.83E-10,4.69E-10,-8.14E-11,8.91E-11,6.43E-08,0.93658483,-1.73E-11,-5.67E-09,-9.48E-10,-96.65718842,-13.94839859,8.02E-08,1.54E-11,1.131
2.21E-07,1.71E-06,1.77E-06,-2.42E-06,-2.30E-06,-0.000348481,0.000348879,0.000446063,-0.000446108,642.0738525,642.0738525,706.2511597,706.2511597,-0.000439608,-1.68E-10,-4.82E-10,4.71E-10,-8.48E-11,8.60E-11,6.42E-08,0.93658483,-3.08E-12,3.67E-09,-7.06E-09,-96.65718842,-13.94839859,8.01E-08,1.53E-11,1.141
2.22E-07,1.75E-06,1.75E-06,-2.42E-06,-2.36E-06,-0.000349278,0.000348867,0.000446177,-0.00044522,642.0738525,642.0738525,706.2511597,706.2511597,-0.000439608,-1.68E-10,-4.82E-10,4.71E-10,-8.79E-11,8.40E-11,6.41E-08,0.93658483,1.00E-11,-1.22E-09,4.01E-08,-96.65718842,-13.94839859,8.01E-08,1.76E-11,1.151
2.23E-07,1.76E-06,1.73E-06,-2.35E-06,-2.37E-06,-0.000349305,0.000348814,0.000446106,-0.000446058,642.0738525,642.0738525,706.2511597,706.2511597,-0.000439608,-1.69E-10,-4.81E-10,4.73E-10,-8.60E-11,8.46E-11,6.40E-08,0.93658483,8.36E-12,-2.23E-09,1.62E-08,-96.65718842,-13.94839859,8.00E-08,2.96E-11,1.161
2.24E-07,1.78E-06,1.69E-06,-2.34E-06,-2.47E-06,-0.000348555,0.000347994,0.000445342,-0.000445233,642.0738525,642.0738525,706.2511597,706.2511597,-0.000439608,-1.70E-10,-4.80E-10,4.74E-10,-8.73E-11,8.44E-11,6.40E-08,0.93658483,1.18E-11,-4.86E-09,-1.72E-09,-96.65718842,-13.94839859,8.00E-08,3.68E-11,1.171
2.25E-07,1.75E-06,1.70E-06,-2.33E-06,-2.50E-06,-0.000347695,0.00034886,0.000444581,-0.000445179,642.0738525,642.0738525,706.2511597,706.2511597,-0.000439608,-1.71E-10,-4.82E-10,4.71E-10,-8.88E-11,8.29E-11,6.39E-08,0.93658483,3.39E-11,-1.01E-08,-1.48E-08,-96.65718842,-13.94839859,7.99E-08,2.03E-11,1.181
2.25E-07,1.75E-06,1.71E-06,-2.31E-06,-2.46E-06,-0.000348506,0.000350397,0.000445314,-0.000446061,642.0738525,642.0738525,706.2511597,706.2511597,-0.000439608,-1.71E-10,-4.82E-10,4.72E-10,-8.66E-11,8.47E-11,6.38E-08,0.93658483,2.05E-11,7.62E-09,-3.98E-08,-96.65718842,-13.94839859,7.99E-08,2.41E-11,1.191
2.26E-07,1.80E-06,1.66E-06,-2.25E-06,-2.43E-06,-0.000348734,0.00034862,0.000445213,-0.000444511,642.0738525,642.0738525,706.2511597,706.2511597,-0.000439608,-1.70E-10,-4.75E-10,4.78E-10,-8.38E-11,8.69E-11,6.37E-08,0.93658483,4.60E-11,-6.87E-09,4.38E-08,-96.65718842,-13.94839859,7.98E-08,3.83E-11,1.201
2.27E-07,1.80E-06,1.61E-06,-2.17E-06,-2.37E-06,-0.000348709,0.000347864,0.000446055,-0.000444408,642.0738525,642.0738525,706.2511597,706.2511597,-0.000439608,-1.70E-10,-4.76E-10,4.78E-10,-8.46E-11,8.41E-11,6.37E-08,0.93658483,2.57E-11,-5.17E-09,5.63E-08,-96.65718842,-13.94839859,7.98E-08,1.87E-11,1.211
2.28E-07,1.78E-06,1.57E-06,-2.19E-06,-2.35E-06,-0.000348715,0.000348669,0.00044607,-0.000446043,642.0738525,642.0738525,706.2511597,706.2511597,-0.000439608,-1.69E-10,-4.76E-10,4.77E-10,-8.50E-11,8.42E-11,6.36E-08,0.93658483,4.90E-11,-3.03E-10,1.26E-08,-96.65718842,-13.94839859,7.98E-08,2.14E-11,1.221
2.29E-07,1.69E-06,1.52E-06,-2.08E-06,-2.23E-06,-0.000348635,0.000348812,0.000445262,-0.000442651,642.0738525,642.0738525,706.2511597,706.2511597,-0.000439608,-1.69E-10,-4.78E-10,4.73E-10,-8.51E-11,8.09E-11,6.35E-08,0.93658483,2.36E-11,-9.49E-09,8.36E-08,-96.65718842,-13.94839859,7.97E-08,5.85E-12,1.231
2.29E-07,1.64E-06,1.56E-06,-2.11E-06,-2.21E-06,-0.00034848,0.000348964,0.000442889,-0.000445852,642.0738525,642.0738525,706.2511597,706.2511597,-0.000439608,-1.70E-10,-4.82E-10,4.68E-10,-8.74E-11,7.90E-11,6.35E-08,0.93658483,4.10E-11,-5.36E-09,-4.43E-08,-96.65718842,-13.94839859,7.97E-08,-3.14E-13,1.241
2.30E-07,1.65E-06,1.49E-06,-2.05E-06,-2.23E-06,-0.000348584,0.000348876,0.000444532,-0.000444178,642.0738525,642.0738525,706.2511597,706.2511597,-0.000439608,-1.70E-10,-4.79E-10,4.71E-10,-8.75E-11,7.79E-11,6.34E-08,0.93658483,3.45E-11,-1.08E-08,5.86E-09,-96.65718842,-13.94839859,7.96E-08,1.34E-11,1.251
2.31E-07,1.57E-06,1.56E-06,-2.12E-06,-2.21E-06,-0.000348593,0.000348103,0.000444333,-0.000445229,642.0738525,642.0738525,706.2511597,706.2511597,-0.000439608,-1.70E-10,-4.79E-10,4.71E-10,-8.21E-11,8.43E-11,6.33E-08,0.93658483,-4.16E-12,-6.76E-09,1.26E-08,-96.65718842,-13.94839859,7.96E-08,1.82E-11,1.261
2.32E-07,1.56E-06,1.50E-06,-2.05E-06,-2.17E-06,-0.000348631,0.000348887,0.00044441,-0.000444284,642.0738525,642.0738525,706.2511597,706.2511597,-0.000439608,-1.70E-10,-4.78E-10,4.71E-10,-8.42E-11,8.08E-11,6.33E-08,0.93658483,9.45E-12,-4.02E-09,2.73E-10,-96.65718842,-13.94839859,7.95E-08,6.12E-12,1.271
2.33E-07,1.55E-06,1.47E-06,-2.03E-06,-2.12E-06,-0.000348691,0.000349609,0.000444344,-0.000445942,642.0738525,642.0738525,706.2511597,706.2511597,-0.000439608,-1.70E-10,-4.76E-10,4.72E-10,-8.24E-11,8.15E-11,6.32E-08,0.93658483,5.83E-11,-2.42E-09,-2.15E-08,-96.65718842,-13.94839859,7.95E-08,1.12E-11,1.281
2.33E-07,1.57E-06,1.43E-06,-2.04E-06,-2.18E-06,-0.000348695,0.000348847,0.000444401,-0.000444299,642.0738525,642.0738525,706.2511597,706.2511597,-0.000439608,-1.70E-10,-4.76E-10,4.72E-10,-8.40E-11,8.12E-11,6.31E-08,0.93658483,2.14E-11,-7.24E-09,-1.65E-08,-96.65718842,-13.94839859,7.95E-08,1.34E-11,1.291
2.34E-07,1.57E-06,1.44E-06,-2.03E-06,-2.14E-06,-0.00034955,0.000348782,0.000445937,-0.000444371,642.0738525,642.0738525,706.2511597,706.2511597,-0.000439608,-1.68E-10,-4.74E-10,4.74E-10,-8.13E-11,8.31E-11,6.31E-08,0.93658483,-9.82E-13,-3.86E-10,3.10E-08,-96.65718842,-13.94839859,7.94E-08,1.36E-11,1.301
2.35E-07,1.59E-06,1.41E-06,-1.98E-06,-2.12E-06,-0.000348719,0.00035039,0.000446892,-0.000445833,642.0738525,642.0738525,706.2511597,706.2511597,-0.000439608,-1.68E-10,-4.75E-10,4.72E-10,-8.52E-11,7.85E-11,6.30E-08,0.93658483,7.36E-11,6.35E-09,5.98E-08,-96.65718842,-13.94839859,7.94E-08,5.79E-12,1.311
2.36E-07,1.63E-06,1.37E-06,-1.98E-06,-2.19E-06,-0.000349481,0.000348819,0.000445363,-0.000444923,642.0738525,642.0738525,706.2511597,706.2511597,-0.000439608,-1.69E-10,-4.76E-10,4.73E-10,-8.79E-11,7.59E-11,6.29E-08,0.93658483,6.51E-11,-1.36E-09,1.77E-08,-96.65718842,-13.94839859,7.93E-08,9.31E-12,1.321
2.37E-07,1.55E-06,1.42E-06,-2.03E-06,-2.20E-06,-0.000349365,0.000347383,0.000442833,-0.000444191,642.0738525,642.0738525,706.2511597,706.2511597,-0.000439608,-1.69E-10,-4.79E-10,4.69E-10,-8.58E-11,7.82E-11,6.29E-08,0.93658483,-2.33E-12,-1.39E-08,-2.24E-08,-96.65718842,-13.94839859,7.93E-08,9.18E-12,1.331
2.37E-07,1.47E-06,1.51E-06,-2.10E-06,-2.17E-06,-0.000347644,0.00034989,0.000445352,-0.000444144,642.0738525,642.0738525,706.2511597,706.2511597,-0.000439608,-1.71E-10,-4.84E-10,4.64E-10,-8.76E-11,7.69E-11,6.28E-08,0.93658483,1.89E-11,-7.46E-09,2.70E-08,-96.65718842,-13.94839859,7.92E-08,-6.65E-12,1.341
2.38E-07,1.58E-06,1.44E-06,-2.04E-06,-2.23E-06,-0.000349473,0.000348838,0.00044444,-0.00044589,642.0738525,642.0738525,706.2511597,706.2511597,-0.000439608,-1.71E-10,-4.76E-10,4.72E-10,-8.50E-11,8.01E-11,6.27E-08,0.93658483,7.17E-12,-4.77E-09,-5.79E-08,-96.65718842,-13.94839859,7.92E-08,1.85E-11,1.351
2.39E-07,1.53E-06,1.55E-06,-2.11E-06,-2.19E-06,-0.00034936,0.000348152,0.00044601,-0.000445152,642.0738525,642.0738525,706.2511597,706.2511597,-0.000439608,-1.71E-10,-4.79E-10,4.69E-10,-8.33E-11,8.22E-11,6.27E-08,0.93658483,-2.25E-11,-5.22E-10,3.63E-08,-96.65718842,-13.94839859,7.92E-08,5.10E-12,1.361
2.40E-07,1.55E-06,1.59E-06,-2.15E-06,-2.16E-06,-0.00034866,0.000348848,0.000445092,-0.000444465,642.0738525,642.0738525,706.2511597,706.2511597,-0.000439608,-1.70E-10,-4.77E-10,4.72E-10,-8.05E-11,8.57E-11,6.26E-08,0.93658483,-9.46E-12,-6.75E-09,4.45E-08,-96.65718842,-13.94839859,7.91E-08,6.66E-12,1.371
2.41E-07,1.63E-06,1.54E-06,-2.12E-06,-2.16E-06,-0.000350331,0.000349516,0.000445171,-0.000446829,642.0738525,642.0738525,706.2511597,706.2511597,-0.000439608,-1.69E-10,-4.74E-10,4.75E-10,-8.27E-11,8.35E-11,6.25E-08,0.93658483,4.84E-11,2.37E-09,-5.51E-09,-96.65718842,-13.94839859,7.91E-08,9.10E-12,1.381
2.41E-07,1.65E-06,1.53E-06,-2.10E-06,-2.18E-06,-0.000348618,0.000348846,0.000444474,-0.000445876,642.0738525,642.0738525,706.2511597,706.2511597,-0.000439608,-1.69E-10,-4.78E-10,4.72E-10,-8.59E-11,7.97E-11,6.25E-08,0.93658483,2.38E-11,-3.99E-09,-5.37E-08,-96.65718842,-13.94839859,7.90E-08,-6.58E-12,1.391
2.42E-07,1.69E-06,1.45E-06,-2.11E-06,-2.27E-06,-0.000348725,0.000349535,0.000444496,-0.000445883,642.0738525,642.0738525,706.2511597,706.2511597,-0.000439608,-1.68E-10,-4.75E-10,4.74E-10,-8.65E-11,7.99E-11,6.24E-08,0.93658483,4.81E-11,-4.55E-09,-5.24E-08,-96.65718842,-13.94839859,7.90E-08,1.49E-11,1.401
2.43E-07,1.66E-06,1.49E-06,-2.16E-06,-2.30E-06,-0.00034945,0.000348807,0.000446123,-0.000445913,642.0738525,642.0738525,706.2511597,706.2511597,-0.000439608,-1.68E-10,-4.77E-10,4.73E-10,-8.64E-11,8.07E-11,6.23E-08,0.93658483,2.95E-11,-3.86E-09,3.76E-09,-96.65718842,-13.94839859,7.89E-08,7.15E-12,1.411
2.44E-07,1.65E-06,1.47E-06,-2.11E-06,-2.29E-06,-0.000348611,0.000348872,0.000444585,-0.000444164,642.0738525,642.0738525,706.2511597,706.2511597,-0.000439608,-1.69E-10,-4.79E-10,4.71E-10,-8.89E-11,7.75E-11,6.22E-08,0.93658483,4.40E-11,-2.34E-09,1.14E-08,-96.65718842,-13.94839859,7.89E-08,7.58E-12,1.421
2.44E-07,1.67E-06,1.51E-06,-2.13E-06,-2.35E-06,-0.000348604,0.000348876,0.000446223,-0.000445034,642.0738525,642.0738525,706.2511597,706.2511597,-0.000439608,-1.70E-10,-4.79E-10,4.71E-10,-8.91E-11,7.90E-11,6.22E-08,0.93658483,-5.75E-12,-6.20E-09,6.44E-09,-96.65718842,-13.94839859,7.88E-08,2.70E-13,1.431
2.45E-07,1.64E-06,1.58E-06,-2.13E-06,-2.27E-06,-0.000348634,0.000349605,0.000444443,-0.000445956,642.0738525,642.0738525,706.2511597,706.2511597,-0.000439608,-1.70E-10,-4.78E-10,4.72E-10,-8.51E-11,8.19E-11,6.21E-08,0.93658483,4.52E-11,-4.99E-09,-2.58E-08,-96.65718842,-13.94839859,7.88E-08,1.99E-11,1.441
2.46E-07,1.65E-06,1.57E-06,-2.08E-06,-2.26E-06,-0.000348622,0.000348829,0.000444486,-0.000442613,642.0738525,642.0738525,706.2511597,706.2511597,-0.000439608,-1.70E-10,-4.78E-10,4.72E-10,-8.62E-11,7.99E-11,6.20E-08,0.93658483,1.65E-12,-1.26E-08,3.85E-08,-96.65718842,-13.94839859,7.88E-08,3.18E-13,1.451
2.47E-07,1.70E-06,1.53E-06,-2.12E-06,-2.30E-06,-0.000348784,0.000348674,0.000445241,-0.000444368,642.0738525,642.0738525,706.2511597,706.2511597,-0.000439608,-1.69E-10,-4.74E-10,4.77E-10,-8.46E-11,8.31E-11,6.20E-08,0.93658483,9.20E-12,-4.58E-09,-1.63E-08,-96.65718842,-13.94839859,7.87E-08,2.30E-11,1.461
2.48E-07,1.67E-06,1.60E-06,-2.18E-06,-2.28E-06,-0.000349448,0.000348793,0.000444423,-0.000444405,642.0738525,642.0738525,706.2511597,706.2511597,-0.000439608,-1.69E-10,-4.77E-10,4.73E-10,-8.45E-11,8.40E-11,6.19E-08,0.93658483,-6.44E-12,-1.86E-09,-1.06E-08,-96.65718842,-13.94839859,7.87E-08,8.63E-12,1.471
2.48E-07,1.61E-06,1.60E-06,-2.14E-06,-2.15E-06,-0.000347057,0.000348074,0.000445214,-0.000444325,642.0738525,642.0738525,706.2511597,706.2511597,-0.000439608,-1.69E-10,-4.78E-10,4.71E-10,-8.38E-11,8.19E-11,6.18E-08,0.93658483,2.97E-11,-4.93E-09,4.46E-08,-96.65718842,-13.94839859,7.86E-08,6.71E-12,1.481
2.49E-07,1.58E-06,1.60E-06,-2.14E-06,-2.16E-06,-0.000348475,0.000349018,0.000444558,-0.000445005,642.0738525,642.0738525,706.2511597,706.2511597,-0.000439608,-1.70E-10,-4.82E-10,4.67E-10,-8.82E-11,7.82E-11,6.18E-08,0.93658483,1.24E-11,-5.77E-09,5.01E-09,-96.65718842,-13.94839859,7.86E-08,-8.17E-12,1.491
2.50E-07,1.65E-06,1.57E-06,-2.18E-06,-2.21E-06,-0.00034792,0.000347998,0.000444441,-0.000445167,642.0738525,642.0738525,706.2511597,706.2511597,-0.000439608,-1.70E-10,-4.76E-10,4.74E-10,-8.50E-11,8.26E-11,6.17E-08,0.93658483,2.55E-11,-6.02E-09,-1.88E-08,-96.65718842,-13.94839859,7.86E-08,1.99E-11,1.501
2.51E-07,1.55E-06,1.62E-06,-2.16E-06,-2.17E-06,-0.000350073,0.00034897,0.000446074,-0.000445123,642.0738525,642.0738525,706.2511597,706.2511597,-0.000439608,-1.70E-10,-4.81E-10,4.68E-10,-8.51E-11,8.14E-11,6.16E-08,0.93658483,-4.18E-11,5.61E-09,2.37E-08,-96.65718842,-13.94839859,7.85E-08,-5.65E-12,1.511
2.52E-07,1.56E-06,1.64E-06,-2.25E-06,-2.21E-06,-0.000347806,0.000348115,0.000446038,-0.000444414,642.0738525,642.0738525,706.2511597,706.2511597,-0.000439608,-1.70E-10,-4.79E-10,4.70E-10,-8.41E-11,8.43E-11,6.16E-08,0.93658483,-1.47E-11,-5.06E-09,2.62E-08,-96.65718842,-13.94839859,7.85E-08,1.29E-11,1.521
2.52E-07,1.60E-06,1.54E-06,-2.13E-06,-2.19E-06,-0.000347923,0.00034721,0.000444399,-0.000444317,642.0738525,642.0738525,706.2511597,706.2511597,-0.000439608,-1.70E-10,-4.76E-10,4.74E-10,-8.39E-11,8.17E-11,6.15E-08,0.93658483,5.10E-12,-7.41E-09,1.06E-08,-96.65718842,-13.94839859,7.84E-08,6.74E-12,1.531
2.53E-07,1.55E-06,1.59E-06,-2.18E-06,-2.17E-06,-0.000348588,0.000348111,0.000445205,-0.000445983,642.0738525,642.0738525,706.2511597,706.2511597,-0.000439608,-1.70E-10,-4.79E-10,4.70E-10,-8.36E-11,8.26E-11,6.14E-08,0.93658483,-1.97E-11,-8.16E-09,-4.18E-08,-96.65718842,-13.94839859,7.84E-08,7.35E-12,1.541
2.54E-07,1.61E-06,1.53E-06,-2.18E-06,-2.22E-06,-0.000347134,0.000349545,0.000445237,-0.000445142,642.0738525,642.0738525,706.2511597,706.2511597,-0.000439608,-1.69E-10,-4.76E-10,4.74E-10,-8.45E-11,8.19E-11,6.14E-08,0.93658483,4.97E-11,-7.46E-09,-1.07E-09,-96.65718842,-13.94839859,7.83E-08,1.27E-11,1.551
2.55E-07,1.62E-06,1.49E-06,-2.15E-06,-2.24E-06,-0.000348791,0.000349482,0.000444333,-0.000444419,642.0738525,642.0738525,706.2511597,706.2511597,-0.000439608,-1.68E-10,-4.73E-10,4.76E-10,-8.21E-11,8.44E-11,6.13E-08,0.93658483,1.89E-11,-9.32E-09,-2.92E-09,-96.65718842,-13.94839859,7.83E-08,2.19E-11,1.561
2.55E-07,1.61E-06,1.52E-06,-2.15E-06,-2.21E-06,-0.000348747,0.000348733,0.00044432,-0.000444421,642.0738525,642.0738525,706.2511597,706.2511597,-0.000439608,-1.68E-10,-4.75E-10,4.75E-10,-8.17E-11,8.45E-11,6.12E-08,0.93658483,1.40E-11,-3.33E-09,4.05E-09,-96.65718842,-13.94839859,7.82E-08,2.67E-11,1.571
2.56E-07,1.65E-06,1.47E-06,-2.11E-06,-2.24E-06,-0.000347983,0.000348702,0.00044444,-0.000444284,642.0738525,642.0738525,706.2511597,706.2511597,-0.000439608,-1.68E-10,-4.74E-10,4.76E-10,-8.50E-11,8.08E-11,6.11E-08,0.93658483,5.31E-11,-4.26E-09,3.45E-09,-96.65718842,-13.94839859,7.82E-08,2.46E-11,1.581
2.57E-07,1.60E-06,1.53E-06,-2.12E-06,-2.21E-06,-0.000348576,0.000348898,0.0004453,-0.000444234,642.0738525,642.0738525,706.2511597,706.2511597,-0.000439608,-1.68E-10,-4.80E-10,4.70E-10,-8.62E-11,7.94E-11,6.11E-08,0.93658483,5.38E-12,-8.65E-09,4.16E-08,-96.65718842,-13.94839859,7.82E-08,7.60E-12,1.591
2.58E-07,1.56E-06,1.57E-06,-2.11E-06,-2.16E-06,-0.000349349,0.000347345,0.000444423,-0.00044591,642.0738525,642.0738525,706.2511597,706.2511597,-0.000439608,-1.69E-10,-4.80E-10,4.70E-10,-8.45E-11,8.06E-11,6.10E-08,0.93658483,-1.71E-11,-5.22E-09,-4.72E-08,-96.65718842,-13.94839859,7.81E-08,2.43E-11,1.601
2.59E-07,1.58E-06,1.56E-06,-2.10E-06,-2.19E-06,-0.000348626,0.00034886,0.000444445,-0.000445904,642.0738525,642.0738525,706.2511597,706.2511597,-0.000439608,-1.70E-10,-4.78E-10,4.71E-10,-8.51E-11,8.05E-11,6.09E-08,0.93658483,8.29E-12,-4.31E-09,-5.45E-08,-96.65718842,-13.94839859,7.81E-08,2.52E-11,1.611
2.59E-07,1.59E-06,1.57E-06,-2.11E-06,-2.22E-06,-0.000348656,0.000348034,0.000444448,-0.000444289,642.0738525,642.0738525,706.2511597,706.2511597,-0.000439608,-1.71E-10,-4.77E-10,4.73E-10,-8.52E-11,8.09E-11,6.09E-08,0.93658483,1.21E-11,-5.50E-09,-5.16E-09,-96.65718842,-13.94839859,7.80E-08,2.14E-11,1.621
2.60E-07,1.61E-06,1.56E-06,-2.09E-06,-2.24E-06,-0.0003494,0.000348075,0.00044451,-0.000445046,642.0738525,642.0738525,706.2511597,706.2511597,-0.000439608,-1.71E-10,-4.78E-10,4.71E-10,-8.69E-11,7.93E-11,6.08E-08,0.93658483,7.52E-12,-5.83E-10,-9.70E-09,-96.65718842,-13.94839859,7.80E-08,2.12E-12,1.631
2.61E-07,1.57E-06,1.61E-06,-2.13E-06,-2.18E-06,-0.000348582,0.000348876,0.000443554,-0.000445979,642.0738525,642.0738525,706.2511597,706.2511597,-0.000439608,-1.72E-10,-4.79E-10,4.71E-10,-8.31E-11,8.25E-11,6.07E-08,0.93658483,7.05E-12,-8.32E-09,-4.42E-08,-96.65718842,-13.94839859,7.79E-08,2.14E-12,1.641
2.62E-07,1.60E-06,1.55E-06,-2.11E-06,-2.19E-06,-0.000348723,0.000348761,0.000446007,-0.000444352,642.0738525,642.0738525,706.2511597,706.2511597,-0.000439608,-1.71E-10,-4.75E-10,4.74E-10,-8.32E-11,8.26E-11,6.07E-08,0.93658483,5.87E-12,-5.73E-09,4.22E-08,-96.65718842,-13.94839859,7.79E-08,-4.58E-12,1.651
2.62E-07,1.59E-06,1.56E-06,-2.16E-06,-2.19E-06,-0.000348652,0.000348059,0.000446035,-0.000445987,642.0738525,642.0738525,706.2511597,706.2511597,-0.000439608,-1.70E-10,-4.77E-10,4.72E-10,-8.40E-11,8.27E-11,6.06E-08,0.93658483,-1.80E-11,-5.52E-09,-7.00E-09,-96.65718842,-13.94839859,7.79E-08,-1.47E-11,1.661
2.63E-07,1.65E-06,1.52E-06,-2.14E-06,-2.20E-06,-0.000348702,0.00034878,0.000443665,-0.000443447,642.0738525,642.0738525,706.2511597,706.2511597,-0.000439608,-1.69E-10,-4.76E-10,4.74E-10,-8.62E-11,8.03E-11,6.06E-08,0.93658483,2.58E-11,-6.73E-09,1.10E-09,-96.65718842,-13.94839859,7.78E-08,-1.46E-11,1.671
2.64E-07,1.69E-06,1.51E-06,-2.13E-06,-2.21E-06,-0.000348767,0.000348705,0.000445252,-0.000445952,642.0738525,642.0738525,706.2511597,706.2511597,-0.000439608,-1.68E-10,-4.74E-10,4.76E-10,-8.49E-11,8.17E-11,6.05E-08,0.93658483,3.35E-11,-2.80E-09,-3.98E-08,-96.65718842,-13.94839859,7.78E-08,2.52E-12,1.681
2.65E-07,1.66E-06,1.51E-06,-2.10E-06,-2.20E-06,-0.000348693,0.000348786,0.000444455,-0.000445902,642.0738525,642.0738525,706.2511597,706.2511597,-0.000439608,-1.68E-10,-4.76E-10,4.73E-10,-8.54E-11,8.04E-11,6.04E-08,0.93658483,3.08E-11,-1.25E-08,-2.05E-08,-96.65718842,-13.94839859,7.77E-08,-2.21E-12,1.691
2.66E-07,1.67E-06,1.47E-06,-2.08E-06,-2.23E-06,-0.000348732,0.000348751,0.000444464,-0.000445894,642.0738525,642.0738525,706.2511597,706.2511597,-0.000439608,-1.68E-10,-4.75E-10,4.75E-10,-8.57E-11,8.02E-11,6.04E-08,0.93658483,3.03E-11,-2.52E-10,-2.54E-08,-96.65718842,-13.94839859,7.77E-08,1.61E-11,1.701
2.66E-07,1.67E-06,1.45E-06,-2.05E-06,-2.27E-06,-0.000348701,0.000348786,0.000445402,-0.000445768,642.0738525,642.0738525,706.2511597,706.2511597,-0.000439608,-1.68E-10,-4.76E-10,4.73E-10,-8.90E-11,7.68E-11,6.03E-08,0.93658483,5.33E-11,-4.84E-10,4.20E-09,-96.65718842,-13.94839859,7.76E-08,3.61E-12,1.711
2.67E-07,1.58E-06,1.55E-06,-2.12E-06,-2.24E-06,-0.000348559,0.000348946,0.000444474,-0.000445909,642.0738525,642.0738525,706.2511597,706.2511597,-0.000439608,-1.69E-10,-4.80E-10,4.69E-10,-8.59E-11,8.06E-11,6.02E-08,0.93658483,-8.82E-12,-7.65E-09,-3.67E-08,-96.65718842,-13.94839859,7.76E-08,1.49E-11,1.721
2.68E-07,1.61E-06,1.58E-06,-2.14E-06,-2.25E-06,-0.00034864,0.000348829,0.000444475,-0.000445933,642.0738525,642.0738525,706.2511597,706.2511597,-0.000439608,-1.70E-10,-4.78E-10,4.72E-10,-8.60E-11,8.12E-11,6.02E-08,0.93658483,2.26E-11,-3.32E-09,-3.23E-08,-96.65718842,-13.94839859,7.76E-08,9.56E-12,1.731
2.69E-07,1.62E-06,1.57E-06,-2.13E-06,-2.25E-06,-0.000348696,0.000348787,0.000444454,-0.00044432,642.0738525,642.0738525,706.2511597,706.2511597,-0.000439608,-1.70E-10,-4.76E-10,4.73E-10,-8.54E-11,8.17E-11,6.01E-08,0.93658483,1.10E-11,-3.10E-09,4.51E-09,-96.65718842,-13.94839859,7.75E-08,2.15E-11,1.741
2.69E-07,1.61E-06,1.59E-06,-2.13E-06,-2.20E-06,-0.00034795,0.000348754,0.000445958,-0.000444424,642.0738525,642.0738525,706.2511597,706.2511597,-0.000439608,-1.70E-10,-4.75E-10,4.74E-10,-8.19E-11,8.46E-11,6.00E-08,0.93658483,-2.53E-11,-2.34E-09,1.70E-08,-96.65718842,-13.94839859,7.75E-08,1.65E-11,1.751
2.70E-07,1.57E-06,1.62E-06,-2.13E-06,-2.13E-06,-0.000347861,0.000348835,0.000445184,-0.000445983,642.0738525,642.0738525,706.2511597,706.2511597,-0.000439608,-1.69E-10,-4.78E-10,4.72E-10,-8.30E-11,8.26E-11,6.00E-08,0.93658483,1.51E-11,5.57E-09,5.10E-09,-96.65718842,-13.94839859,7.74E-08,1.56E-12,1.761
2.71E-07,1.63E-06,1.54E-06,-2.12E-06,-2.17E-06,-0.000348766,0.000348727,0.000444404,-0.00044433,642.0738525,642.0738525,706.2511597,706.2511597,-0.000439608,-1.69E-10,-4.74E-10,4.75E-10,-8.40E-11,8.20E-11,5.99E-08,0.93658483,2.68E-11,-7.92E-09,4.58E-09,-96.65718842,-13.94839859,7.74E-08,2.07E-11,1.771
2.72E-07,1.66E-06,1.53E-06,-2.13E-06,-2.21E-06,-0.000348853,0.000347839,0.000444311,-0.000443626,642.0738525,642.0738525,706.2511597,706.2511597,-0.000439608,-1.68E-10,-4.72E-10,4.78E-10,-8.15E-11,8.51E-11,5.98E-08,0.93658483,-1.58E-11,-1.00E-08,-6.66E-09,-96.65718842,-13.94839859,7.74E-08,2.34E-11,1.781
2.73E-07,1.58E-06,1.60E-06,-2.21E-06,-2.20E-06,-0.00034939,0.000348885,0.000445257,-0.000445983,642.0738525,642.0738525,706.2511597,706.2511597,-0.000439608,-1.68E-10,-4.79E-10,4.71E-10,-8.50E-11,8.26E-11,5.98E-08,0.93658483,-9.70E-12,5.49E-10,-1.16E-08,-96.65718842,-13.94839859,7.73E-08,8.93E-12,1.791
2.73E-07,1.59E-06,1.57E-06,-2.19E-06,-2.17E-06,-0.00034871,0.000348774,0.000445199,-0.000445187,642.0738525,642.0738525,706.2511597,706.2511597,-0.000439608,-1.68E-10,-4.76E-10,4.74E-10,-8.34E-11,8.31E-11,5.97E-08,0.93658483,2.30E-11,-1.91E-09,1.83E-08,-96.65718842,-13.94839859,7.73E-08,2.83E-11,1.801
2.74E-07,1.62E-06,1.53E-06,-2.14E-06,-2.20E-06,-0.000348797,0.000347884,0.000444352,-0.000444372,642.0738525,642.0738525,706.2511597,706.2511597,-0.000439608,-1.68E-10,-4.73E-10,4.77E-10,-8.26E-11,8.32E-11,5.96E-08,0.93658483,2.71E-12,-4.42E-09,-1.13E-08,-96.65718842,-13.94839859,7.72E-08,3.75E-11,1.811
2.75E-07,1.60E-06,1.56E-06,-2.20E-06,-2.22E-06,-0.000348849,0.000348665,0.000445894,-0.00044617,642.0738525,642.0738525,706.2511597,706.2511597,-0.000439608,-1.68E-10,-4.72E-10,4.77E-10,-8.02E-11,8.77E-11,5.96E-08,0.93658483,-8.87E-12,2.91E-09,-1.07E-08,-96.65718842,-13.94839859,7.72E-08,4.70E-11,1.821
2.76E-07,1.60E-06,1.62E-06,-2.20E-06,-2.20E-06,-0.000348714,0.000347986,0.000445971,-0.000444457,642.0738525,642.0738525,706.2511597,706.2511597,-0.000439608,-1.68E-10,-4.76E-10,4.74E-10,-8.23E-11,8.55E-11,5.95E-08,0.93658483,-3.29E-11,-2.86E-09,-2.40E-09,-96.65718842,-13.94839859,7.71E-08,4.50E-11,1.831
2.76E-07,1.60E-06,1.62E-06,-2.16E-06,-2.16E-06,-0.000349483,0.000348743,0.000445988,-0.00044601,642.0738525,642.0738525,706.2511597,706.2511597,-0.000439608,-1.68E-10,-4.76E-10,4.75E-10,-8.27E-11,8.33E-11,5.94E-08,0.93658483,9.18E-12,4.25E-09,1.97E-08,-96.65718842,-13.94839859,7.71E-08,4.11E-11,1.841
2.77E-07,1.66E-06,1.50E-06,-2.09E-06,-2.24E-06,-0.00034727,0.000347838,0.000442817,-0.000444266,642.0738525,642.0738525,706.2511597,706.2511597,-0.000439608,-1.69E-10,-4.72E-10,4.78E-10,-8.54E-11,8.03E-11,5.94E-08,0.93658483,7.48E-11,-1.48E-08,-2.22E-08,-96.65718842,-13.94839859,7.71E-08,4.59E-11,1.851
2.78E-07,1.58E-06,1.57E-06,-2.15E-06,-2.23E-06,-0.000348752,0.000347178,0.000445142,-0.000444435,642.0738525,642.0738525,706.2511597,706.2511597,-0.000439608,-1.69E-10,-4.74E-10,4.75E-10,-8.19E-11,8.49E-11,5.93E-08,0.93658483,-2.44E-11,-5.12E-09,1.79E-08,-96.65718842,-13.94839859,7.70E-08,4.22E-11,1.861
2.79E-07,1.65E-06,1.54E-06,-2.09E-06,-2.26E-06,-0.000348783,0.00034713,0.000444455,-0.000444303,642.0738525,642.0738525,706.2511597,706.2511597,-0.000439608,-1.70E-10,-4.74E-10,4.76E-10,-8.54E-11,8.13E-11,5.92E-08,0.93658483,1.09E-11,-6.51E-09,2.06E-08,-96.65718842,-13.94839859,7.70E-08,3.42E-11,1.871
2.80E-07,1.66E-06,1.49E-06,-2.02E-06,-2.25E-06,-0.000348009,0.000348672,0.000444491,-0.000444212,642.0738525,642.0738525,706.2511597,706.2511597,-0.000439608,-1.70E-10,-4.73E-10,4.77E-10,-8.64E-11,7.88E-11,5.92E-08,0.93658483,3.96E-11,-6.37E-09,-2.32E-08,-96.65718842,-13.94839859,7.69E-08,1.78E-11,1.881
2.80E-07,1.59E-06,1.56E-06,-2.14E-06,-2.25E-06,-0.000348731,0.000348761,0.00044435,-0.000444426,642.0738525,642.0738525,706.2511597,706.2511597,-0.000439608,-1.71E-10,-4.75E-10,4.74E-10,-8.26E-11,8.46E-11,5.91E-08,0.93658483,-9.53E-12,-5.88E-09,-1.37E-08,-96.65718842,-13.94839859,7.69E-08,2.87E-11,1.891
2.81E-07,1.55E-06,1.63E-06,-2.18E-06,-2.18E-06,-0.000349465,0.000348763,0.000442619,-0.000444475,642.0738525,642.0738525,706.2511597,706.2511597,-0.000439608,-1.70E-10,-4.76E-10,4.74E-10,-8.00E-11,8.60E-11,5.90E-08,0.93658483,-1.39E-12,-8.62E-09,-2.84E-09,-96.65718842,-13.94839859,7.68E-08,1.42E-11,1.901
2.82E-07,1.62E-06,1.55E-06,-2.16E-06,-2.23E-06,-0.000347945,0.000347968,0.000443672,-0.000444283,642.0738525,642.0738525,706.2511597,706.2511597,-0.000439608,-1.70E-10,-4.75E-10,4.75E-10,-8.64E-11,8.07E-11,5.90E-08,0.93658483,3.45E-11,-1.02E-08,2.99E-09,-96.65718842,-13.94839859,7.68E-08,-5.38E-13,1.911
2.83E-07,1.62E-06,1.56E-06,-2.14E-06,-2.19E-06,-0.00034873,0.000348771,0.00044604,-0.000445976,642.0738525,642.0738525,706.2511597,706.2511597,-0.000439608,-1.70E-10,-4.75E-10,4.74E-10,-8.42E-11,8.24E-11,5.89E-08,0.93658483,-5.26E-12,-3.53E-09,-4.91E-09,-96.65718842,-13.94839859,7.67E-08,1.19E-12,1.921
2.83E-07,1.57E-06,1.56E-06,-2.09E-06,-2.09E-06,-0.000347971,0.000348749,0.000444327,-0.000445172,642.0738525,642.0738525,706.2511597,706.2511597,-0.000439608,-1.69E-10,-4.74E-10,4.75E-10,-8.19E-11,8.27E-11,5.88E-08,0.93658483,4.02E-11,-8.07E-09,-1.13E-08,-96.65718842,-13.94839859,7.67E-08,8.22E-12,1.931
