Car.Distance,Car.FxFL,Car.FxFR,Car.FxRL,Car.FxRR,Car.FyFL,Car.FyFR,Car.FyRL,Car.FyRR,Car.FzFL,Car.FzFR,Car.FzRL,Car.FzRR,Car.Pitch,Car.Roll,Car.SlipAngleFL,Car.SlipAngleFR,Car.SlipAngleRL,Car.SlipAngleRR,Car.TrackRadius,Car.Yaw,Car.YawRate,Car.ax,Car.ay,Car.tx,Car.ty,Car.vx,Car.vy,Time
m,N,N,N,N,N,N,N,N,N,N,N,N,rad,rad,rad,rad,rad,rad,m,rad,rad/s,m/s^2,m/s^2,m,m,m/s,m/s,s
9.42E-11,0.004457164,0.004457293,0.004831567,0.004831493,-0.00213929,0.002109223,-0.001434534,0.001451916,642.0737915,642.0740356,706.2549438,706.2548218,-0.00020046,-2.90E-08,-6.67E-09,6.58E-09,8.49E-09,-8.60E-09,8.70E-08,0.93658483,-3.57E-10,6.26E-05,4.42E-07,-96.65714264,-13.94833565,9.33E-08,4.07E-11,0.001
6.29E-09,-0.001220042,0.002446364,-0.001083035,0.000954783,-0.217170864,0.170936555,-0.06336572,0.075351529,642.0991821,642.0932617,706.2481079,706.2476196,-0.000200449,-4.09E-08,-2.95E-07,-2.19E-07,2.76E-08,6.86E-09,-8.74E-09,0.93658483,-2.51E-06,2.20E-05,-0.000211775,-96.65714264,-13.94833565,4.43E-07,-7.57E-07,0.011
3.14E-08,-0.002295528,0.001114774,-0.003596382,0.000790519,-0.339250326,0.332717389,-0.140571684,0.171563417,642.1218872,642.1137085,706.2501221,706.2523804,-0.000200439,-5.94E-08,-4.98E-07,-4.33E-07,2.68E-07,3.02E-07,-1.07E-07,0.936584771,-6.06E-06,-1.82E-05,2.52E-05,-96.65714264,-13.94833565,3.35E-07,-8.39E-07,0.021
8.63E-08,-0.000671376,-0.000539063,-0.001530703,-0.000573739,-0.389100462,0.398844063,-0.213749424,0.217697159,642.117981,642.1190796,706.2572021,706.2603149,-0.000200454,-3.98E-08,-4.14E-07,-3.68E-07,4.17E-07,4.81E-07,-5.80E-09,0.936584711,-6.57E-06,-1.65E-05,1.01E-05,-96.65714264,-13.94833565,1.24E-07,-1.64E-07,0.031
1.80E-07,-0.006358524,0.005543131,0.000116063,-0.001408483,-0.392519474,0.402830064,-0.24567382,0.234643549,642.1055908,642.1119995,706.2592163,706.2601318,-0.000200496,-1.21E-08,-3.47E-07,-2.62E-07,3.54E-07,4.21E-07,9.07E-10,0.936584652,-5.22E-06,-1.87E-05,-2.43E-05,-96.65714264,-13.94833565,2.92E-08,9.98E-08,0.041
3.08E-07,-0.005234612,0.00669641,-0.011070192,-0.000785965,-0.371398777,0.350935489,-0.218227789,0.242290333,642.0939941,642.0948486,706.2544556,706.2543945,-0.000200548,-3.11E-09,-3.64E-07,-2.33E-07,1.96E-07,2.85E-07,-3.71E-10,0.936584592,-4.38E-06,-3.68E-05,0.000182753,-96.65714264,-13.94833565,-5.77E-08,-1.77E-07,0.051
4.58E-07,-0.009269477,0.016422888,-0.018524377,0.005635394,-0.377399296,0.322532624,-0.18175143,0.240629062,642.0903931,642.0807495,706.2356567,706.2498779,-0.000200593,-5.00E-09,-7.05E-07,-5.29E-07,5.34E-07,6.51E-07,6.06E-09,0.936584532,-9.82E-06,-2.09E-05,-1.79E-05,-96.65714264,-13.94833565,-3.44E-07,1.87E-07,0.061
6.15E-07,-0.015458093,0.026349219,-0.026686411,0.012860567,-0.370913982,0.317968994,-0.181596041,0.226358682,642.088562,642.0730591,706.2261353,706.2450562,-0.000200625,-1.79E-08,-1.04E-06,-8.50E-07,7.32E-07,8.92E-07,4.05E-09,0.936584413,-1.39E-05,-9.37E-06,-6.38E-05,-96.65714264,-13.94833565,-4.98E-07,9.90E-08,0.071
7.68E-07,-0.018019363,0.030070037,-0.029380741,0.016224315,-0.364350319,0.323033035,-0.179431751,0.213495463,642.0853882,642.0697021,706.2236938,706.2377319,-0.000200647,-4.62E-08,-1.16E-06,-9.87E-07,7.52E-07,9.23E-07,9.76E-09,0.936584234,-1.50E-05,-2.52E-06,-4.01E-05,-96.65714264,-13.94833565,-5.75E-07,-1.81E-07,0.081
9.07E-07,-0.01791632,0.0293987,-0.028025903,0.016766241,-0.361198574,0.328777313,-0.178104758,0.205638766,642.0820313,642.0678711,706.2225342,706.2310181,-0.000200662,-7.70E-08,-1.14E-06,-9.86E-07,7.26E-07,8.82E-07,2.48E-08,0.936584115,-1.45E-05,1.73E-06,-2.38E-05,-96.65714264,-13.94833565,-5.92E-07,-4.01E-07,0.091
1.03E-06,-0.016735831,0.026792146,-0.025157981,0.016090754,-0.360547066,0.333321154,-0.179791912,0.202047423,642.0792847,642.0667114,706.2210693,706.2271118,-0.000200675,-9.91E-08,-1.05E-06,-9.24E-07,6.86E-07,8.17E-07,3.56E-08,0.936583996,-1.34E-05,3.98E-06,-2.32E-05,-96.65714264,-13.94833565,-5.71E-07,-5.92E-07,0.101
1.12E-06,-0.0152886,0.023544312,-0.021996072,0.015201049,-0.360989094,0.337538362,-0.182751179,0.200148553,642.0773926,642.0664063,706.2199707,706.2255249,-0.000200688,-1.10E-07,-9.49E-07,-8.45E-07,6.29E-07,7.30E-07,4.82E-08,0.936583817,-1.20E-05,5.48E-06,-2.74E-05,-96.65714264,-13.94833565,-5.27E-07,-8.14E-07,0.111
1.19E-06,-0.01375964,0.020034978,-0.018722445,0.014275467,-0.361762732,0.342856884,-0.184861183,0.197455376,642.0762939,642.0671387,706.2199097,706.2251587,-0.000200701,-1.11E-07,-8.41E-07,-7.63E-07,5.50E-07,6.19E-07,7.60E-08,0.936583757,-1.05E-05,6.81E-06,-2.83E-05,-96.65714264,-13.94833565,-4.68E-07,-1.06E-06,0.121
1.24E-06,-0.012007911,0.016209666,-0.015159657,0.01301347,-0.362725049,0.350137234,-0.185290813,0.192375794,642.0758667,642.0688477,706.2209473,706.2252197,-0.000200715,-1.06E-07,-7.23E-07,-6.69E-07,4.51E-07,4.85E-07,1.22E-07,0.936583638,-8.75E-06,7.68E-06,-2.56E-05,-96.65714264,-13.94833565,-3.97E-07,-1.29E-06,0.131
1.26E-06,-0.009759046,0.011865352,-0.011073252,0.011020927,-0.364192188,0.36001277,-0.183769733,0.183128342,642.0760498,642.0714722,706.2229614,706.2254639,-0.00020073,-9.77E-08,-5.81E-07,-5.51E-07,3.26E-07,3.28E-07,1.79E-07,0.936583579,-6.59E-06,7.31E-06,-2.61E-05,-96.65714264,-13.94833565,-3.21E-07,-1.47E-06,0.141
1.28E-06,-0.006543887,0.006656618,-0.006027998,0.00765059,-0.367849916,0.375248909,-0.176463887,0.160657182,642.0766602,642.0749512,706.2260132,706.225647,-0.000200748,-8.95E-08,-4.02E-07,-3.92E-07,1.51E-07,1.26E-07,1.79E-07,0.936583519,-3.68E-06,7.76E-06,-5.32E-05,-96.65714264,-13.94833565,-2.53E-07,-1.66E-06,0.151
1.31E-06,-0.001666096,-0.000320773,0.000102236,0.002262094,-0.38398087,0.404928565,-0.17273286,0.151743084,642.0779419,642.079895,706.2289429,706.2234497,-0.00020077,-8.45E-08,-1.56E-07,-1.58E-07,-1.03E-07,-1.58E-07,-3.53E-07,0.936583519,2.84E-07,-5.98E-06,4.50E-05,-96.65714264,-13.94833565,-2.02E-07,-1.93E-06,0.161
1.35E-06,-0.001053008,-0.001637752,0.001260403,0.000341119,-0.408391029,0.392525256,-0.215653434,0.218870938,642.0825806,642.0811157,706.2381592,706.2339478,-0.000200795,-8.12E-08,-2.10E-07,-2.27E-07,-1.51E-07,-1.94E-07,2.07E-05,0.936583519,-2.71E-07,-5.05E-06,-5.42E-05,-96.65714264,-13.94833565,-2.34E-07,-2.38E-06,0.171
1.41E-06,-0.001651164,-0.000719988,0.001233202,0.002684945,-0.409658849,0.418574691,-0.233717248,0.232286364,642.0858765,642.0844116,706.2442017,706.2427979,-0.000200815,-7.61E-08,-1.99E-07,-2.26E-07,-1.10E-07,-1.70E-07,1.07E-06,0.936583519,-2.64E-07,6.71E-06,1.13E-05,-96.65714264,-13.94833565,-2.25E-07,-2.45E-06,0.181
1.46E-06,-0.000658996,-0.001272647,0.002474866,0.003478272,-0.414188236,0.416717857,-0.211042762,0.225914791,642.0862427,642.0887451,706.2436523,706.2455444,-0.000200825,-5.48E-08,-1.06E-07,-1.41E-07,-6.62E-08,-1.40E-07,3.12E-07,0.936583519,-8.61E-08,1.79E-05,8.22E-05,-96.65714264,-13.94833565,-1.07E-07,-2.06E-06,0.191
1.50E-06,-0.000339239,-0.001624662,0.002418308,0.004001228,-0.352640569,0.36220184,-0.147233531,0.154532477,642.0829468,642.0912476,706.2359009,706.2418823,-0.000200829,-1.91E-08,5.15E-08,9.45E-09,6.60E-09,-7.63E-08,2.82E-08,0.936583519,6.33E-07,1.40E-05,0.000466331,-96.65714264,-13.94833565,5.60E-08,-1.05E-06,0.201
1.54E-06,-0.000641399,-0.001875614,0.002040652,0.003176117,-0.272079319,0.262551487,-0.108418532,0.125193879,642.0754395,642.0821533,706.2301636,706.2368164,-0.00020083,5.02E-09,1.02E-08,-4.74E-08,2.54E-08,-3.80E-08,-1.60E-08,0.936583519,-1.56E-07,4.53E-06,-9.42E-05,-96.65714264,-13.94833565,1.74E-07,-5.78E-07,0.211
1.59E-06,-0.000365497,-0.00109272,0.002032562,0.002637909,-0.234588087,0.220227435,-0.095339812,0.097390294,642.0723267,642.0769043,706.2302246,706.2347412,-0.00020082,1.34E-08,2.15E-08,-3.40E-08,2.24E-08,-2.28E-08,-1.71E-09,0.936583519,-2.43E-08,1.55E-05,-4.96E-05,-96.65714264,-13.94833565,2.78E-07,-4.43E-08,0.221
1.66E-06,-0.000237345,-0.000544197,0.002620233,0.002546089,-0.226878524,0.243797094,-0.079428323,0.082160287,642.0783691,642.079895,706.2324219,706.2339478,-0.000200801,8.06E-09,1.20E-08,-4.05E-08,2.20E-08,-2.51E-08,-1.41E-08,0.936583519,1.92E-07,1.79E-05,-9.64E-06,-96.65714264,-13.94833565,4.31E-07,2.28E-07,0.231
1.73E-06,-0.001043548,-0.001025457,0.002955701,0.002311597,-0.228519484,0.23422128,-0.078567967,0.078884952,642.0854492,642.085083,706.2358398,706.2351685,-0.000200779,-3.63E-09,3.49E-08,-3.32E-08,3.20E-08,-2.32E-08,3.85E-08,0.936583519,1.85E-07,1.12E-05,2.26E-05,-96.65714264,-13.94833565,5.73E-07,3.89E-07,0.241
1.80E-06,-0.002007017,-0.001817886,0.003048581,0.002190117,-0.209673002,0.210353211,-0.085444592,0.083197586,642.0881348,642.086792,706.2398682,706.2381592,-0.000200758,-1.57E-08,4.11E-08,-4.54E-08,3.81E-08,-2.42E-08,-1.70E-08,0.936583519,1.24E-07,4.05E-06,-3.37E-05,-96.65714264,-13.94833565,6.48E-07,3.43E-07,0.251
1.88E-06,-0.002227487,-0.002121858,0.003146569,0.002261709,-0.197661713,0.194821879,-0.090556942,0.088768058,642.0889893,642.0877075,706.2432251,706.241394,-0.000200738,-2.44E-08,4.80E-08,-4.26E-08,3.82E-08,-2.82E-08,-8.93E-08,0.936583519,1.39E-07,3.56E-06,-5.10E-06,-96.65714264,-13.94833565,6.89E-07,2.37E-07,0.261
1.95E-06,-0.002037118,-0.002010478,0.003055069,0.002385147,-0.191504017,0.191450626,-0.092289597,0.090698503,642.09021,642.0894775,706.2449341,706.2435303,-0.000200716,-2.89E-08,4.30E-08,-4.35E-08,3.67E-08,-2.85E-08,-5.47E-08,0.936583519,1.44E-07,5.71E-06,-9.49E-06,-96.65714264,-13.94833565,7.38E-07,1.11E-07,0.271
2.02E-06,-0.001772376,-0.001879649,0.002680513,0.002221838,-0.19075416,0.190161169,-0.092196755,0.091314152,642.0917969,642.0916138,706.2453003,706.2446289,-0.000200691,-3.01E-08,3.89E-08,-4.15E-08,3.18E-08,-2.62E-08,-6.21E-08,0.936583519,1.34E-07,5.22E-06,-9.95E-06,-96.65714264,-13.94833565,7.92E-07,2.79E-08,0.281
2.08E-06,-0.001574831,-0.001780172,0.00204775,0.001753779,-0.188042551,0.187848598,-0.093292326,0.093004018,642.0927734,642.0930786,706.2452393,706.2449951,-0.000200666,-2.94E-08,3.54E-08,-3.81E-08,2.48E-08,-2.15E-08,-4.52E-06,0.936583519,1.39E-07,1.74E-06,-1.67E-07,-96.65714264,-13.94833565,8.24E-07,-7.89E-09,0.291
2.12E-06,-0.001356588,-0.001608142,0.001349537,0.001145981,-0.182837263,0.183178201,-0.097281739,0.097333618,642.0929565,642.0934448,706.2451782,706.2451782,-0.000200642,-2.82E-08,3.06E-08,-3.41E-08,1.75E-08,-1.50E-08,2.21E-07,0.936583519,1.40E-07,-2.06E-06,3.08E-06,-96.65714264,-13.94833565,8.21E-07,-9.22E-09,0.301
2.16E-06,-0.001020138,-0.001279396,0.000749104,0.000567596,-0.178218275,0.178662211,-0.104384996,0.104497597,642.0925293,642.0930176,706.2453003,706.2452393,-0.000200619,-2.74E-08,2.50E-08,-2.87E-08,1.07E-08,-7.88E-09,5.75E-07,0.936583519,1.38E-07,-3.93E-06,1.06E-06,-96.65714264,-13.94833565,7.93E-07,7.52E-09,0.311
2.18E-06,-0.000590388,-0.000837953,0.000309326,0.000301776,-0.176708281,0.177605227,-0.109485291,0.099119179,642.0921631,642.0925293,706.2450562,706.2449951,-0.000200596,-2.75E-08,1.87E-08,-2.30E-08,6.62E-09,-3.22E-10,-2.38E-09,0.936583519,2.14E-07,-1.03E-06,-0.000241752,-96.65714264,-13.94833565,7.58E-07,2.90E-08,0.321
2.20E-06,-0.000673577,-1.72E-05,-0.001174579,0.000279506,-0.191570297,0.182842791,-0.167150617,0.187789068,642.0917358,642.0930176,706.2469482,706.2495117,-0.000200572,-2.06E-08,3.29E-08,1.94E-09,9.13E-08,1.18E-07,5.57E-09,0.936583519,-7.36E-07,-1.03E-05,0.000149676,-96.65714264,-13.94833565,7.18E-07,4.64E-07,0.331
2.21E-06,-0.001609272,0.002942804,-0.003720406,0.002749017,-0.137335956,0.13513723,-0.202332377,0.22201933,642.0891113,642.0918579,706.2489624,706.2564697,-0.000200536,-8.11E-10,1.65E-08,-1.92E-08,2.48E-07,3.00E-07,1.05E-07,0.936583519,-2.08E-06,6.86E-07,3.92E-05,-96.65714264,-13.94833565,6.85E-07,1.22E-06,0.341
2.23E-06,-0.001082794,0.004960719,-0.003528528,0.004221376,-0.099361502,0.098328575,-0.223838583,0.228083953,642.0847778,642.0879517,706.2473755,706.2545166,-0.000200479,1.39E-08,1.06E-08,-2.71E-08,2.59E-07,3.24E-07,-2.34E-07,0.936583459,-2.15E-06,1.97E-05,7.48E-06,-96.65714264,-13.94833565,7.89E-07,1.67E-06,0.351
2.26E-06,-6.71E-06,0.005480987,-0.002252355,0.002964373,-0.091606162,0.083431758,-0.232340977,0.231283426,642.0854492,642.0862427,706.244751,706.2470703,-0.0002004,7.30E-09,3.91E-09,-2.90E-08,1.66E-07,2.56E-07,-6.08E-07,0.936583459,-1.59E-06,2.99E-05,3.73E-05,-96.65714264,-13.94833565,1.02E-06,1.69E-06,0.361
2.30E-06,-0.005599694,0.012054856,-0.006629098,0.005202732,-0.273616314,0.20657742,-0.203710049,0.227657288,642.1043701,642.0883789,706.2401733,706.2398682,-0.000200314,-4.28E-08,-5.59E-07,-5.57E-07,1.91E-07,2.94E-07,-1.07E-08,0.9365834,-6.47E-06,3.07E-05,-0.000143807,-96.65714264,-13.94833565,1.25E-06,6.10E-08,0.371
2.35E-06,-0.014129625,0.016333533,-0.015578332,0.009383501,-0.329594046,0.30757609,-0.177946806,0.215188965,642.117981,642.0971069,706.2323608,706.2349243,-0.000200256,-1.02E-07,-7.83E-07,-7.64E-07,4.23E-07,5.11E-07,-2.62E-07,0.93658334,-9.56E-06,-1.62E-05,-8.68E-07,-96.65714264,-13.94833565,1.27E-06,-5.58E-07,0.381
2.40E-06,-0.015817305,0.012692457,-0.020221692,0.009061907,-0.319895536,0.338262767,-0.180416629,0.216531023,642.1080933,642.1013184,706.2277222,706.236145,-0.00020025,-9.44E-08,-4.94E-07,-4.65E-07,6.25E-07,6.98E-07,6.65E-09,0.936583221,-8.60E-06,-6.08E-05,0.000137356,-96.65714264,-13.94833565,8.85E-07,4.64E-07,0.391
2.47E-06,-0.010811881,0.006362014,-0.01860535,0.005850807,-0.22012794,0.242354974,-0.196517974,0.224466845,642.0862427,642.0970459,706.2266235,706.2417603,-0.000200291,-1.76E-08,-3.56E-08,1.58E-08,7.29E-07,7.84E-07,6.45E-08,0.936583161,-5.72E-06,-8.25E-05,0.00017553,-96.65714264,-13.94833565,2.62E-07,2.53E-06,0.401
2.54E-06,-0.002288309,0.001121376,-0.011561731,0.001277045,-0.272192299,0.31604895,-0.219607592,0.232228741,642.0689087,642.0917358,706.2279663,706.2463989,-0.000200349,8.20E-08,4.46E-07,5.45E-07,6.94E-07,7.36E-07,1.16E-06,0.936583102,-1.27E-06,-3.50E-05,0.000239387,-96.65714264,-13.94833565,-2.63E-07,5.11E-06,0.411
2.63E-06,0.002619318,0.000190781,-0.00538759,-0.002792782,-0.374359995,0.378932804,-0.241408244,0.237286985,642.0810547,642.0980835,706.2318726,706.2460938,-0.000200412,1.38E-07,4.68E-07,6.18E-07,5.43E-07,5.65E-07,2.50E-06,0.936583102,2.28E-07,-1.95E-05,4.04E-05,-96.65714264,-13.94833565,-5.28E-07,6.31E-06,0.421
2.72E-06,0.001774688,0.000103907,-0.001666959,-0.005105629,-0.410747379,0.404630035,-0.253554881,0.233017892,642.0909424,642.093811,706.2380371,706.2401123,-0.000200483,1.08E-07,3.31E-07,4.63E-07,3.35E-07,3.42E-07,1.30E-06,0.936583161,8.28E-07,-2.06E-05,-7.49E-05,-96.65714264,-13.94833565,-7.19E-07,6.13E-06,0.431
2.81E-06,0.002663847,-0.001573941,0.002846075,-0.008565427,-0.419353753,0.414935231,-0.217427149,0.160211042,642.0922241,642.0846558,706.2449951,706.229248,-0.000200559,1.33E-08,2.57E-07,3.73E-07,-1.71E-08,-1.77E-08,7.21E-07,0.936583161,3.14E-06,-7.97E-06,-0.000121219,-96.65714264,-13.94833565,-9.13E-07,4.65E-06,0.441
2.88E-06,0.006500389,-0.005707651,0.008023551,-0.013046776,-0.393950433,0.402079165,-0.185690641,0.139603227,642.0869751,642.0765991,706.2445679,706.2158203,-0.000200644,-9.59E-08,3.29E-07,4.45E-07,-2.93E-07,-3.06E-07,1.44E-07,0.936583221,5.78E-06,-2.14E-05,-0.000116891,-96.65714264,-13.94833565,-1.07E-06,2.79E-06,0.451
2.95E-06,0.010595751,-0.00860393,0.009948422,-0.015268838,-0.371450424,0.385112166,-0.186105102,0.149463803,642.0786743,642.0726318,706.2446289,706.2180176,-0.000200729,-1.54E-07,4.67E-07,5.82E-07,-3.63E-07,-3.58E-07,5.54E-08,0.936583281,7.28E-06,-1.46E-05,-9.39E-05,-96.65714264,-13.94833565,-1.23E-06,1.54E-06,0.461
3.00E-06,0.013759214,-0.010110884,0.011205814,-0.013861733,-0.360195249,0.376819938,-0.180350304,0.156827673,642.0723267,642.0735474,706.2418823,706.2253418,-0.000200802,-1.49E-07,5.77E-07,6.81E-07,-3.46E-07,-3.48E-07,7.93E-08,0.93658334,7.88E-06,3.68E-06,-3.46E-05,-96.65714264,-13.94833565,-1.27E-06,7.67E-07,0.471
3.03E-06,0.014544982,-0.01002917,0.010944752,-0.010199676,-0.357945353,0.374814868,-0.165666923,0.162912414,642.0692749,642.0768433,706.2366943,706.2321777,-0.000200856,-9.93E-08,6.24E-07,7.02E-07,-2.47E-07,-2.60E-07,-3.40E-08,0.9365834,7.25E-06,2.06E-05,4.95E-05,-96.65714264,-13.94833565,-1.14E-06,7.09E-07,0.481
3.05E-06,0.012251371,-0.007990514,0.008521146,-0.005247002,-0.365269393,0.379427761,-0.121979535,0.144524857,642.069397,642.0803223,706.2298584,706.2368774,-0.000200889,-2.84E-08,6.03E-07,6.51E-07,-4.36E-08,-6.41E-08,-3.03E-08,0.936583459,5.24E-06,3.44E-05,0.000139301,-96.65714264,-13.94833565,-8.92E-07,1.50E-06,0.491
3.07E-06,0.007537558,-0.005024089,0.005075993,-0.001339686,-0.384285569,0.390207112,-0.117518507,0.1466382,642.0721436,642.0834961,706.2229004,706.2369385,-0.00020091,3.73E-08,5.15E-07,5.39E-07,1.62E-07,1.33E-07,-1.58E-07,0.936583519,2.82E-06,1.71E-05,0.000143226,-96.65714264,-13.94833565,-6.18E-07,2.70E-06,0.501
3.11E-06,0.003029965,-0.001253998,0.000897209,0.00054314,-0.407905012,0.406120658,-0.200988203,0.210358799,642.0773315,642.0855103,706.2322998,706.2452393,-0.000200922,7.13E-08,3.79E-07,3.79E-07,2.73E-07,2.77E-07,-1.02E-06,0.936583519,8.09E-07,1.12E-05,1.69E-05,-96.65714264,-13.94833565,-4.72E-07,3.66E-06,0.511
3.15E-06,0.001145987,0.000645883,0.00184472,0.001567952,-0.423386395,0.417722136,-0.236019582,0.232942224,642.0838013,642.0856323,706.2438354,706.2473755,-0.000200918,5.67E-08,2.59E-07,2.41E-07,2.24E-07,2.17E-07,-6.93E-07,0.936583519,3.04E-07,2.13E-05,-8.35E-06,-96.65714264,-13.94833565,-3.18E-07,3.76E-06,0.521
3.19E-06,-3.36E-05,0.001856791,0.002941068,0.002238226,-0.430669308,0.41196388,-0.23882626,0.23668392,642.0898438,642.0843506,706.2478027,706.2435913,-0.000200902,1.21E-08,1.58E-07,1.29E-07,2.07E-07,1.90E-07,-4.46E-07,0.936583519,-4.01E-07,2.70E-05,-4.71E-05,-96.65714264,-13.94833565,-7.59E-08,3.40E-06,0.531
3.22E-06,-0.00263334,0.004595258,0.001314978,0.003694946,-0.317522109,0.309460789,-0.24676694,0.224249154,642.0888062,642.0748901,706.2477417,706.2385254,-0.000200871,-4.94E-08,-7.25E-08,-1.30E-07,1.56E-07,1.57E-07,-9.36E-08,0.936583519,-1.63E-06,2.79E-05,-0.000171328,-96.65714264,-13.94833565,1.81E-07,2.00E-06,0.541
3.24E-06,-0.001030081,0.004054852,0.00218727,0.002970995,-0.289416194,0.251143247,-0.211727977,0.206115618,642.0830688,642.0697632,706.2434692,706.2332153,-0.000200818,-9.51E-08,-8.10E-08,-1.41E-07,9.21E-08,1.10E-07,-7.98E-09,0.936583519,-1.68E-06,3.81E-05,-0.000212814,-96.65714264,-13.94833565,4.65E-07,9.10E-07,0.551
3.26E-06,-0.002094695,0.005682612,0.00101979,0.00265806,-0.357793927,0.322306484,-0.224120498,0.166306868,642.0925293,642.0756836,706.2409668,706.2269897,-0.000200754,-1.45E-07,-3.48E-07,-3.85E-07,-1.61E-07,-1.32E-07,-4.15E-08,0.936583519,-1.30E-06,2.90E-05,-0.000256756,-96.65714264,-13.94833565,7.76E-07,-1.67E-06,0.561
3.30E-06,-0.001167059,0.002211648,0.000597318,-0.000396131,-0.396469593,0.387871057,-0.23855184,0.22526671,642.1025391,642.0860596,706.2443848,706.227356,-0.000200696,-1.97E-07,-3.91E-07,-4.31E-07,-3.58E-07,-3.16E-07,-1.15E-06,0.936583519,-3.57E-07,5.39E-06,-8.20E-05,-96.65714264,-13.94833565,9.26E-07,-3.87E-06,0.571
3.34E-06,-0.001164256,-0.000985821,-0.001072044,-0.000460496,-0.411608547,0.41850844,-0.244736031,0.248184279,642.1009521,642.0949707,706.2435303,706.2354126,-0.000200659,-1.85E-07,-2.41E-07,-2.85E-07,-2.61E-07,-2.36E-07,-1.51E-06,0.936583519,6.35E-08,-1.51E-05,1.27E-05,-96.65714264,-13.94833565,8.55E-07,-4.23E-06,0.581
3.38E-06,-0.001469383,-0.002267783,-0.002372364,0.000573446,-0.41175893,0.412787348,-0.235660732,0.255386233,642.0933228,642.0983276,706.2390747,706.2425537,-0.000200646,-1.21E-07,-1.66E-07,-2.00E-07,-1.33E-07,-1.31E-07,-2.19E-06,0.936583519,-3.95E-07,-2.27E-05,8.99E-05,-96.65714264,-13.94833565,6.71E-07,-3.86E-06,0.591
3.42E-06,-0.002598208,-0.001445698,-0.004198033,0.00338937,-0.374911487,0.409644961,-0.150408626,0.16847004,642.085022,642.0975952,706.2280273,706.2426147,-0.000200654,-3.89E-08,-9.49E-08,-1.04E-07,8.40E-08,4.85E-08,-1.74E-06,0.936583459,-9.62E-07,-2.39E-05,0.000102068,-96.65714264,-13.94833565,4.81E-07,-2.41E-06,0.601
3.43E-06,-0.001295324,-0.002978551,-0.00211514,0.001244037,-0.213141009,0.221406549,-0.103458531,0.131865114,642.0691528,642.0830688,706.2220459,706.2363281,-0.000200676,2.65E-08,-2.55E-08,-5.02E-08,1.76E-08,-1.39E-08,1.94E-07,0.936583459,-3.25E-07,-1.80E-05,0.000126679,-96.65714264,-13.94833565,2.83E-07,-1.31E-06,0.611
3.45E-06,-0.000741341,-0.001064067,-0.000939908,0.0012394,-0.224438638,0.223640874,-0.084900528,0.086991511,642.0649414,642.0732422,706.2220459,706.2314453,-0.000200694,4.65E-08,-5.44E-08,-5.39E-08,1.59E-08,-1.12E-08,9.34E-09,0.936583459,-2.92E-07,3.21E-06,3.34E-05,-96.65714264,-13.94833565,1.73E-07,-3.63E-07,0.621
3.48E-06,-0.000462055,-2.14E-05,-0.000177539,0.000640396,-0.330563784,0.344364643,-0.100394979,0.102760509,642.081665,642.0838013,706.2281494,706.2312622,-0.000200709,3.53E-08,-5.13E-08,-1.93E-08,2.40E-08,-8.82E-09,-1.55E-07,0.936583459,-6.65E-08,-2.34E-06,-4.51E-06,-96.65714264,-13.94833565,1.72E-07,2.55E-07,0.631
3.52E-06,-0.001147445,-0.000965629,0.000432037,-2.62E-05,-0.239308119,0.234366089,-0.149189964,0.157152027,642.0873413,642.086853,706.2402954,706.2392578,-0.000200726,1.49E-08,1.58E-08,-1.05E-08,2.34E-08,-8.94E-09,3.57E-08,0.936583459,2.32E-08,-1.59E-05,-3.12E-05,-96.65714264,-13.94833565,1.13E-07,5.71E-07,0.641
3.57E-06,-0.001452991,-0.001022921,0.002958742,0.001621503,-0.191630796,0.189872101,-0.1301056,0.127980977,642.0793457,642.0773315,706.2445679,706.2419434,-0.00020073,-4.68E-09,3.65E-08,-2.48E-08,4.33E-08,-1.53E-08,-1.30E-08,0.936583459,1.17E-07,1.31E-05,-5.39E-05,-96.65714264,-13.94833565,1.00E-07,5.36E-07,0.651
3.62E-06,-0.000408519,-6.58E-05,0.004155362,0.002817325,-0.227254838,0.224405035,-0.100860708,0.096019149,642.0827026,642.0805664,706.2409058,706.2381592,-0.000200718,-1.93E-08,2.68E-08,-1.78E-08,4.45E-08,-2.45E-08,-4.03E-09,0.936583459,1.50E-07,3.01E-05,-4.29E-05,-96.65714264,-13.94833565,3.02E-07,3.37E-07,0.661
3.68E-06,-0.000547473,-0.000381693,0.003182444,0.002149222,-0.238450512,0.236341953,-0.08893729,0.08586698,642.0896606,642.0882568,706.2382202,706.2362671,-0.000200699,-2.70E-08,2.52E-08,-2.19E-08,3.28E-08,-2.27E-08,-1.95E-08,0.936583459,1.53E-07,1.53E-05,-1.11E-05,-96.65714264,-13.94833565,5.14E-07,1.29E-07,0.671
3.73E-06,-0.001438944,-0.001455701,0.001931423,0.001303632,-0.204829827,0.204156712,-0.092925288,0.092002846,642.0894775,642.0890503,706.2388916,706.237915,-0.000200683,-2.92E-08,3.24E-08,-3.26E-08,2.53E-08,-1.68E-08,-2.80E-08,0.936583459,1.36E-07,-1.27E-06,-1.20E-05,-96.65714264,-13.94833565,5.80E-07,-2.29E-09,0.681
3.78E-06,-0.001491176,-0.001660416,0.001443129,0.001097436,-0.18420054,0.184165075,-0.101807699,0.101581097,642.0872803,642.0875854,706.241394,706.2411499,-0.000200669,-2.83E-08,3.10E-08,-3.40E-08,2.03E-08,-1.62E-08,-1.03E-06,0.936583459,1.39E-07,-3.06E-06,3.25E-08,-96.65714264,-13.94833565,5.62E-07,-6.36E-08,0.691
3.82E-06,-0.001021823,-0.001274312,0.001581595,0.001376056,-0.180835784,0.181110308,-0.100157209,0.100190312,642.0873413,642.0880127,706.2427979,706.2429199,-0.000200654,-2.68E-08,2.62E-08,-3.02E-08,1.99E-08,-1.77E-08,1.93E-07,0.936583459,1.41E-07,3.65E-06,1.28E-06,-96.65714264,-13.94833565,5.68E-07,-6.63E-08,0.701
3.87E-06,-0.000734778,-0.001004169,0.00159718,0.001422886,-0.184507474,0.18504259,-0.095305927,0.095501907,642.0892334,642.0898438,706.2426147,706.2427368,-0.000200635,-2.60E-08,2.29E-08,-2.73E-08,1.91E-08,-1.69E-08,1.93E-07,0.936583459,1.41E-07,5.70E-06,1.58E-06,-96.65714264,-13.94833565,6.13E-07,-4.22E-08,0.711
3.90E-06,-0.000733213,-0.000986717,0.001196361,0.000991945,-0.182413727,0.182917327,-0.096109509,0.096225247,642.0906372,642.0910645,706.2423096,706.2422485,-0.000200617,-2.60E-08,2.18E-08,-2.56E-08,1.53E-08,-1.25E-08,1.99E-07,0.936583459,1.42E-07,1.43E-06,2.07E-06,-96.65714264,-13.94833565,6.46E-07,-1.51E-08,0.721
3.93E-06,-0.000710891,-0.000936315,0.000679233,0.00043542,-0.17587541,0.176160261,-0.105450876,0.105422027,642.0906372,642.0909424,706.2428589,706.2426147,-0.000200599,-2.67E-08,2.04E-08,-2.34E-08,1.04E-08,-6.29E-09,3.26E-07,0.936583459,1.39E-07,-2.88E-06,1.25E-06,-96.65714264,-13.94833565,6.41E-07,2.45E-09,0.731
3.96E-06,-0.00044876,-0.000691286,0.000408462,0.000259903,-0.17356655,0.172678947,-0.105412483,0.111297451,642.090332,642.0905151,706.2435913,706.2431641,-0.000200581,-2.77E-08,1.76E-08,-1.91E-08,1.92E-09,-6.91E-09,1.69E-09,0.936583459,1.22E-07,-1.31E-06,0.000227685,-96.65714264,-13.94833565,6.19E-07,-6.90E-09,0.741
3.97E-06,-3.24E-05,-0.000507821,0.000385692,-0.000192913,-0.176748231,0.177303791,-0.15622732,0.138915718,642.0904541,642.090332,706.2453613,706.2438965,-0.000200563,-3.04E-08,6.08E-09,-2.28E-08,-4.38E-08,-3.77E-08,-4.08E-09,0.936583459,5.49E-07,-6.68E-06,-9.72E-05,-96.65714264,-13.94833565,6.05E-07,-1.57E-07,0.751
3.98E-06,0.001983584,-0.00143225,0.002145435,-0.002975066,-0.147254184,0.153111279,-0.209165275,0.18828696,642.0917969,642.0899048,706.2529297,706.246521,-0.000200538,-4.76E-08,-1.26E-10,-2.85E-08,-2.27E-07,-1.91E-07,-1.65E-08,0.936583519,1.84E-06,-4.55E-06,-0.000119675,-96.65714264,-13.94833565,5.80E-07,-8.96E-07,0.761
4.00E-06,0.004208039,-0.001626304,0.004134026,-0.003496134,-0.107107557,0.102173068,-0.222336099,0.215254888,642.0873413,642.0848999,706.2545776,706.2468262,-0.000200495,-6.50E-08,3.03E-08,-8.11E-09,-2.91E-07,-2.41E-07,2.00E-07,0.936583519,2.27E-06,1.33E-05,-1.46E-06,-96.65714264,-13.94833565,6.33E-07,-1.37E-06,0.771
4.02E-06,0.004952477,-6.06E-05,0.003518175,-0.002027391,-0.089099273,0.086948961,-0.224251151,0.228704959,642.0854492,642.0845337,706.2489014,706.2454224,-0.00020043,-6.39E-08,3.19E-08,-2.41E-09,-2.20E-07,-1.52E-07,8.92E-08,0.936583519,1.63E-06,2.70E-05,1.38E-05,-96.65714264,-13.94833565,8.35E-07,-1.42E-06,0.781
4.05E-06,0.010523994,-0.004677176,0.005000614,-0.004838781,-0.208601132,0.271811932,-0.214065954,0.195503965,642.0878296,642.102478,706.2410278,706.2418213,-0.000200352,-1.71E-08,5.05E-07,5.04E-07,-1.99E-07,-1.19E-07,9.70E-09,0.936583579,5.71E-06,3.56E-05,0.000134962,-96.65714264,-13.94833565,1.09E-06,2.01E-07,0.791
4.08E-06,0.014642308,-0.012726625,0.008744852,-0.013228342,-0.310575217,0.331751972,-0.201444134,0.166042894,642.0968018,642.1172485,706.2351074,706.2335205,-0.0002003,4.23E-08,7.17E-07,7.34E-07,-4.03E-07,-3.35E-07,5.02E-07,0.936583638,8.76E-06,-1.11E-05,-3.12E-06,-96.65714264,-13.94833565,1.16E-06,8.72E-07,0.801
4.13E-06,0.01144133,-0.014732833,0.008494781,-0.018461589,-0.3419348,0.321565837,-0.209858298,0.17169711,642.1013184,642.1083374,706.2373657,706.2289429,-0.000200296,3.46E-08,4.31E-07,4.54E-07,-6.20E-07,-5.57E-07,-4.44E-09,0.936583757,8.09E-06,-5.73E-05,-0.000149536,-96.65714264,-13.94833565,8.19E-07,-1.88E-07,0.811
4.19E-06,0.005404082,-0.009939549,0.00565997,-0.017358623,-0.244666427,0.20355314,-0.222263619,0.19238092,642.0969238,642.0855103,706.2443848,706.2280273,-0.000200335,-4.72E-08,-6.36E-08,-2.59E-08,-7.44E-07,-6.92E-07,-6.72E-08,0.936583817,5.20E-06,-7.33E-05,-0.000175141,-96.65714264,-13.94833565,2.29E-07,-2.44E-06,0.821
4.26E-06,0.000197205,-0.00101806,0.000682002,-0.010361142,-0.341835797,0.307935327,-0.232134268,0.219849169,642.0961914,642.0719604,706.2498779,706.2293701,-0.000200388,-1.57E-07,-6.11E-07,-5.11E-07,-7.06E-07,-6.67E-07,-1.14E-06,0.936583817,9.60E-07,-3.38E-05,-0.000201443,-96.65714264,-13.94833565,-2.53E-07,-5.23E-06,0.831
4.34E-06,0.000151366,0.002269504,-0.002670699,-0.005097024,-0.388915807,0.388457805,-0.237642437,0.241389573,642.0996094,642.0840454,706.2486572,706.2335815,-0.000200449,-2.07E-07,-5.89E-07,-4.49E-07,-5.29E-07,-5.10E-07,-2.19E-06,0.936583817,4.26E-08,-2.01E-05,-2.84E-05,-96.65714264,-13.94833565,-5.06E-07,-6.20E-06,0.841
4.43E-06,0.000744495,0.001008841,-0.004663935,-0.001923161,-0.408817917,0.417633921,-0.233767465,0.252239764,642.0929565,642.0923462,706.2416992,706.239624,-0.000200517,-1.66E-07,-4.14E-07,-2.89E-07,-3.19E-07,-3.09E-07,-1.24E-06,0.936583817,-3.02E-07,-2.02E-05,7.62E-05,-96.65714264,-13.94833565,-6.97E-07,-5.94E-06,0.851
4.52E-06,-0.000345366,0.001898298,-0.007864106,0.00204816,-0.418117791,0.424028635,-0.162847444,0.222568408,642.0835571,642.0930176,706.2305298,706.2460938,-0.000200588,-6.57E-08,-3.22E-07,-2.06E-07,1.62E-08,2.47E-08,-4.87E-07,0.936583817,-2.46E-06,-6.99E-06,0.000181094,-96.65714264,-13.94833565,-8.79E-07,-4.44E-06,0.861
4.60E-06,-0.005471549,0.007243334,-0.013667178,0.008321593,-0.406668961,0.38922286,-0.148556173,0.200127006,642.0764771,642.0870972,706.2166748,706.2467041,-0.000200665,4.78E-08,-4.56E-07,-3.40E-07,3.66E-07,3.68E-07,-1.37E-07,0.936583757,-6.15E-06,-1.85E-05,9.33E-05,-96.65714264,-13.94833565,-1.02E-06,-2.48E-06,0.871
4.67E-06,-0.009641571,0.012716952,-0.016685862,0.011294449,-0.387147307,0.367648512,-0.159389317,0.195077315,642.0734253,642.0779419,706.21875,706.2456665,-0.000200739,1.01E-07,-6.67E-07,-5.54E-07,4.16E-07,4.36E-07,-6.98E-08,0.936583698,-8.13E-06,-9.84E-06,6.42E-05,-96.65714264,-13.94833565,-1.14E-06,-1.43E-06,0.881
4.72E-06,-0.011093364,0.015657945,-0.015049942,0.012244584,-0.377833605,0.36056152,-0.162325785,0.184714451,642.0745239,642.0719604,706.225769,706.2406616,-0.000200801,8.70E-08,-7.64E-07,-6.62E-07,3.75E-07,3.88E-07,-9.35E-08,0.936583638,-8.45E-06,7.09E-06,3.13E-05,-96.65714264,-13.94833565,-1.15E-06,-8.22E-07,0.891
4.76E-06,-0.010707015,0.015773719,-0.011210052,0.011309726,-0.375281185,0.35969168,-0.165663317,0.172040969,642.0774536,642.069519,706.2315063,706.2348022,-0.000200846,3.27E-08,-7.55E-07,-6.77E-07,2.93E-07,2.96E-07,4.72E-08,0.936583519,-7.64E-06,1.99E-05,-2.62E-05,-96.65714264,-13.94833565,-1.01E-06,-7.36E-07,0.901
4.79E-06,-0.008867474,0.013471365,-0.007069543,0.009109801,-0.377856761,0.364441544,-0.161983058,0.152478561,642.0802002,642.0698853,706.2354736,706.2302246,-0.000200872,-3.26E-08,-6.77E-07,-6.30E-07,1.61E-07,1.59E-07,3.11E-08,0.936583459,-5.99E-06,2.73E-05,-8.73E-05,-96.65714264,-13.94833565,-7.82E-07,-1.25E-06,0.911
4.81E-06,-0.006016213,0.009034067,-0.002537174,0.006277039,-0.386021078,0.378134817,-0.110325612,0.093591586,642.0825806,642.0723877,706.2352295,706.2242432,-0.000200885,-8.92E-08,-5.65E-07,-5.42E-07,-2.26E-08,-4.48E-08,1.32E-07,0.9365834,-3.66E-06,2.80E-05,-6.35E-05,-96.65714264,-13.94833565,-5.29E-07,-2.28E-06,0.921
4.84E-06,-0.00268784,0.003594114,-0.000491862,0.002233696,-0.398888558,0.401901931,-0.177737966,0.15599072,642.0840454,642.0769653,706.2374878,706.2248535,-0.000200898,-1.21E-07,-4.07E-07,-4.02E-07,-2.08E-07,-2.19E-07,1.23E-06,0.9365834,-1.04E-06,4.74E-06,-3.95E-05,-96.65714264,-13.94833565,-3.54E-07,-3.29E-06,0.931
4.88E-06,0.000441042,8.15E-05,0.001086541,7.11E-05,-0.414405108,0.42309159,-0.222071767,0.22127673,642.0846558,642.0828857,706.2451172,706.2382813,-0.000200904,-1.17E-07,-2.39E-07,-2.51E-07,-2.46E-07,-2.44E-07,2.80E-06,0.9365834,2.93E-07,6.82E-06,2.60E-05,-96.65714264,-13.94833565,-3.00E-07,-3.59E-06,0.941
4.92E-06,0.001873308,-0.000905528,0.002189863,0.001585478,-0.405341446,0.425993741,-0.232810244,0.243129984,642.0834351,642.0888062,706.2451782,706.2474365,-0.0002009,-7.60E-08,-1.00E-07,-1.25E-07,-1.63E-07,-1.82E-07,7.55E-07,0.9365834,7.38E-07,1.73E-05,8.26E-05,-96.65714264,-13.94833565,-1.73E-07,-3.09E-06,0.951
4.95E-06,0.002265066,-0.001074106,0.002708102,0.003290306,-0.281494528,0.28184858,-0.188318908,0.214595601,642.0737915,642.0849609,706.2382813,706.2495728,-0.000200878,-1.26E-08,7.60E-09,-5.20E-08,-2.56E-08,-4.66E-08,1.00E-07,0.9365834,9.57E-08,3.66E-05,-0.000103727,-96.65714264,-13.94833565,5.43E-08,-1.83E-06,0.961
4.97E-06,0.001837161,-7.30E-05,0.003165631,0.004632955,-0.246219769,0.250999123,-0.090104289,0.109721713,642.0690308,642.0803223,706.2247314,706.2368164,-0.000200837,3.23E-08,2.98E-08,-2.48E-08,1.64E-11,-3.51E-08,1.04E-08,0.9365834,2.00E-07,4.48E-05,7.77E-05,-96.65714264,-13.94833565,3.95E-07,-7.87E-07,0.971
5.01E-06,0.000574425,-8.91E-05,0.001760729,0.002954052,-0.258007258,0.270095199,-0.053526718,0.063709967,642.0753174,642.0819702,706.218811,706.2268066,-0.000200794,4.46E-08,5.44E-09,-4.14E-08,9.67E-09,-6.52E-09,-6.76E-09,0.9365834,4.41E-08,2.51E-05,-6.72E-05,-96.65714264,-13.94833565,6.77E-07,2.85E-08,0.981
5.06E-06,-0.000785009,-0.001047465,0.000573573,0.000566518,-0.254613578,0.254042029,-0.064973265,0.060841393,642.0843506,642.0864868,706.2230225,706.2254639,-0.000200765,3.19E-08,2.94E-08,-2.39E-08,1.31E-08,-1.54E-09,-7.23E-09,0.9365834,1.72E-07,-1.21E-05,-0.000164582,-96.65714264,-13.94833565,7.42E-07,5.78E-07,0.991
5.12E-06,-0.002436665,-0.002175495,0.000830923,1.31E-06,-0.195949882,0.197475925,-0.103465736,0.100557894,642.0829468,642.081543,706.2348633,706.2333374,-0.000200751,9.40E-09,4.35E-08,-3.75E-08,2.00E-08,-2.84E-09,-1.85E-08,0.9365834,1.72E-07,-1.63E-05,-9.20E-05,-96.65714264,-13.94833565,6.18E-07,7.11E-07,1.001
5.19E-06,-0.002204382,-0.001732088,0.002702027,0.001300042,-0.184105158,0.181642786,-0.107624449,0.103755549,642.0830078,642.0802612,706.2427368,706.239502,-0.000200738,-1.16E-08,4.36E-08,-3.72E-08,3.66E-08,-1.82E-08,-4.15E-08,0.9365834,1.45E-07,2.08E-06,-2.10E-05,-96.65714264,-13.94833565,5.52E-07,5.93E-07,1.011
5.27E-06,-0.001697865,-0.001347615,0.004003448,0.00266315,-0.194155887,0.191334888,-0.09635786,0.093109809,642.0870361,642.0845337,706.2438354,706.2406616,-0.000200717,-2.58E-08,4.24E-08,-3.57E-08,4.50E-08,-3.05E-08,-2.26E-08,0.9365834,1.52E-07,1.60E-05,-1.91E-05,-96.65714264,-13.94833565,6.47E-07,3.62E-07,1.021
5.34E-06,-0.001747843,-0.00160821,0.003673267,0.002710952,-0.19950746,0.197799444,-0.09112943,0.088780485,642.0912476,642.0898438,706.243103,706.2409668,-0.000200691,-3.22E-08,4.19E-08,-3.96E-08,4.13E-08,-3.06E-08,-3.40E-08,0.9365834,1.49E-07,1.20E-05,-1.67E-05,-96.65714264,-13.94833565,7.80E-07,1.45E-07,1.031
5.41E-06,-0.00203021,-0.00210513,0.002648347,0.002100996,-0.191244587,0.190584615,-0.093272775,0.092000909,642.0927734,642.0924683,706.2431641,706.2422485,-0.000200665,-3.27E-08,4.13E-08,-4.29E-08,3.32E-08,-2.63E-08,-6.19E-08,0.9365834,1.45E-07,1.35E-06,-1.14E-05,-96.65714264,-13.94833565,8.40E-07,6.66E-09,1.041
5.47E-06,-0.00199964,-0.002235091,0.001781552,0.001517444,-0.179698348,0.179773495,-0.10081467,0.100560032,642.0922241,642.0927124,706.2442627,706.2442017,-0.000200643,-3.04E-08,3.78E-08,-4.13E-08,2.52E-08,-2.19E-08,-4.68E-07,0.9365834,1.47E-07,-4.55E-06,-1.22E-06,-96.65714264,-13.94833565,8.25E-07,-4.37E-08,1.051
5.52E-06,-0.001584733,-0.001893084,0.001310617,0.001173728,-0.172939703,0.173535258,-0.107200392,0.107464477,642.0916748,642.0924683,706.2454224,706.2456665,-0.000200622,-2.79E-08,3.17E-08,-3.61E-08,1.92E-08,-1.74E-08,2.00E-07,0.936583459,1.48E-07,-3.68E-06,3.27E-06,-96.65714264,-13.94833565,7.88E-07,-3.25E-08,1.061
5.56E-06,-0.001072094,-0.001383102,0.001042809,0.000912565,-0.172300279,0.172968134,-0.107964896,0.108329788,642.0917969,642.0925293,706.2454834,706.2457275,-0.0002006,-2.64E-08,2.54E-08,-2.98E-08,1.46E-08,-1.28E-08,1.30E-07,0.936583459,1.47E-07,-1.13E-06,4.50E-06,-96.65714264,-13.94833565,7.64E-07,4.59E-09,1.071
5.59E-06,-0.000689616,-0.000967123,0.000655115,0.000473599,-0.172890887,0.173410505,-0.109398216,0.109598726,642.0921631,642.0927124,706.2446899,706.2446899,-0.000200579,-2.62E-08,2.01E-08,-2.40E-08,9.56E-09,-6.60E-09,1.89E-07,0.936583459,1.46E-07,-1.90E-06,2.88E-06,-96.65714264,-13.94833565,7.49E-07,4.07E-08,1.081
5.60E-06,-0.00030532,-0.000717617,0.000234182,2.70E-05,-0.172538087,0.1706388,-0.138968125,0.125942916,642.0921021,642.0923462,706.2446899,706.2439575,-0.000200558,-2.77E-08,1.27E-08,-2.21E-08,-1.77E-08,-1.78E-08,-5.46E-09,0.936583459,3.56E-07,-9.02E-06,-9.51E-05,-96.65714264,-13.94833565,7.21E-07,-8.24E-09,1.091
5.62E-06,0.001670979,-0.001804494,0.001850183,-0.003238332,-0.154978141,0.146320969,-0.204613954,0.178352207,642.0921021,642.0909424,706.2526855,706.2462769,-0.000200532,-4.44E-08,2.12E-08,-9.37E-09,-2.31E-07,-1.93E-07,-2.34E-08,0.936583459,1.93E-06,-9.71E-06,-5.23E-05,-96.65714264,-13.94833565,6.65E-07,-7.38E-07,1.101
5.63E-06,0.004376982,-0.002215238,0.004337056,-0.004512783,-0.098804556,0.104738183,-0.222404853,0.209585756,642.0886841,642.0854492,706.2563477,706.2467651,-0.000200491,-6.81E-08,2.04E-08,-1.73E-08,-3.45E-07,-2.91E-07,9.09E-07,0.936583459,2.74E-06,8.67E-06,-1.21E-05,-96.65714264,-13.94833565,6.71E-07,-1.49E-06,1.111
5.66E-06,0.005629035,-0.000737933,0.004409301,-0.003263005,-0.077961244,0.078600325,-0.225009307,0.225754157,642.0861816,642.0840454,706.2514038,706.2454224,-0.000200426,-7.41E-08,2.61E-08,-8.44E-09,-2.96E-07,-2.25E-07,1.88E-07,0.936583519,2.22E-06,2.65E-05,-1.02E-05,-96.65714264,-13.94833565,8.40E-07,-1.71E-06,1.121
5.69E-06,0.00599772,-0.000199075,0.002667764,-0.002147595,-0.085578516,0.147261307,-0.230084509,0.228570968,642.0857544,642.0886841,706.2437744,706.243103,-0.000200343,-5.51E-08,9.22E-08,6.26E-08,-2.26E-07,-1.32E-07,4.43E-08,0.936583519,2.61E-06,3.98E-05,6.86E-05,-96.65714264,-13.94833565,1.09E-06,-1.43E-06,1.131
5.72E-06,0.014142144,-0.008984058,0.006885599,-0.009451614,-0.242657378,0.294764817,-0.219794899,0.188608468,642.0914307,642.1122437,706.2374878,706.2372437,-0.000200264,1.04E-08,6.73E-07,6.83E-07,-3.44E-07,-2.52E-07,1.89E-08,0.936583579,8.03E-06,1.65E-05,0.000101305,-96.65714264,-13.94833565,1.28E-06,3.48E-07,1.141
5.77E-06,0.015147761,-0.015576237,0.009612058,-0.017440254,-0.320631653,0.326403499,-0.212879807,0.175768614,642.0997925,642.1176147,706.2349243,706.2303467,-0.000200226,5.05E-08,6.70E-07,6.89E-07,-5.65E-07,-4.90E-07,-3.74E-08,0.936583638,9.55E-06,-3.54E-05,-5.13E-05,-96.65714264,-13.94833565,1.16E-06,3.47E-07,1.151
5.82E-06,0.009678582,-0.014340162,0.007822232,-0.019819086,-0.325300574,0.290754408,-0.218676984,0.1847004,642.1019897,642.1017456,706.2386475,706.2272949,-0.000200243,1.32E-08,2.39E-07,2.75E-07,-7.22E-07,-6.64E-07,-1.23E-08,0.936583757,7.38E-06,-7.30E-05,-0.00019002,-96.65714264,-13.94833565,6.47E-07,-1.21E-06,1.161
5.89E-06,0.003060233,-0.007493217,0.003905786,-0.015703283,-0.276028782,0.204244584,-0.227800772,0.205102265,642.0935669,642.0759277,706.2450562,706.2272339,-0.000200296,-8.32E-08,-3.08E-07,-2.54E-07,-7.67E-07,-7.22E-07,-2.54E-07,0.936583817,3.31E-06,-5.41E-05,-0.00030332,-96.65714264,-13.94833565,5.56E-09,-3.72E-06,1.171
5.97E-06,-0.000691127,0.001242222,-0.001646612,-0.008206065,-0.363411516,0.346360356,-0.235208795,0.230801806,642.098999,642.0757446,706.2489014,706.2296753,-0.000200362,-1.82E-07,-6.97E-07,-5.60E-07,-6.63E-07,-6.36E-07,-1.53E-06,0.936583817,1.97E-07,-3.24E-05,-0.000116763,-96.65714264,-13.94833565,-4.30E-07,-6.03E-06,1.181
6.06E-06,-0.000201918,0.001985344,-0.00416458,-0.003772784,-0.397220492,0.402487308,-0.236628428,0.247360706,642.0978394,642.0880127,706.2454224,706.2351074,-0.000200439,-1.97E-07,-5.59E-07,-4.10E-07,-4.52E-07,-4.46E-07,-1.52E-06,0.936583817,-2.56E-07,-2.49E-05,2.10E-05,-96.65714264,-13.94833565,-6.95E-07,-6.38E-06,1.191
6.16E-06,9.86E-05,0.00099647,-0.006153964,-0.000666114,-0.41266498,0.422993451,-0.217399687,0.255315125,642.088623,642.0929565,706.2373047,706.2423706,-0.000200521,-1.28E-07,-3.94E-07,-2.63E-07,-2.06E-07,-2.03E-07,-5.95E-07,0.936583817,-1.07E-06,-2.24E-05,0.000196372,-96.65714264,-13.94833565,-9.26E-07,-5.60E-06,1.201
6.24E-06,-0.003078889,0.004324269,-0.0110382,0.005752497,-0.414212525,0.409352183,-0.14203085,0.203013286,642.0793457,642.0908813,706.2216187,706.2467651,-0.000200608,-9.57E-09,-3.77E-07,-2.49E-07,2.43E-07,2.29E-07,-1.92E-07,0.936583757,-4.51E-06,-2.06E-05,0.000157868,-96.65714264,-13.94833565,-1.11E-06,-3.44E-06,1.211
6.32E-06,-0.007782676,0.009938409,-0.015683025,0.010048514,-0.394907624,0.376101583,-0.156065732,0.197248861,642.0734253,642.0823364,706.2166138,706.2475586,-0.000200696,8.33E-08,-5.68E-07,-4.44E-07,4.07E-07,4.12E-07,-9.90E-08,0.936583698,-7.23E-06,-1.60E-05,7.41E-05,-96.65714264,-13.94833565,-1.26E-06,-1.93E-06,1.221
6.38E-06,-0.010249513,0.014246207,-0.015863253,0.01185138,-0.382659167,0.363790959,-0.159937233,0.187968075,642.0728149,642.0740967,706.2226563,706.2441406,-0.000200774,1.02E-07,-7.34E-07,-6.17E-07,3.79E-07,3.90E-07,-8.62E-08,0.936583638,-8.25E-06,1.08E-07,4.77E-05,-96.65714264,-13.94833565,-1.33E-06,-1.15E-06,1.231
6.42E-06,-0.010732209,0.015889974,-0.012694173,0.011875553,-0.378417701,0.361312211,-0.160488725,0.173051611,642.0756226,642.0697021,706.2293091,706.2375488,-0.000200834,6.10E-08,-7.86E-07,-6.89E-07,3.07E-07,3.07E-07,1.63E-07,0.936583579,-7.98E-06,1.63E-05,-5.54E-06,-96.65714264,-13.94833565,-1.23E-06,-8.61E-07,1.241
6.46E-06,-0.009512397,0.014642357,-0.008510826,0.010066704,-0.379241258,0.364461392,-0.156936392,0.15233393,642.0787964,642.0687256,706.2342529,706.2314453,-0.000200875,-5.59E-09,-7.39E-07,-6.72E-07,1.86E-07,1.81E-07,3.73E-08,0.936583459,-6.62E-06,2.69E-05,-6.86E-05,-96.65714264,-13.94833565,-1.02E-06,-1.18E-06,1.251
6.48E-06,-0.006977233,0.010894326,-0.003847139,0.007210952,-0.38523078,0.374893636,-0.115253978,0.096257985,642.0812378,642.0703735,706.2357178,706.2253418,-0.000200898,-7.13E-08,-6.36E-07,-5.99E-07,8.12E-09,-9.35E-09,8.71E-08,0.936583459,-4.40E-06,3.52E-05,-7.09E-05,-96.65714264,-13.94833565,-7.59E-07,-2.10E-06,1.261
6.51E-06,-0.004307266,0.005924257,-0.001397798,0.004269409,-0.39465645,0.394012213,-0.140448287,0.11670091,642.0826416,642.0742798,706.2345581,706.2224731,-0.000200917,-1.12E-07,-4.89E-07,-4.73E-07,-1.23E-07,-1.46E-07,3.31E-07,0.9365834,-2.23E-06,9.96E-06,-0.000105356,-96.65714264,-13.94833565,-5.31E-07,-3.01E-06,1.271
6.55E-06,-0.000651895,0.001526074,0.000245739,0.000709908,-0.409628719,0.416239172,-0.207942694,0.20100148,642.083252,642.079834,706.2434082,706.2345581,-0.00020093,-1.20E-07,-3.15E-07,-3.20E-07,-2.42E-07,-2.39E-07,2.18E-06,0.9365834,-2.55E-07,6.43E-06,2.68E-06,-96.65714264,-13.94833565,-4.44E-07,-3.61E-06,1.281
6.59E-06,0.001462697,-0.000203378,0.001922125,0.001575398,-0.416126549,0.428846151,-0.230852813,0.236224115,642.083313,642.0861206,706.2467041,706.2460327,-0.00020093,-9.08E-08,-1.76E-07,-1.96E-07,-2.00E-07,-2.13E-07,8.42E-07,0.9365834,4.22E-07,1.88E-05,5.02E-05,-96.65714264,-13.9483366,-3.20E-07,-3.43E-06,1.291
6.62E-06,0.003861473,-0.001903653,0.003759024,0.002054236,-0.318639159,0.342747927,-0.217067376,0.240581825,642.0773315,642.0897827,706.2426147,706.25,-0.000200914,-3.31E-08,9.55E-08,4.97E-08,-1.17E-07,-1.39E-07,2.31E-07,0.9365834,1.67E-06,2.91E-05,0.000259036,-96.65714264,-13.9483366,-7.98E-08,-2.11E-06,1.301
6.65E-06,0.002134738,-0.000222634,0.003012472,0.004792917,-0.264334023,0.301290184,-0.134483606,0.132142589,642.0701904,642.0838623,706.2302856,706.2435913,-0.000200876,2.66E-08,8.16E-08,2.26E-08,1.14E-08,-1.96E-08,7.71E-09,0.9365834,9.29E-07,4.48E-05,0.00021818,-96.65714264,-13.9483366,2.53E-07,-8.61E-07,1.311
6.67E-06,0.003321175,-0.001959036,0.00339497,0.002082563,-0.326438934,0.343961716,-0.07923153,0.082193673,642.0749512,642.0886841,706.2202759,706.2317505,-0.000200833,6.36E-08,1.97E-07,1.61E-07,2.65E-08,5.63E-09,5.34E-08,0.9365834,1.50E-06,3.03E-05,5.19E-05,-96.65714264,-13.9483366,5.89E-07,6.21E-07,1.321
6.71E-06,-0.000535078,-0.000703718,-0.000468175,0.000567273,-0.373109698,0.354639083,-0.133716583,0.157557681,642.0869141,642.0922852,706.2234497,706.2327271,-0.000200805,6.91E-08,6.50E-08,2.89E-08,1.36E-07,1.45E-07,2.32E-07,0.9365834,-8.37E-07,-1.58E-05,-6.70E-06,-96.65714264,-13.9483366,6.68E-07,1.51E-06,1.331
6.76E-06,-0.002073117,-0.001256625,-0.001761748,0.000389155,-0.323742062,0.350714356,-0.201064915,0.214544073,642.0847168,642.090332,706.2389526,706.2455444,-0.000200788,6.52E-08,2.52E-07,1.92E-07,2.43E-07,2.61E-07,2.24E-07,0.9365834,2.44E-08,-1.44E-05,0.000149029,-96.65714264,-13.9483366,5.12E-07,2.94E-06,1.341
6.81E-06,-0.000752335,-0.001455551,0.00130813,0.000271985,-0.392637253,0.390948355,-0.237868369,0.236892745,642.0906372,642.09552,706.2476807,706.2513428,-0.000200773,6.39E-08,2.98E-07,2.58E-07,2.57E-07,2.38E-07,4.92E-06,0.9365834,3.79E-07,-1.32E-06,1.19E-05,-96.65714264,-13.94833565,4.34E-07,3.65E-06,1.351
6.85E-06,-0.001294439,-0.000539286,0.002145475,0.000712453,-0.415838838,0.410813063,-0.247147232,0.24549453,642.09729,642.0962524,706.2503662,706.2497559,-0.000200757,3.73E-08,2.07E-07,1.70E-07,2.33E-07,2.02E-07,-1.71E-06,0.9365834,-5.21E-08,4.51E-06,-2.05E-05,-96.65714264,-13.94833565,4.59E-07,3.46E-06,1.361
6.89E-06,-0.001344438,-0.000343471,0.00146513,6.55E-05,-0.419690132,0.420881599,-0.25220421,0.249251589,642.0982056,642.0949097,706.2495117,706.2462158,-0.000200742,6.50E-09,2.10E-07,1.80E-07,2.23E-07,2.08E-07,-2.37E-05,0.9365834,6.25E-08,-7.67E-07,-8.98E-06,-96.65714264,-13.94833565,4.77E-07,3.34E-06,1.371
6.92E-06,-0.000650216,-0.000394739,0.00068173,-0.001268731,-0.427499861,0.424317837,-0.256676942,0.248822406,642.0960693,642.0932617,706.2472534,706.2437744,-0.000200729,-1.44E-08,2.23E-07,2.10E-07,1.99E-07,2.09E-07,-6.54E-05,0.9365834,3.10E-07,-6.20E-06,-4.56E-05,-96.65714264,-13.94833565,4.40E-07,3.14E-06,1.381
6.96E-06,0.000308145,-0.0004066,0.000493627,-0.002645858,-0.432590634,0.425793856,-0.257988036,0.232952803,642.0941772,642.0911865,706.2455444,706.2409058,-0.00020072,-3.54E-08,1.80E-07,1.87E-07,9.87E-08,1.27E-07,-4.21E-07,0.936583459,8.59E-07,-6.84E-06,-0.000151276,-96.65714264,-13.94833565,3.63E-07,2.49E-06,1.391
6.99E-06,0.002792469,-0.002606197,0.003502943,-0.005700853,-0.409751773,0.40655005,-0.20530647,0.156091198,642.092041,642.0878906,706.2418823,706.2293701,-0.000200719,-7.46E-08,1.40E-07,1.65E-07,-1.93E-07,-1.80E-07,-3.32E-08,0.936583459,3.07E-06,-1.48E-05,-0.000154708,-96.65714264,-13.94833565,2.94E-07,9.67E-07,1.401
7.02E-06,0.005823853,-0.005627831,0.005776381,-0.01009597,-0.330475718,0.330718994,-0.216970146,0.181468636,642.085083,642.0792236,706.2434692,706.2245483,-0.000200728,-1.24E-07,1.35E-07,1.56E-07,-4.42E-07,-4.02E-07,-9.97E-09,0.936583519,4.72E-06,-2.19E-05,-0.000109831,-96.65714264,-13.94833565,1.59E-07,-6.64E-07,1.411
7.05E-06,0.008734154,-0.006595479,0.007288835,-0.010476938,-0.27293101,0.288930059,-0.221112102,0.199192599,642.0765991,642.0728149,706.244873,706.2280884,-0.000200728,-1.47E-07,1.96E-07,2.11E-07,-4.98E-07,-4.46E-07,-8.03E-07,0.936583519,5.56E-06,-2.26E-06,-3.32E-05,-96.65714264,-13.94833565,5.08E-08,-1.62E-06,1.421
7.07E-06,0.012403717,-0.008013627,0.008919667,-0.008980323,-0.281347305,0.314635873,-0.214725494,0.208367705,642.0737305,642.0789185,706.241272,706.232605,-0.00020071,-1.17E-07,4.03E-07,4.21E-07,-4.23E-07,-3.82E-07,6.65E-08,0.936583579,6.59E-06,2.24E-05,8.24E-05,-96.65714264,-13.94833565,1.36E-07,-1.41E-06,1.431
7.08E-06,0.013446943,-0.009384922,0.008971313,-0.007439504,-0.318211734,0.343827397,-0.197159782,0.203180283,642.0764771,642.0907593,706.2340088,706.2360229,-0.000200681,-4.21E-08,5.62E-07,5.71E-07,-2.80E-07,-2.55E-07,2.77E-09,0.936583698,6.55E-06,2.53E-05,0.000114054,-96.65714264,-13.94833565,3.43E-07,-3.82E-07,1.441
7.09E-06,0.009926138,-0.008759911,0.006785506,-0.005783958,-0.350699335,0.355799735,-0.173996106,0.181660652,642.0810547,642.0964966,706.2278442,706.2366943,-0.000200655,2.87E-08,4.93E-07,4.86E-07,-1.58E-07,-1.49E-07,1.86E-08,0.936583757,4.95E-06,9.52E-06,5.53E-05,-96.65714264,-13.94833565,4.85E-07,5.55E-07,1.451
7.10E-06,0.00371906,-0.005746709,0.003456551,-0.0040533,-0.373066783,0.340731204,-0.174268991,0.170698568,642.0861816,642.0927124,706.2276001,706.2342529,-0.000200647,4.75E-08,1.92E-07,1.76E-07,-1.31E-07,-1.36E-07,-1.17E-08,0.936583757,2.30E-06,-1.45E-05,-8.79E-05,-96.65714264,-13.94833565,4.60E-07,5.57E-07,1.461
7.11E-06,-0.004363411,0.001029758,-0.001629862,-0.000802481,-0.382669061,0.355326772,-0.215980828,0.213651791,642.0941772,642.0797729,706.2384033,706.2337036,-0.000200654,-1.94E-08,-4.27E-07,-4.39E-07,-2.06E-07,-2.03E-07,-5.69E-08,0.936583757,-1.74E-06,-2.13E-05,-0.000112639,-96.65714264,-13.94833565,2.84E-07,-1.51E-06,1.471
7.13E-06,-0.005102177,0.002869776,-0.002962914,0.001853947,-0.383637548,0.40090403,-0.186546207,0.222203001,642.0957031,642.083374,706.244751,706.2380371,-0.00020067,-7.50E-08,-3.16E-07,-3.10E-07,-2.15E-08,-3.72E-08,1.63E-07,0.936583757,-2.19E-06,-4.44E-06,0.00018525,-96.65714264,-13.94833565,1.14E-07,-1.35E-06,1.481
7.14E-06,-0.000426642,-0.002530454,3.58E-06,0.000410547,-0.345220566,0.396944463,-0.198938072,0.191460401,642.0828857,642.0915527,706.2377319,706.2380981,-0.000200694,-4.23E-08,2.62E-07,2.62E-07,9.11E-08,4.86E-08,8.30E-09,0.936583757,1.93E-06,-1.20E-05,0.000217069,-96.65714264,-13.94833565,3.10E-08,4.67E-07,1.491
7.15E-06,0.003586643,-0.006117034,0.003897347,-0.00285139,-0.391017526,0.37830615,-0.114509247,0.133787513,642.0802612,642.0928955,706.2330322,706.237793,-0.000200721,8.63E-09,3.05E-07,3.18E-07,1.03E-08,-3.98E-08,-3.12E-07,0.936583757,2.33E-06,-2.70E-06,0.000101074,-96.65714264,-13.94833565,-3.98E-08,8.22E-07,1.501
7.17E-06,-0.002539292,-0.000530717,-0.000349567,0.000270114,-0.382662356,0.342182666,-0.124109186,0.135669455,642.0866089,642.0826416,706.2305908,706.2351074,-0.000200757,5.11E-09,-2.20E-07,-2.06E-07,3.33E-08,-9.92E-09,1.05E-09,0.936583757,-1.87E-06,-7.76E-06,-0.000238355,-96.65714264,-13.94833565,-1.19E-07,-2.77E-07,1.511
7.18E-06,-0.004487992,0.001574848,-0.00227014,0.002155412,-0.371359706,0.395009875,-0.091474786,0.087677293,642.0878296,642.081543,706.2348022,706.2333374,-0.000200798,-2.99E-08,-2.20E-07,-1.95E-07,3.38E-08,-1.50E-08,-1.76E-08,0.936583757,-1.30E-06,-1.26E-05,5.32E-06,-96.65714264,-13.94833565,-2.42E-07,-4.26E-07,1.521
7.20E-06,0.000733675,-0.003602012,0.001487316,-0.001392652,-0.359156549,0.370698392,-0.108505972,0.115823612,642.0799561,642.0861816,706.2392578,706.2368774,-0.000200842,-2.19E-08,2.18E-07,2.32E-07,-6.58E-09,-4.94E-08,-5.88E-09,0.936583757,1.97E-06,-5.82E-06,0.000269783,-96.65714264,-13.94833565,-3.49E-07,7.29E-07,1.531
7.22E-06,-0.000195305,-0.001006621,0.001566252,7.15E-07,-0.379803985,0.332040459,-0.113204375,0.110155597,642.0842896,642.0844116,706.2398682,706.2407837,-0.000200882,-1.58E-08,-2.85E-08,-1.40E-08,5.44E-08,-7.54E-10,7.12E-10,0.936583757,-5.40E-07,-1.01E-05,-0.000445335,-96.65714264,-13.94833565,-3.85E-07,3.18E-07,1.541
7.25E-06,-0.001524295,0.000690194,0.000586628,0.001657699,-0.380968452,0.392009258,-0.142580777,0.142867386,642.0872803,642.0831909,706.2456055,706.2428589,-0.00020091,-3.92E-08,-1.21E-07,-1.16E-07,-1.77E-08,-6.07E-08,-5.09E-09,0.936583757,-3.67E-07,5.38E-06,8.14E-05,-96.65714264,-13.94833565,-3.63E-07,-3.72E-07,1.551
7.27E-06,0.000669354,-0.000615339,0.002256873,0.001290194,-0.38987276,0.396809191,-0.118927069,0.121902272,642.086731,642.088562,706.2452393,706.2444458,-0.000200925,-3.48E-08,8.39E-08,8.15E-08,3.87E-08,-5.92E-09,3.76E-09,0.936583757,6.31E-07,1.85E-05,-8.25E-05,-96.65714264,-13.94833565,-2.60E-07,2.93E-07,1.561
7.28E-06,0.000213714,-0.000191243,0.002253735,0.001229443,-0.384865522,0.351848394,-0.101512052,0.102378711,642.0880737,642.0889893,706.2409668,706.241272,-0.000200932,-2.72E-08,4.57E-09,-2.71E-09,1.91E-08,-2.16E-08,-1.23E-09,0.936583757,-1.21E-07,-4.28E-06,2.10E-05,-96.65714264,-13.94833565,-1.20E-07,7.12E-08,1.571
7.30E-06,-0.000628212,0.000313825,0.000454872,0.001493869,-0.384910941,0.399322391,-0.093024254,0.097136214,642.0881348,642.086853,706.239563,706.2388916,-0.000200937,-3.50E-08,-5.43E-08,-6.12E-08,4.61E-09,-1.86E-08,-2.11E-08,0.936583757,-1.64E-07,6.45E-06,5.35E-05,-96.65714264,-13.94833565,-3.34E-08,-2.07E-07,1.581
7.31E-06,-8.54E-07,-3.10E-05,0.000400981,0.000359809,-0.360505074,0.345388055,-0.102370404,0.100045219,642.0853271,642.0864258,706.2398071,706.239624,-0.00020094,-3.16E-08,2.71E-08,1.58E-08,6.63E-09,-1.44E-09,3.07E-08,0.936583757,1.48E-07,4.97E-06,-5.39E-05,-96.65714264,-13.94833565,2.35E-09,5.54E-08,1.591
7.32E-06,-0.001050913,0.001036555,2.59E-06,0.001522814,-0.375857383,0.378091008,-0.073639877,0.073891327,642.0864868,642.0844116,706.2386475,706.237793,-0.00020094,-3.88E-08,-1.06E-07,-1.08E-07,3.44E-09,-1.16E-08,4.62E-08,0.936583757,-6.24E-07,6.78E-06,-2.64E-05,-96.65714264,-13.94833565,4.68E-08,-4.15E-07,1.601
7.32E-06,-6.23E-05,4.45E-05,2.53E-09,0.000428049,-0.34761548,0.358646989,-0.087554917,0.089389831,642.0878296,642.0888672,706.2380371,706.2375488,-0.000200943,-3.62E-08,1.34E-09,3.20E-09,4.77E-09,-5.51E-09,2.45E-09,0.936583757,2.04E-07,-2.34E-05,5.78E-05,-96.65714264,-13.94833565,8.56E-08,-1.38E-07,1.611
7.33E-06,0.000215736,-0.000391936,-3.88E-06,4.70E-05,-0.342725426,0.350380659,-0.144895852,0.152096584,642.0825195,642.0856934,706.2416992,706.2429199,-0.000200942,-2.62E-08,7.15E-08,5.60E-08,2.75E-08,3.85E-08,1.36E-09,0.936583757,3.48E-07,-2.88E-06,7.74E-05,-96.65714264,-13.94833565,7.94E-08,1.94E-07,1.621
7.34E-06,0.00202031,0.000144802,-1.47E-05,-3.88E-05,-0.374573469,0.396553516,-0.210155889,0.215077594,642.0855103,642.0912476,706.2493896,706.2528076,-0.000200927,-4.89E-09,1.37E-07,1.31E-07,6.35E-08,9.84E-08,1.88E-06,0.936583757,6.59E-07,9.62E-06,6.73E-05,-96.65714264,-13.94833565,1.18E-07,8.01E-07,1.631
7.36E-06,0.004740019,-0.001125121,0.002217878,-0.000259828,-0.386097461,0.413465232,-0.219541803,0.238476917,642.086731,642.0977173,706.2496338,706.2553711,-0.000200893,2.85E-08,3.53E-07,3.39E-07,1.31E-07,1.62E-07,-3.39E-06,0.936583757,1.67E-06,2.41E-05,0.000172008,-96.65714264,-13.94833565,2.78E-07,2.11E-06,1.641
7.39E-06,0.004990032,-0.001184694,0.002157974,-0.000655333,-0.402507275,0.417936653,-0.235561878,0.246050179,642.0872803,642.1000977,706.2441406,706.2529297,-0.000200847,6.70E-08,4.49E-07,4.32E-07,2.29E-07,2.74E-07,-1.47E-06,0.936583817,1.59E-06,2.13E-05,8.95E-05,-96.65714264,-13.94833565,4.93E-07,3.53E-06,1.651
7.44E-06,0.004571943,-0.000830326,0.001506822,-0.002548846,-0.412233383,0.420233101,-0.24728699,0.243782952,642.0889282,642.0979614,706.2415161,706.2474365,-0.000200796,7.78E-08,4.28E-07,4.17E-07,1.93E-07,2.67E-07,-2.12E-06,0.936583817,1.67E-06,1.15E-05,1.87E-05,-96.65714264,-13.94833565,6.37E-07,4.20E-06,1.661
7.51E-06,0.004972423,-0.001514652,0.00224833,-0.005349184,-0.412840754,0.420646638,-0.230643705,0.212151453,642.0905151,642.0933228,706.2407837,706.2388916,-0.000200748,5.20E-08,4.03E-07,4.04E-07,6.03E-08,1.48E-07,-2.27E-06,0.936583817,2.60E-06,7.48E-06,-2.52E-06,-96.65714264,-13.94833565,6.86E-07,4.15E-06,1.671
7.57E-06,0.004509565,-0.002585866,0.002783825,-0.00684131,-0.412610292,0.417186827,-0.162987471,0.152922109,642.0900269,642.0891113,706.2328491,706.2271118,-0.000200717,1.21E-08,4.11E-07,4.33E-07,6.45E-08,1.28E-07,2.21E-05,0.936583877,2.71E-06,-8.67E-06,-4.93E-05,-96.65714264,-13.94833565,6.62E-07,4.15E-06,1.681
7.63E-06,0.00358815,-0.003632258,0.00217448,-0.008622934,-0.417143703,0.411239922,-0.114514373,0.103655696,642.0884399,642.0856323,706.2282104,706.2199707,-0.000200713,-2.68E-08,3.66E-07,4.09E-07,1.37E-08,6.52E-08,7.32E-07,0.936583877,2.79E-06,-2.34E-05,-3.93E-05,-96.65714264,-13.94833565,4.91E-07,3.58E-06,1.691
7.68E-06,0.001269783,-0.003511142,0.000669795,-0.007970537,-0.423786163,0.402149618,-0.079114363,0.061093017,642.0872803,642.0813599,706.2254028,706.2165527,-0.000200742,-6.55E-08,2.20E-07,2.80E-07,5.70E-09,2.46E-08,2.65E-07,0.936583936,1.88E-06,-4.03E-05,-0.000209806,-96.65714264,-13.94833565,1.82E-07,2.59E-06,1.701
7.70E-06,-0.0005399,-0.002610716,0.001190916,-0.00917637,-0.427396566,0.335456133,-0.169171125,0.097369984,642.0883789,642.0723267,706.2370605,706.2164917,-0.000200799,-1.38E-07,-2.19E-07,-1.60E-07,-3.94E-07,-3.83E-07,1.03E-08,0.936583936,1.44E-06,-5.04E-05,-0.000512862,-96.65714264,-13.94833565,-2.16E-07,-8.59E-07,1.711
7.74E-06,-0.001671763,0.0004407,0.001000377,-0.006571484,-0.42109248,0.400137156,-0.214580864,0.189243421,642.0926514,642.06604,706.2567749,706.2259521,-0.000200857,-2.61E-07,-5.99E-07,-5.40E-07,-6.23E-07,-6.16E-07,-3.80E-06,0.936583936,5.45E-07,-2.63E-05,-0.0001681,-96.65714264,-13.94833565,-5.71E-07,-4.74E-06,1.721
7.79E-06,0.000841288,0.000490958,0.001738831,-0.001131567,-0.420875698,0.425483078,-0.232381299,0.236049011,642.0893555,642.0744019,706.258606,706.2376709,-0.000200897,-2.90E-07,-4.13E-07,-3.70E-07,-4.34E-07,-4.60E-07,3.61E-06,0.936583936,5.13E-07,7.48E-06,-1.49E-05,-96.65714264,-13.94833565,-6.35E-07,-5.69E-06,1.731
7.85E-06,0.003252828,-0.000294421,0.001416949,0.002773952,-0.407337934,0.432447851,-0.241115674,0.24896045,642.0822754,642.0847168,706.24823,706.2473145,-0.00020091,-2.13E-07,-1.80E-07,-1.63E-07,-2.27E-07,-2.53E-07,1.11E-06,0.936583936,7.54E-07,2.80E-05,3.24E-05,-96.65714264,-13.94833565,-4.44E-07,-5.27E-06,1.741
7.89E-06,0.008640073,-0.004542417,0.003727665,0.001180481,-0.288344562,0.343850017,-0.234017298,0.250748158,642.0662231,642.0888672,706.2379761,706.2507324,-0.000200891,-7.90E-08,2.68E-07,2.41E-07,-2.03E-07,-1.95E-07,4.15E-07,0.936583996,3.75E-06,4.00E-05,0.000287544,-96.65714264,-13.94833565,-1.43E-07,-3.40E-06,1.751
7.91E-06,0.011403958,-0.005306205,0.003757184,0.000641225,-0.320323378,0.366007417,-0.171889767,0.241479412,642.0632324,642.0949707,706.227417,706.2511597,-0.000200843,6.64E-08,5.02E-07,4.84E-07,1.76E-08,5.25E-08,3.94E-10,0.936583996,3.31E-06,5.09E-05,0.000552357,-96.65714264,-13.94833565,2.37E-07,-3.05E-07,1.761
7.93E-06,0.008011527,-0.002906125,0.000577868,0.001363638,-0.365079343,0.393375486,-0.219769776,0.24298577,642.0720825,642.1019897,706.2208252,706.2495728,-0.000200784,1.85E-07,5.50E-07,5.32E-07,2.64E-07,3.18E-07,1.38E-06,0.936584055,2.01E-06,2.77E-05,0.000183248,-96.65714264,-13.94833565,5.78E-07,3.04E-06,1.771
7.97E-06,0.004939107,-0.002811038,0.001472913,-0.001852888,-0.396489769,0.40549013,-0.242374748,0.244626969,642.0825195,642.1003418,706.2286987,706.2436523,-0.00020073,2.07E-07,4.63E-07,4.29E-07,1.56E-07,2.13E-07,3.29E-06,0.936584055,2.08E-06,8.59E-06,9.35E-05,-96.65714264,-13.94833565,7.17E-07,4.49E-06,1.781
8.02E-06,0.00155293,-0.002265236,0.003059006,-0.003757353,-0.416940302,0.408528566,-0.216063172,0.210605905,642.0918579,642.0922241,706.2349854,706.2344971,-0.000200693,1.43E-07,3.03E-07,2.71E-07,8.88E-08,1.17E-07,8.82E-06,0.936584055,1.49E-06,-3.73E-06,-7.43E-06,-96.65714264,-13.94833565,7.14E-07,4.71E-06,1.791
8.06E-06,-0.001403353,-0.001395584,0.002950563,-0.004375968,-0.421381474,0.406234354,-0.174469844,0.148399621,642.0969849,642.0842896,706.236084,706.2243652,-0.000200682,4.26E-08,1.47E-07,1.32E-07,4.21E-08,3.95E-08,-1.35E-06,0.936584055,9.76E-07,-1.41E-05,-0.000160692,-96.65714264,-13.94833565,6.06E-07,3.84E-06,1.801
8.10E-06,-0.002522157,-0.002359309,0.002520546,-0.004665874,-0.379258901,0.371993154,-0.093786404,0.072893813,642.0934448,642.0787354,706.2318726,706.2151489,-0.000200702,-4.78E-08,1.19E-07,1.22E-07,2.91E-08,-9.99E-09,3.52E-06,0.936584115,1.05E-06,-3.26E-05,-0.000203174,-96.65714264,-13.94833565,3.94E-07,2.63E-06,1.811
8.12E-06,-0.002623474,-0.003349564,0.001328356,-0.004578206,-0.348432899,0.330891162,-0.077950522,0.056153581,642.0852661,642.0748901,706.230835,706.2160645,-0.000200751,-9.53E-08,9.41E-08,1.08E-07,1.14E-08,-3.70E-08,5.29E-08,0.936584115,9.84E-07,-4.23E-05,-0.000152272,-96.65714264,-13.94833565,7.20E-08,1.34E-06,1.821
8.15E-06,-0.002178337,-0.002887612,0.000716392,-0.002352484,-0.266390979,0.25280124,-0.086875126,0.075717933,642.0762329,642.0702515,706.2346191,706.2254028,-0.000200809,-1.10E-07,4.21E-08,4.59E-08,1.45E-08,-4.11E-08,8.43E-10,0.936584115,5.12E-07,-3.53E-05,-0.000135315,-96.65714264,-13.94833565,-2.42E-07,2.16E-07,1.831
8.20E-06,-0.000862451,-0.001067601,0.001483345,0.001018748,-0.160556465,0.146891743,-0.132389888,0.125703782,642.0665283,642.06427,706.2418823,706.2386475,-0.000200846,-1.00E-07,1.20E-08,-1.82E-08,1.96E-08,-3.15E-08,3.46E-06,0.936584115,5.32E-08,7.89E-06,1.03E-05,-96.65714264,-13.94833565,-3.60E-07,-4.66E-07,1.841
8.26E-06,0.00142762,-8.50E-05,0.004531987,0.004625999,-0.236919805,0.262850314,-0.092788368,0.09649913,642.0725098,642.0753174,706.2415771,706.2422485,-0.000200842,-7.52E-08,6.58E-08,4.24E-08,3.04E-08,-4.88E-08,7.09E-09,0.936584115,7.26E-07,5.23E-05,9.16E-05,-96.65714264,-13.94833565,-9.85E-08,-4.72E-07,1.851
8.33E-06,0.003813917,-0.003348557,0.006541098,0.003044773,-0.329879612,0.344174713,-0.076656178,0.081029192,642.086853,642.0975952,706.2366333,706.241394,-0.000200818,-2.95E-08,2.99E-07,2.61E-07,5.55E-08,-2.92E-08,3.39E-08,0.936584115,2.13E-06,4.19E-05,0.000108731,-96.65714264,-13.94833565,3.24E-07,6.10E-07,1.861
