#Name,"Car.Distance","Car.FxFL","Car.FxFR","Car.FxRL","Car.FxRR","Car.FyFL","Car.FyFR","Car.FyRL","Car.FyRR","Car.FzFL","Car.FzFR","Car.FzRL","Car.FzRR","Car.Pitch","Car.Roll","Car.SlipAngleFL","Car.SlipAngleFR","Car.SlipAngleRL","Car.SlipAngleRR","Car.TrackRadius","Car.Yaw","Car.YawRate","Car.ax","Car.ay","Car.tx","Car.ty","Car.vx","Car.vy","Time"
#Unit,"m","N","N","N","N","N","N","N","N","N","N","N","N","rad","rad","rad","rad","rad","rad","m","rad","rad/s","m/s^2","m/s^2","m","m","m/s","m/s","s"
1.621997378e-010,0.007831318304,0.007831409574,0.009049539454,0.009049477056,-0.0003257690405,0.0003244359395,0.0003268593282,-0.0003292636247,642.0627441,642.0627441,706.2649536,706.2650146,-0.0003790722985,3.387653491e-010,-1.819780437e-009,1.810913197e-009,2.368195196e-009,-2.379340502e-009,2.630611675e-007,0.9365848303,3.762180151e-011,0.0001163417983,1.685451956e-008,-96.65717316,-13.94838238,1.621922081e-007,1.43056799e-011,0.001
4.489595096e-009,0.0007915755268,0.0007918193005,-0.000228948149,-0.0002290175471,0.001057383604,-0.001048321719,-0.001235892414,0.001245842897,642.0696411,642.0696411,706.2580566,706.2580566,-0.0003790532355,2.61056482e-010,-4.143283405e-008,4.114956909e-008,4.396151354e-008,-4.428938993e-008,1.390206421e-006,0.9365848303,3.901212339e-011,7.396207366e-006,8.766899384e-008,-96.65717316,-13.94838238,3.729308844e-007,4.676334875e-010,0.011
1.00590498e-008,-0.0004734879476,-0.0004731783702,-0.0005894143833,-0.0005896710791,0.0009018383571,-0.0008873686311,-0.0008358823834,0.0008524667355,642.0776978,642.0776978,706.2503052,706.2503052,-0.000378997036,1.249348958e-010,-3.380108637e-008,3.334877974e-008,3.001085247e-008,-3.04917549e-008,1.654214316e-006,0.9365848303,-1.271021899e-010,-2.51315987e-006,1.327990589e-007,-96.65717316,-13.94838238,4.822227311e-007,1.478058564e-009,0.021
1.664174877e-008,-0.0001489935676,-0.0001490879513,-0.0002301338827,-0.0002306486858,-0.0003244737454,0.0003334372013,0.000473343971,-0.0004628734605,642.0826416,642.0826416,706.2446289,706.2446289,-0.0003789217153,-1.047476255e-011,3.967001838e-009,-4.296396572e-009,-7.422877424e-009,7.11925674e-009,1.240997108e-006,0.9365848303,-1.956412532e-010,5.948029411e-007,1.290197247e-007,-96.65717316,-13.94838238,3.943810043e-007,2.527152487e-009,0.031
2.473762778e-008,0.001748098177,0.001750152442,-0.0005511862109,-0.0005514262011,-0.001168148359,0.001171089243,0.001673044986,-0.001672544866,642.0844727,642.0844727,706.2421265,706.2420654,-0.0003788529721,-1.150213466e-010,2.792079812e-008,-2.801272458e-008,-3.938765758e-008,3.93731554e-008,-7.825741477e-007,0.9365848303,-1.102033811e-010,1.180610161e-005,2.80789858e-009,-96.65717316,-13.94838238,3.010882494e-007,3.016165095e-009,0.041
3.454331553e-008,0.001827757806,0.001830876572,-0.0008678298327,-0.0008727276581,-0.001418867498,0.00141168735,0.002141040517,-0.00214631157,642.0836792,642.0836792,706.2420044,706.2420044,-0.0003788085596,-1.729943827e-010,3.296991125e-008,-3.279878413e-008,-4.942866028e-008,4.963223788e-008,5.947734962e-007,0.9365848303,1.64844291e-010,4.15633076e-006,3.123010401e-007,-96.65717316,-13.94838238,4.112367833e-007,2.813562716e-009,0.051
4.486779214e-008,-0.0006077144644,-0.0006090464303,-0.002532046987,-0.002524732146,-0.001221235725,0.001204018597,0.001861267374,-0.001873471774,642.081665,642.081665,706.2428589,706.2428589,-0.000378793251,-1.288005397e-010,2.501617935e-008,-2.447799119e-008,-3.870032828e-008,3.907522128e-008,1.023977802e-006,0.9365848303,4.386447316e-010,-2.622231113e-005,-1.34637844e-007,-96.65717316,-13.94838238,3.203493009e-007,1.641141778e-009,0.061
5.393105538e-008,-0.001558842952,-0.001560829114,-0.002673984505,-0.002662386512,-0.0008281038608,0.0008061450208,0.001257047406,-0.001270563924,642.0792847,642.0792847,706.2438354,706.2438354,-0.0003788007598,-3.953691888e-011,1.198906308e-008,-1.136815353e-008,-2.000749433e-008,2.039944214e-008,1.305606112e-008,0.9365848303,2.567517032e-010,-3.351805572e-005,-1.41101026e-007,-96.65717316,-13.94838238,3.644480273e-008,4.122609754e-010,0.071
6.143353511e-008,-0.001414995408,-0.001417532447,-0.001934104832,-0.001925546094,-0.0004003288341,0.0003852664668,0.0007192965131,-0.000729619409,642.0770874,642.0770874,706.2449341,706.244873,-0.0003788225004,5.447078899e-011,-1.096532642e-009,1.545108708e-009,-4.220232608e-009,4.558129429e-009,6.072376095e-007,0.9365848303,-6.622357523e-011,-2.629727715e-005,-9.608518781e-008,-96.65717316,-13.94838238,-2.461733857e-007,-6.92722657e-010,0.081
6.804803866e-008,-0.0007437722525,-0.0007473999285,-0.001182555803,-0.00117704249,1.494847947e-005,-2.311977005e-005,0.0004039558116,-0.000411111163,642.0755615,642.0755615,706.2460938,706.2460938,-0.0003788510512,1.380675296e-010,-1.306116193e-008,1.326842813e-008,4.494754346e-009,-4.267488141e-009,1.927627409e-006,0.9365848303,-1.311987186e-010,-1.520039405e-005,-4.486321359e-008,-96.65717316,-13.94838238,-4.388712682e-007,-1.468949407e-009,0.091
7.408178504e-008,-6.302189286e-005,-6.726374704e-005,-0.0004587467411,-0.0004536967899,0.0002964395389,-0.0002994243405,0.0002349663991,-0.0002383708634,642.0748291,642.0748291,706.2473145,706.2473145,-0.0003788803879,2.072746974e-010,-2.026973078e-008,2.030787805e-008,8.708460619e-009,-8.630365755e-009,2.774210316e-006,0.9365848303,-6.221485827e-011,-4.417912351e-006,-3.634027479e-008,-96.65717316,-13.94838238,-5.266151106e-007,-1.818376449e-009,0.101
7.953517038e-008,0.0003895959526,0.0003859996796,0.0002586033079,0.0002636761928,0.0003837353725,-0.0003845803731,0.0001270546345,-0.0001242407161,642.074585,642.074585,706.248291,706.248291,-0.0003789062903,2.562468848e-010,-2.136418153e-008,2.129316812e-008,1.105416647e-008,-1.111400927e-008,2.695688636e-006,0.9365848303,-4.339334447e-011,4.566363259e-006,-2.657583709e-009,-96.65717316,-13.94838238,-5.191891432e-007,-1.8206745e-009,0.111
8.44254661e-008,0.0006153924041,0.0006130122347,0.0008451963076,0.0008494282956,0.0003177231993,-0.0003136376617,6.734119961e-005,-6.182227662e-005,642.074646,642.074646,706.2489624,706.2489624,-0.0003789262555,2.828084988e-010,-1.809199723e-008,1.796428606e-008,1.195817223e-008,-1.211820777e-008,1.922363936e-006,0.9365848303,6.218812271e-011,1.0866308e-005,5.20799448e-009,-96.65717316,-13.94838238,-4.385030081e-007,-1.540561567e-009,0.121
8.87956424e-008,0.0006865310133,0.0006854185485,0.00121340272,0.00121689192,0.0001794952695,-0.0001760019659,5.823524771e-005,-5.02978146e-005,642.0748291,642.0748291,706.2493286,706.2492676,-0.0003789392649,2.934180121e-010,-1.286803464e-008,1.271700967e-008,1.141578565e-008,-1.15969625e-008,9.708062407e-007,0.9365848303,-7.52613874e-011,1.431640885e-005,2.409709055e-008,-96.65717316,-13.94838238,-3.1168031e-007,-1.151798545e-009,0.131
9.279942496e-008,0.0006598071777,0.0006623759982,0.001355925226,0.001349415397,1.959467227e-005,-1.084256382e-005,9.549050446e-005,-8.833613538e-005,642.0751343,642.0751953,706.2493286,706.2493286,-0.0003789452894,2.584317482e-010,-7.48408624e-009,7.210504194e-009,9.632033837e-009,-9.839492776e-009,2.706767646e-007,0.9365848303,-2.738742011e-010,1.528284156e-005,9.547672875e-008,-96.65717316,-13.94838238,-1.64656754e-007,-4.394244968e-010,0.141
9.674543468e-008,0.0005661430769,0.0005699774483,0.001299761818,0.001289414591,-0.0001309183426,0.0001415548904,0.0001638562244,-0.0001573856425,642.0756226,642.0756226,706.2490845,706.2490845,-0.0003789452603,1.844903952e-010,-2.735014881e-009,2.358048645e-009,7.094633325e-009,-7.30927896e-009,3.718077179e-009,0.9365848303,-3.790716629e-010,1.437498304e-005,1.222979762e-008,-96.65717316,-13.94838238,-1.943375061e-008,1.468932198e-010,0.151
1.009095264e-007,0.0004339343868,0.0004373652046,0.001086972421,0.001079057925,-0.0002468420134,0.0002541769645,0.0002460355463,-0.0002419201628,642.0761719,642.0761719,706.2487793,706.2487793,-0.0003789406619,1.103896835e-010,6.704500843e-010,-9.861846895e-010,4.41029524e-009,-4.585002156e-009,1.15344271e-007,0.9365848303,-2.284352707e-010,1.168923609e-005,3.958035677e-008,-96.65717316,-13.94838238,1.072379021e-007,7.585518325e-010,0.161
1.053841727e-007,0.0002549641358,0.0002584243775,0.0007887599641,0.0007825601497,-0.0003314867499,0.0003365024168,0.0003233350872,-0.0003191221622,642.0767212,642.0767212,706.2484131,706.2484131,-0.0003789333277,4.052872621e-011,3.021778383e-009,-3.219916112e-009,2.001064647e-009,-2.123229592e-009,4.115860293e-007,0.9365848303,-9.756909169e-011,8.054575119e-006,4.261639219e-008,-96.65717316,-13.94838238,2.027157961e-007,1.193875665e-009,0.171
1.100714725e-007,4.201389311e-005,4.580047244e-005,0.0004745995975,0.0004692906805,-0.0004019361222,0.000405024417,0.0003847540065,-0.0003851482761,642.0772705,642.0772705,706.2481079,706.2481079,-0.0003789248876,-1.987001536e-011,4.783546892e-009,-4.880083893e-009,1.635994257e-010,-2.086286977e-010,6.771252288e-007,0.9365848303,-1.105629963e-010,3.986407592e-006,1.081174483e-009,-96.65717316,-13.94838238,2.600633593e-007,1.404028449e-009,0.181
1.147155799e-007,-0.0001564675622,-0.0001529715955,0.0001835828007,0.0001780170569,-0.0004547422868,0.000457225804,0.0004318283172,-0.0004350432428,642.0776367,642.0776367,706.2478638,706.2478638,-0.0003789167677,-6.704124755e-011,5.907398126e-009,-5.912476286e-009,-1.144982664e-009,1.182025144e-009,7.79151776e-007,0.9365848303,-7.953544767e-011,2.787284075e-007,-7.371862409e-008,-96.65717316,-13.94838238,2.78993582e-007,1.42762957e-009,0.191
1.19032212e-007,-0.0003053753753,-0.0003024853067,-3.36085759e-005,-3.812837895e-005,-0.0004837113083,0.0004819189489,0.0004562312679,-0.0004593949125,642.0778198,642.0778198,706.2478027,706.2478027,-0.0003789100156,-9.870952666e-011,6.249096796e-009,-6.193069169e-009,-1.740519284e-009,1.832257679e-009,7.077117061e-007,0.9365848303,-2.99572693e-011,-2.514236257e-006,-1.037870589e-008,-96.65717316,-13.94838238,2.659072038e-007,1.267397964e-009,0.201
1.228067304e-007,-0.000391712063,-0.0003894714173,-0.0001522426028,-0.0001552360045,-0.0004875797313,0.0004828368837,0.000451587257,-0.0004554739571,642.0778809,642.0778809,706.2478027,706.2478027,-0.0003789052425,-1.173675324e-010,5.839936534e-009,-5.756294996e-009,-1.550216844e-009,1.662921578e-009,5.381302799e-007,0.9365848303,-8.581482747e-011,-4.098375484e-006,-1.520560389e-008,-96.65717316,-13.94838238,2.318753758e-007,1.000345917e-009,0.211
1.259238573e-007,-0.0004151502217,-0.0004136066418,-0.0001881379867,-0.0001895421301,-0.0004692532239,0.0004668514594,0.0004312797973,-0.0004339371517,642.0778198,642.0778198,706.2478027,706.2478027,-0.0003789025068,-1.265127864e-010,4.888347949e-009,-4.813271115e-009,-8.783915817e-010,9.830350978e-010,3.555357466e-007,0.9365848303,-4.861348477e-011,-4.57663009e-006,2.532365606e-008,-96.65717316,-13.94838238,1.884764771e-007,6.952122211e-010,0.221
1.283546411e-007,-0.0003844058083,-0.0003838090925,-0.0001739126456,-0.0001747079659,-0.0004388320958,0.0004372097901,0.0004033080477,-0.0004060145002,642.0776978,642.0776978,706.2479248,706.2479248,-0.0003789015755,-1.289953144e-010,3.602705023e-009,-3.522112602e-009,-9.486417901e-011,1.733445193e-010,2.103682277e-007,0.9365848303,6.573980249e-011,-4.278081178e-006,-2.650429654e-009,-96.65717316,-13.94838238,1.449809872e-007,4.66946426e-010,0.231
1.301358302e-007,-0.0003136177547,-0.0003131798294,-0.0001392034028,-0.0001394812571,-0.0004016701423,0.0003991727717,0.0003814495576,-0.0003823145817,642.0775146,642.0775146,706.2480469,706.2480469,-0.000378902012,-1.301380947e-010,2.233716545e-009,-2.185018166e-009,4.558248778e-010,-4.028888889e-010,1.152807414e-007,0.9365848303,-6.949264775e-011,-3.464472684e-006,-9.798095668e-009,-96.65717316,-13.94838238,1.073282263e-007,2.761680884e-010,0.241
1.313582016e-007,-0.0002223390038,-0.0002216693392,-8.940314001e-005,-8.910776523e-005,-0.0003648794664,0.0003644582757,0.0003687389253,-0.0003703408001,642.0773315,642.0773315,706.2481079,706.2481079,-0.0003789032344,-1.304732572e-010,9.96083438e-010,-9.829178582e-010,7.9655188e-010,-7.501014809e-010,6.256394869e-008,0.9365848303,-9.70322156e-011,-2.383242645e-006,1.809239425e-009,-96.65717316,-13.94838238,7.907365784e-008,1.475894407e-010,0.251
1.321596244e-007,-0.0001290166401,-0.0001286753395,-3.376555833e-005,-3.34897486e-005,-0.0003356490342,0.0003354060755,0.000360160775,-0.0003611780994,642.0772095,642.0772095,706.24823,706.24823,-0.0003789047769,-1.299903241e-010,2.438246827e-011,-1.678745337e-011,9.613326801e-010,-9.318332772e-010,3.820239414e-008,0.9365848303,-5.578661491e-011,-1.232000045e-006,-4.077418225e-008,-96.65717316,-13.94838238,6.179893575e-008,8.473930585e-011,0.261
1.327421606e-007,-4.560803427e-005,-4.530607839e-005,1.14291106e-005,1.174546105e-005,-0.000309977273,0.0003110856342,0.0003592949943,-0.0003598554467,642.0770874,642.0770874,706.24823,706.24823,-0.0003789062612,-1.298591373e-010,-7.200944285e-010,7.144853043e-010,9.583135396e-010,-9.420613178e-010,3.023104966e-008,0.9365848303,-4.676326687e-011,-2.380229773e-007,-1.464478405e-008,-96.65717316,-13.94838238,5.4986387e-008,1.724747602e-011,0.271
1.33355037e-007,1.895783498e-005,1.907944898e-005,3.584060323e-005,3.603398727e-005,-0.0002910595504,0.0002914149081,0.0003610926506,-0.0003611394204,642.0770874,642.0770264,706.24823,706.24823,-0.0003789074544,-1.302203068e-010,-1.253123161e-009,1.242015268e-009,7.929790158e-010,-7.916228228e-010,3.164216622e-008,0.9365848303,-2.753734046e-011,4.199254136e-007,-1.544396611e-008,-96.65717316,-13.94838238,5.626582222e-008,-1.991900395e-011,0.281
1.341397527e-007,5.738540858e-005,5.740149209e-005,4.078345592e-005,4.085530963e-005,-0.0002801006485,0.0002815666958,0.0003712167672,-0.0003709026205,642.0770264,642.0770264,706.24823,706.24823,-0.0003789082402,-1.309144182e-010,-1.478054235e-009,1.461761157e-009,4.994038516e-010,-5.085128985e-010,3.878176003e-008,0.9365848303,9.064853902e-012,7.444162975e-007,-1.542679939e-008,-96.65717316,-13.94838238,6.229812755e-008,-4.034316284e-011,0.291
1.3511246e-007,7.395042485e-005,7.374190318e-005,3.072133768e-005,3.057951108e-005,-0.0002801339142,0.0002803434327,0.0003817096876,-0.0003832911898,642.0770264,642.0770264,706.2481689,706.2481689,-0.0003789086186,-1.303248204e-010,-1.447393316e-009,1.440844222e-009,1.381012249e-010,-1.492735935e-010,4.895830585e-008,0.9365848303,5.364941824e-011,8.007461929e-007,-4.484205718e-008,-96.65717316,-13.94838238,6.999983526e-008,-4.459623643e-011,0.301
1.362401399e-007,7.807086513e-005,7.791398093e-005,8.932290257e-006,8.852827705e-006,-0.0002835740452,0.0002827738645,0.00039742433,-0.0003983050701,642.0770264,642.0770264,706.2481079,706.2481079,-0.0003789086186,-1.285399148e-010,-1.310152764e-009,1.305372033e-009,-2.605538563e-010,2.576854286e-010,5.947744697e-008,0.9365848303,-7.838851096e-012,6.693957175e-007,-5.247953894e-008,-96.65717316,-13.94838238,7.715566142e-008,-4.829970798e-011,0.311
1.374735231e-007,7.777407154e-005,7.784112677e-005,-1.869377229e-005,-1.852704554e-005,-0.0002851893951,0.0002845528943,0.0004115371557,-0.0004118077049,642.0770264,642.0770264,706.2480469,706.2480469,-0.0003789083858,-1.260316712e-010,-1.170014086e-009,1.159852547e-009,-6.697929433e-010,6.776376127e-010,6.804796726e-008,0.9365848303,-7.278175285e-011,4.571807892e-007,-9.628005948e-009,-96.65717316,-13.94838238,8.252746397e-008,-7.264810281e-011,0.321
1.387545159e-007,7.479403575e-005,7.488310803e-005,-4.019946209e-005,-3.99783894e-005,-0.0002873162739,0.0002890100004,0.0004260760907,-0.0004238875699,642.0769653,642.0769653,706.2479858,706.2479858,-0.0003789079783,-1.252397769e-010,-1.073471312e-009,1.050586507e-009,-9.781803145e-010,9.711803584e-010,7.380597111e-008,0.9365848303,-2.126885126e-011,2.801094183e-007,-4.1954622e-009,-96.65717316,-13.94838238,8.594659562e-008,-1.086749302e-010,0.331
1.400288035e-007,6.841330469e-005,6.847613258e-005,-5.228588634e-005,-5.197089922e-005,-0.0002886599395,0.000289088086,0.0004347076756,-0.0004328291689,642.0769653,642.0769653,706.2479248,706.2479248,-0.0003789075126,-1.232041968e-010,-1.001321137e-009,9.879379537e-010,-1.116384762e-009,1.117821169e-009,7.701990512e-008,0.9365848303,-6.248886825e-011,1.417798501e-007,9.704054449e-009,-96.65717316,-13.94838238,8.779512228e-008,-5.126015237e-011,0.341
1.412539343e-007,5.872551628e-005,5.887860607e-005,-5.717155e-005,-5.678813613e-005,-0.0002900986874,0.0002876018989,0.0004349849769,-0.0004332828394,642.0769653,642.0769653,706.2478638,706.2478638,-0.0003789070761,-1.215483963e-010,-9.563473347e-010,9.433974713e-010,-1.124426552e-009,1.130977312e-009,7.815765457e-008,0.9365848303,-9.509350946e-011,1.581541476e-008,1.741045175e-008,-96.65717316,-13.94838238,8.843719712e-008,-3.742977803e-011,0.351
1.42400982e-007,4.681302016e-005,4.687917317e-005,-5.707311357e-005,-5.686338409e-005,-0.0002882291737,0.0002879666572,0.0004344971676,-0.0004359973827,642.0769653,642.0769653,706.2478638,706.2478638,-0.0003789067268,-1.225062413e-010,-9.237897114e-010,9.01478614e-010,-1.054644372e-009,1.042776421e-009,7.755925679e-008,0.9365848303,3.066704182e-011,-7.71413653e-008,-4.753649918e-008,-96.65717316,-13.94838238,8.809308838e-008,-5.938784881e-011,0.361
1.43454872e-007,3.401599679e-005,3.417518019e-005,-5.3220876e-005,-5.307310494e-005,-0.000290248252,0.0002892610792,0.0004317541898,-0.0004312173696,642.0769653,642.0769653,706.2478638,706.2478638,-0.0003789064649,-1.244390285e-010,-8.91099694e-010,8.610155366e-010,-9.197348994e-010,9.041681293e-010,7.559609116e-008,0.9365848303,-5.707142398e-011,-1.506844853e-007,-1.982936659e-008,-96.65717316,-13.94838238,8.696552101e-008,-4.704491657e-011,0.371
1.444155145e-007,2.189822771e-005,2.20688471e-005,-4.609622556e-005,-4.60131705e-005,-0.0002895576181,0.0002904107678,0.0004276740947,-0.0004263538285,642.0769653,642.0769653,706.2478638,706.2478638,-0.0003789063485,-1.258318588e-010,-8.517462846e-010,8.250782835e-010,-7.463143437e-010,7.35551009e-010,7.276275937e-008,0.9365848303,-3.773295478e-012,-1.870198219e-007,2.212139627e-008,-96.65717316,-13.94838238,8.531431206e-008,-3.345509633e-011,0.381
1.452977249e-007,1.122228696e-005,1.138957668e-005,-3.595395538e-005,-3.591462155e-005,-0.0002930058399,0.0002916486701,0.000422877667,-0.0004218288232,642.0769653,642.0769653,706.2478638,706.2478638,-0.0003789063485,-1.259530119e-010,-8.049005906e-010,7.863819595e-010,-5.523807523e-010,5.493588917e-010,6.964037169e-008,0.9365848303,-3.187558203e-011,-1.954309994e-007,4.830095079e-008,-96.65717316,-13.94838238,8.345766389e-008,-3.670211704e-011,0.391
1.461288381e-007,2.380080105e-006,2.52598079e-006,-2.365762703e-005,-2.358201527e-005,-0.0002926888992,0.0002931239724,0.000416048133,-0.0004161494435,642.0769653,642.0769653,706.2478638,706.2478638,-0.0003789064649,-1.252390414e-010,-7.538659141e-010,7.402659596e-010,-3.543407789e-010,3.572785123e-010,6.677934294e-008,0.9365848303,-7.818416053e-012,-1.652528709e-007,3.566001183e-008,-96.65717316,-13.94838238,8.171941346e-008,-1.52620451e-011,0.401
1.4694144e-007,-4.438362794e-006,-4.332781373e-006,-1.071060342e-005,-1.05973113e-005,-0.0002945732849,0.0002949289628,0.0004117154749,-0.0004099948565,642.0769653,642.0769653,706.2478638,706.2478638,-0.0003789066395,-1.239480601e-010,-6.949623654e-010,6.83844259e-010,-1.741108924e-010,1.788096338e-010,6.456559021e-008,0.9365848303,-6.098951205e-011,-1.22075889e-007,-2.44306726e-008,-96.65717316,-13.94838238,8.034803756e-008,-1.517633588e-011,0.411
1.477629805e-007,-8.758040167e-006,-8.425960004e-006,4.71419014e-007,8.80497339e-007,-0.0002966481843,0.0002971614886,0.0004050912976,-0.0004056705802,642.0769653,642.0769653,706.2479248,706.2479248,-0.0003789068724,-1.221507478e-010,-6.301034694e-010,6.140582487e-010,-3.661821887e-011,5.341591058e-011,6.316702184e-008,0.9365848303,-7.48516249e-011,-6.78610661e-008,-2.783056841e-010,-96.65717316,-13.94838238,7.946847091e-008,-1.416954228e-011,0.421
1.486095005e-007,-1.08625818e-005,-1.068536312e-005,1.150425123e-005,1.179072297e-005,-0.0002987693297,0.0002993690432,0.0004017012252,-0.0003998590983,642.0769653,642.0769653,706.2479248,706.2479248,-0.0003789070761,-1.220893248e-010,-5.637986189e-010,5.450526142e-010,6.168576067e-011,-6.025513422e-011,6.274373732e-008,0.9365848303,-3.048238051e-011,-1.983639919e-009,3.199384935e-008,-96.65717316,-13.94838238,7.919825151e-008,-3.163218298e-011,0.431
1.494855256e-007,-1.174317822e-005,-1.17506579e-005,2.121637044e-005,2.134119131e-005,-0.0002998161654,0.0003012025554,0.0003960324393,-0.000396830641,642.0769653,642.0769653,706.2479858,706.2479858,-0.0003789072798,-1.223263157e-010,-5.00463615e-010,4.877391269e-010,1.436979979e-010,-1.480732204e-010,6.338540004e-008,0.9365848303,3.828219686e-011,6.64412525e-008,-1.719434906e-008,-96.65717316,-13.94838238,7.959998527e-008,-9.175979746e-014,0.441
1.503869684e-007,-1.261390025e-005,-1.261175385e-005,2.851668978e-005,2.856373612e-005,-0.0003027756466,0.0003010842775,0.0003929145169,-0.0003929370723,642.0770264,642.0770264,706.2479858,706.2479858,-0.0003789073962,-1.223839641e-010,-4.38565545e-010,4.301169976e-010,2.065238258e-010,-2.058704041e-010,6.494505556e-008,0.9365848303,-4.545549354e-011,1.195617898e-007,-5.992196517e-009,-96.65717316,-13.94838238,8.057243406e-008,1.122169285e-011,0.451
1.513045606e-007,-1.37156776e-005,-1.342949963e-005,3.227144043e-005,3.246203778e-005,-0.00030431294,0.0003051119857,0.0003900000302,-0.0003928690858,642.0770264,642.0770264,706.2479858,706.2479858,-0.0003789074835,-1.240296199e-010,-3.905122337e-010,3.655349634e-010,2.356669582e-010,-2.354285655e-010,6.708631872e-008,0.9365848303,-5.240508028e-011,1.434507766e-007,-7.092894805e-008,-96.65717316,-13.94838238,8.189020662e-008,-6.866309604e-012,0.461
1.522275775e-007,-1.461125521e-005,-1.445675298e-005,3.267097782e-005,3.277948417e-005,-0.0003088431549,0.0003065047495,0.0003909702355,-0.0003928544465,642.0770264,642.0770264,706.2479858,706.2480469,-0.0003789075126,-1.251674042e-010,-3.401765813e-010,3.219986222e-010,2.352517903e-010,-2.358525597e-010,6.939347941e-008,0.9365848303,-9.785860273e-013,1.456111107e-007,5.344265475e-009,-96.65717316,-13.94838238,8.328771628e-008,7.703360519e-012,0.471
1.531466135e-007,-1.520565456e-005,-1.516567318e-005,3.00378706e-005,2.998446689e-005,-0.0003089221427,0.0003094746789,0.0003910642699,-0.000390752044,642.0770264,642.0770264,706.2480469,706.2480469,-0.0003789075126,-1.264169602e-010,-3.073757915e-010,2.901040519e-010,2.048066577e-010,-2.138607347e-010,7.147675518e-008,0.9365848303,2.504378128e-011,1.14621038e-007,-2.596979076e-009,-96.65717316,-13.94838238,8.453064737e-008,-2.123817788e-011,0.481
1.540551277e-007,-1.518280715e-005,-1.525431253e-005,2.524139563e-005,2.509222213e-005,-0.0003104581265,0.0003098312882,0.0003916418063,-0.0003923319746,642.0770874,642.0770264,706.2480469,706.2480469,-0.0003789074544,-1.266817068e-010,-2.896949347e-010,2.789566633e-010,1.602744326e-010,-1.680465905e-010,7.305128946e-008,0.9365848303,5.403988021e-011,8.695830189e-008,1.734183819e-008,-96.65717316,-13.94838238,8.545904251e-008,-2.314626095e-011,0.491
1.549499683e-007,-1.445121597e-005,-1.449034244e-005,1.923118543e-005,1.908908416e-005,-0.0003093396954,0.000309749943,0.0003935790155,-0.0003923876211,642.0770874,642.0770874,706.2480469,706.2480469,-0.0003789073671,-1.265454963e-010,-2.943238153e-010,2.8149999e-010,1.041003672e-010,-1.107954214e-010,7.398270441e-008,0.9365848303,-6.608086474e-012,3.757767075e-008,1.301273311e-008,-96.65717316,-13.94838238,8.600474644e-008,-4.259168365e-011,0.501
1.558310346e-007,-1.293195328e-005,-1.291855006e-005,1.292037541e-005,1.287658142e-005,-0.0003105761134,0.0003129739198,0.0003946236975,-0.0003944968921,642.0770874,642.0770874,706.2479858,706.2480469,-0.0003789073089,-1.25817412e-010,-3.162469731e-010,3.015014072e-010,4.595420919e-011,-4.963133377e-011,7.427734516e-008,0.9365848303,2.73003755e-011,9.255952449e-009,2.128444088e-008,-96.65717316,-13.94838238,8.617848835e-008,-5.319074001e-011,0.511
1.567002471e-007,-1.079554204e-005,-1.079330377e-005,6.942545497e-006,6.90679326e-006,-0.0003074856359,0.0003091130347,0.0003967572702,-0.0003983153729,642.0770874,642.0770874,706.2479858,706.2479858,-0.0003789072216,-1.257081939e-010,-3.52279983e-010,3.317411068e-010,-1.591404092e-011,5.457497301e-012,7.402086766e-008,0.9365848303,-2.456882571e-012,-2.383712072e-008,-6.196023605e-008,-96.65717316,-13.94838238,8.603208101e-008,-7.361931204e-011,0.521
1.57560388e-007,-8.25310417e-006,-8.082032764e-006,1.547052875e-006,1.719868578e-006,-0.0003080021124,0.0003078393056,0.0003984901996,-0.0003973996791,642.0770874,642.0770874,706.2479858,706.2479858,-0.0003789071343,-1.251255627e-010,-3.967067785e-010,3.71556369e-010,-6.616482362e-011,6.246283352e-011,7.335280827e-008,0.9365848303,-5.479752763e-011,-4.738383197e-008,3.22456053e-008,-96.65717316,-13.94838238,8.564524734e-008,-6.627915577e-011,0.531
1.584140756e-007,-5.368523944e-006,-5.119339676e-006,-3.022611736e-006,-2.655505341e-006,-0.0003066867648,0.0003071615938,0.0003998541506,-0.0003993740829,642.0770264,642.0770264,706.2479858,706.2479858,-0.0003789070761,-1.2279254e-010,-4.378231944e-010,4.229801509e-010,-1.057164772e-010,1.197155847e-010,7.242046252e-008,0.9365848303,-6.553747822e-011,-6.085004856e-008,2.471325145e-009,-96.65717316,-13.94838238,8.510118477e-008,-2.442331493e-012,0.541
1.592631926e-007,-2.175647751e-006,-2.035784746e-006,-6.759930784e-006,-6.402568033e-006,-0.0003072770196,0.000306550035,0.000401444413,-0.0004038246116,642.0770264,642.0770264,706.2479858,706.2479858,-0.0003789070179,-1.204717298e-010,-4.795799313e-010,4.722464086e-010,-1.518301734e-010,1.652125381e-010,7.135786717e-008,0.9365848303,1.101745648e-012,-5.894658628e-008,-3.782612978e-008,-96.65717316,-13.94838238,8.447612743e-008,-1.652658392e-011,0.551
1.601087701e-007,9.706795936e-007,1.088664249e-006,-9.382013559e-006,-9.156108717e-006,-0.0003045967605,0.0003055419074,0.0004032695724,-0.0004037375911,642.0770264,642.0770264,706.2479858,706.2479858,-0.0003789069888,-1.222010548e-010,-5.333029574e-010,5.037586459e-010,-2.047551156e-010,1.90474525e-010,7.029569105e-008,0.9365848303,-2.373865514e-011,-6.25170955e-008,-3.842576035e-008,-96.65717316,-13.94838238,8.384620998e-008,-6.835541161e-011,0.561
1.609513299e-007,3.800905006e-006,3.993557584e-006,-1.076032186e-005,-1.060134218e-005,-0.0003040251904,0.000304376852,0.000404235936,-0.0004015679297,642.0770264,642.0770264,706.2479858,706.2479858,-0.0003789069597,-1.252469239e-010,-5.812289539e-010,5.401769032e-010,-2.327773946e-010,2.113200448e-010,6.937315078e-008,0.9365848303,-6.573658284e-011,-4.635312578e-008,9.325419548e-009,-96.65717316,-13.94838238,8.329502066e-008,-5.748122117e-011,0.571
1.617912217e-007,5.955384495e-006,6.251302693e-006,-1.142589554e-005,-1.125213385e-005,-0.0003000754223,0.0003020314034,0.0004043758963,-0.0004061667423,642.0770264,642.0770264,706.2479858,706.2479858,-0.0003789069597,-1.264485877e-010,-6.14246487e-010,5.833445949e-010,-2.36835912e-010,2.331287385e-010,6.864722479e-008,0.9365848303,-1.89981017e-011,-4.237783813e-008,-4.342225779e-008,-96.65717316,-13.94838238,8.285854847e-008,8.778161574e-013,0.581
1.626283381e-007,7.163452665e-006,7.27718998e-006,-1.136031733e-005,-1.12398302e-005,-0.0002998276032,0.0003007650084,0.0004050525895,-0.0004047839902,642.0770264,642.0770264,706.2479858,706.2479858,-0.0003789069597,-1.23877103e-010,-6.219929571e-010,6.229305405e-010,-2.286062589e-010,2.486700845e-010,6.808384256e-008,0.9365848303,-6.845358048e-012,-3.119543734e-008,-1.364575919e-008,-96.65717316,-13.94838238,8.25179427e-008,6.256824919e-011,0.591
1.634622897e-007,7.648101928e-006,7.491107226e-006,-1.086182056e-005,-1.092956427e-005,-0.0003005548497,0.0003002197482,0.0004051156866,-0.0004045642854,642.0770264,642.0770264,706.2479858,706.2479858,-0.0003789069597,-1.215085949e-010,-6.294995081e-010,6.399747399e-010,-2.304362395e-010,2.422992362e-010,6.763547589e-008,0.9365848303,4.550563745e-011,-1.722002807e-008,3.451413377e-008,-96.65717316,-13.94838238,8.224565562e-008,1.490218886e-011,0.601
1.642926234e-007,7.418958376e-006,7.427895525e-006,-1.022219931e-005,-1.01995156e-005,-0.0003000208235,0.0003005003091,0.0004061159561,-0.0004060181091,642.0770264,642.0770264,706.2479858,706.2479858,-0.0003789069888,-1.221029944e-010,-6.461930435e-010,6.312047551e-010,-2.316566938e-010,2.288194217e-010,6.726209989e-008,0.9365848303,-9.220265176e-012,-1.663920557e-008,2.628970108e-008,-96.65717316,-13.94838238,8.201793378e-008,-3.328845533e-011,0.611
1.651190571e-007,7.018699307e-006,7.078106137e-006,-9.286470231e-006,-9.27963265e-006,-0.0002978731645,0.0002998365089,0.000404127175,-0.0004054884193,642.0770264,642.0770264,706.2479858,706.2479858,-0.0003789069888,-1.246069914e-010,-6.527545726e-010,6.217142356e-010,-2.296241253e-010,2.134598887e-010,6.69535396e-008,0.9365848303,1.709693498e-011,-1.834813368e-008,-1.352709678e-008,-96.65717316,-13.94838238,8.182901468e-008,-5.173614315e-011,0.621
1.659417422e-007,6.432112059e-006,6.641907476e-006,-8.065072507e-006,-8.010910278e-006,-0.0002999367134,0.0003009925713,0.0004055427271,-0.0004051749129,642.0770264,642.0770264,706.2479858,706.2479858,-0.0003789070179,-1.267310978e-010,-6.488217186e-010,6.158167309e-010,-2.150345874e-010,2.043687025e-010,6.672379271e-008,0.9365848303,-5.996672603e-011,-7.52284901e-009,9.021250413e-009,-96.65717316,-13.94838238,8.168780141e-008,-1.257768369e-011,0.631
1.667613125e-007,5.756183782e-006,5.965781838e-006,-6.569352081e-006,-6.482217941e-006,-0.0002994545212,0.0002981433936,0.0004028951225,-0.0004029637785,642.0770264,642.0770264,706.2479858,706.2479858,-0.000378907047,-1.267806554e-010,-6.336544067e-010,6.138825004e-010,-1.938976896e-010,1.95888944e-010,6.659121965e-008,0.9365848303,-2.468413841e-011,-1.442904729e-008,-4.059651282e-009,-96.65717316,-13.94838238,8.160581189e-008,-3.495807593e-012,0.641
1.675787683e-007,4.88313799e-006,5.120817605e-006,-4.914398232e-006,-4.793776498e-006,-0.0003008535714,0.0003005043545,0.000404253311,-0.0004043331137,642.0770264,642.0770264,706.2479858,706.2479858,-0.0003789070761,-1.265315352e-010,-6.201620328e-010,6.008381015e-010,-1.776445796e-010,1.799585342e-010,6.655696438e-008,0.9365848303,-2.844124936e-011,4.869171732e-009,4.043833712e-009,-96.65717316,-13.94838238,8.158397691e-008,-2.162160555e-011,0.651
1.683952788e-007,4.073021955e-006,4.139975317e-006,-3.176294058e-006,-3.162616167e-006,-0.0002993687522,0.0003010721994,0.0004039453634,-0.0004035350867,642.0770264,642.0770264,706.2479858,706.2479858,-0.0003789071052,-1.269528094e-010,-6.060040803e-010,5.830880778e-010,-1.687148476e-010,1.568176422e-010,6.662200747e-008,0.9365848303,3.65450413e-011,1.136819705e-008,3.156691264e-008,-96.65717316,-13.94838238,8.162297149e-008,-7.435178168e-011,0.661
1.69212051e-007,3.258314109e-006,3.095138482e-006,-1.447077693e-006,-1.66429129e-006,-0.0002997829288,0.000299682637,0.0004036704486,-0.0004026365641,642.0770264,642.0770264,706.2479858,706.2479858,-0.0003789071052,-1.283718132e-010,-5.930568814e-010,5.657674329e-010,-1.607428773e-010,1.30762845e-010,6.678109798e-008,0.9365848303,1.781582e-011,8.593533884e-009,2.097348295e-009,-96.65717316,-13.94838238,8.171956267e-008,-1.04342153e-010,0.671
1.700300445e-007,2.162531928e-006,2.219800763e-006,-3.735554799e-007,-4.001197169e-007,-0.0003002103767,0.0003012959787,0.0004030164273,-0.0004024039372,642.0770264,642.0770264,706.2479858,706.2479858,-0.0003789071343,-1.28763597e-010,-5.796960134e-010,5.457610475e-010,-1.417779089e-010,1.240165609e-010,6.699109178e-008,0.9365848303,-4.178130758e-011,8.669440277e-009,-2.194752291e-008,-96.65717316,-13.94838238,8.184728273e-008,-9.933596307e-011,0.681
1.708497286e-007,1.300684858e-006,1.252498805e-006,5.423064522e-007,4.728207728e-007,-0.0003009192878,0.0003017201088,0.0004007234529,-0.000402159174,642.0770264,642.0770264,706.2479858,706.2479858,-0.0003789071343,-1.27833702e-010,-5.575360174e-010,5.325030417e-010,-1.309242298e-010,1.169193631e-010,6.720610912e-008,0.9365848303,3.640846305e-011,1.2156673e-008,-1.639914338e-008,-96.65717316,-13.94838238,8.197797285e-008,-9.634725656e-011,0.691
1.71671277e-007,7.780265037e-007,4.124580641e-007,1.38482585e-006,1.131995305e-006,-0.0003026008199,0.0003017765412,0.0004022767243,-0.0004037906474,642.0770264,642.0770264,706.2479858,706.2479858,-0.0003789071343,-1.252500048e-010,-5.35304634e-010,5.307394524e-010,-1.203283584e-010,1.088575827e-010,6.743324832e-008,0.9365848303,1.006660588e-010,9.225646025e-009,-9.637495246e-010,-96.65717316,-13.94838238,8.21160171e-008,-6.592533464e-011,0.701
1.724946549e-007,7.973832261e-009,-2.036085505e-007,1.791224577e-006,1.637798164e-006,-0.0003017154813,0.0003013573296,0.0004021320783,-0.000402451813,642.0770264,642.0770264,706.2479858,706.2479858,-0.0003789071343,-1.24243546e-010,-5.326480368e-010,5.134185854e-010,-1.161338317e-010,9.768678921e-011,6.764901883e-008,0.9365848303,6.14069004e-011,1.780832548e-008,2.496530449e-008,-96.65717316,-13.94838238,8.224697723e-008,-1.137370129e-010,0.711
1.733194899e-007,-6.9776587e-007,-8.147345625e-007,1.870231813e-006,1.825078243e-006,-0.0003047971113,0.0003027173225,0.0004019425251,-0.0004013410944,642.0770264,642.0770264,706.2479858,706.2479858,-0.0003789071343,-1.23643637e-010,-5.270403003e-010,5.013316429e-010,-1.106368538e-010,9.319730404e-011,6.781727535e-008,0.9365848303,-5.649321982e-011,1.459178289e-008,-1.389334159e-008,-96.65717316,-13.94838238,8.234913196e-008,-8.09076417e-011,0.721
1.741451505e-007,-1.425448772e-006,-1.160673378e-006,1.591271371e-006,1.932343139e-006,-0.000303978537,0.0003030568769,0.000401565514,-0.0003996450396,642.0770264,642.0770264,706.2479858,706.2479858,-0.0003789071343,-1.225995416e-010,-5.224793376e-010,4.907169115e-010,-9.970466119e-011,9.965318154e-011,6.791181306e-008,0.9365848303,-1.044945797e-010,4.864459058e-009,2.83169328e-008,-96.65717316,-13.94838238,8.240656513e-008,-4.584163257e-011,0.731
1.749709916e-007,-1.979194849e-006,-1.208029062e-006,1.195320237e-006,1.98707653e-006,-0.0003039565054,0.0003052811953,0.0004012059362,-0.0004018430191,642.0770264,642.0770264,706.2479858,706.2479858,-0.0003789071343,-1.215729462e-010,-5.231678424e-010,4.817590771e-010,-8.927748818e-011,1.077516618e-010,6.794109453e-008,0.9365848303,-2.288664397e-010,7.4448403e-009,-4.600448378e-008,-96.65717316,-13.94838238,8.242448502e-008,-3.423375819e-011,0.741
1.757965293e-007,-1.895774972e-006,-1.534046305e-006,1.000740781e-006,1.57790646e-006,-0.000304118963,0.0003051331441,0.0004015104205,-0.0004015204904,642.0770264,642.0770264,706.2479858,706.2479858,-0.0003789071052,-1.218501966e-010,-5.180896268e-010,4.863869862e-010,-9.810732088e-011,9.839925402e-011,6.791909613e-008,0.9365848303,4.974440651e-011,1.15042087e-010,3.752693445e-008,-96.65717316,-13.94838238,8.241138261e-008,-2.619660565e-011,0.751
1.766213547e-007,-1.431743613e-006,-1.871322638e-006,8.462509982e-007,5.736033586e-007,-0.0003043159377,0.0003048363142,0.0003993968421,-0.0004010142002,642.0770264,642.0770264,706.2479858,706.2479858,-0.0003789071052,-1.240225977e-010,-5.119324409e-010,4.956661193e-010,-1.203756955e-010,8.371776189e-011,6.783523787e-008,0.9365848303,1.801451766e-010,-7.082157971e-009,-9.699205883e-009,-96.65717316,-13.94838238,8.236077775e-008,-4.31241709e-011,0.761
1.77445137e-007,-1.107521143e-006,-1.682531774e-006,4.676824119e-007,-1.298954686e-007,-0.0003043005709,0.0003046479251,0.0004005170194,-0.000401198602,642.0770264,642.0770264,706.2479858,706.2479858,-0.0003789071052,-1.258611132e-010,-5.124124458e-010,5.015548532e-010,-1.249383513e-010,8.906523435e-011,6.770228822e-008,0.9365848303,1.55854607e-010,-4.392696429e-009,2.612497774e-008,-96.65717316,-13.94838238,8.228036563e-008,-1.312786685e-011,0.771
1.782677539e-007,-6.705103601e-007,-1.269935524e-006,7.824267811e-008,-7.26778012e-007,-0.000303198176,0.0003034906986,0.0003987411328,-0.000399501354,642.0770264,642.0770264,706.2479858,706.2479858,-0.0003789071052,-1.272504463e-010,-5.16632237e-010,5.074882736e-010,-1.293500584e-010,9.54865978e-011,6.755050208e-008,0.9365848303,1.144482911e-010,-1.376074454e-008,-3.80470091e-008,-96.65717316,-13.94838238,8.218840009e-008,-3.750914163e-011,0.781
1.790892481e-007,-3.113191838e-007,-6.217459259e-007,-4.701345233e-007,-1.063284458e-006,-0.0003038943396,0.0003023954923,0.0004025197122,-0.0004018731997,642.0770264,642.0770264,706.2479858,706.2479858,-0.0003789071052,-1.273681161e-010,-5.251110657e-010,5.113912627e-010,-1.273737504e-010,1.086266424e-010,6.739828962e-008,0.9365848303,-9.329432192e-012,-5.188990571e-009,5.405624837e-009,-96.65717316,-13.94838238,8.209607216e-008,-3.348191169e-011,0.791
1.799097512e-007,-7.669685687e-008,1.241214278e-007,-1.215429961e-006,-1.206789307e-006,-0.0003035945119,0.0003042116005,0.0004022563808,-0.0004025141534,642.0770264,642.0770264,706.2479858,706.2479858,-0.0003789070761,-1.253686044e-010,-5.344833465e-010,5.15193832e-010,-1.197379834e-010,1.272123934e-010,6.725469603e-008,0.9365848303,-6.955357124e-011,-1.041279685e-008,-3.616866096e-008,-96.65717316,-13.94838238,8.200885304e-008,-2.421100126e-011,0.801
1.807293634e-007,2.414778351e-007,6.674847555e-007,-1.902849931e-006,-1.463871627e-006,-0.0003053164401,0.0003040153824,0.0004022437206,-0.0004029148549,642.0770264,642.0770264,706.2479858,706.2479858,-0.0003789070761,-1.223375706e-010,-5.408655745e-010,5.213268706e-010,-1.19371027e-010,1.3883171e-010,6.711068323e-008,0.9365848303,-9.183580979e-011,-4.701354417e-009,-1.010048223e-008,-96.65717316,-13.94838238,8.192124312e-008,-1.991268782e-011,0.811
1.815480963e-007,7.406157465e-007,9.744744602e-007,-2.389937663e-006,-1.910075753e-006,-0.0003032869427,0.0003037969,0.0004026262905,-0.0004029679694,642.0770264,642.0770264,706.2479858,706.2479858,-0.0003789070761,-1.199565031e-010,-5.440971007e-010,5.281571291e-010,-1.304646807e-010,1.40372533e-010,6.695827892e-008,0.9365848303,-4.284866212e-011,1.327823268e-010,-1.95698906e-008,-96.65717316,-13.94838238,8.182836098e-008,-2.28551969e-011,0.821
1.823659363e-007,1.090855335e-006,1.43593536e-006,-2.77762706e-006,-2.174271231e-006,-0.0003029432555,0.0003019177529,0.0004029150004,-0.000402103964,642.0770264,642.0770264,706.2479858,706.2479858,-0.0003789070761,-1.195181593e-010,-5.548404514e-010,5.263253722e-010,-1.388364701e-010,1.431037233e-010,6.680734543e-008,0.9365848303,-1.075512665e-010,-8.38781844e-009,1.495625845e-009,-96.65717316,-13.94838238,8.173621779e-008,-1.218329864e-011,0.831
1.831829532e-007,1.522187745e-006,1.743711664e-006,-2.912883019e-006,-2.459773896e-006,-0.0003028062929,0.000303678913,0.0004021891509,-0.0004011688288,642.0770264,642.0770264,706.2479858,706.2479858,-0.0003789070761,-1.202314498e-010,-5.591219709e-010,5.318446239e-010,-1.455734144e-010,1.438395097e-010,6.667408314e-008,0.9365848303,-1.654651589e-011,-1.242242131e-008,2.298149404e-008,-96.65717316,-13.94838238,8.165475407e-008,1.182207804e-011,0.841
1.839992462e-007,1.763312412e-006,2.027486971e-006,-2.991041129e-006,-2.69281054e-006,-0.0003026552149,0.0003025895276,0.0004022992507,-0.0004022009962,642.0770264,642.0770264,706.2479858,706.2479858,-0.0003789070761,-1.220242518e-010,-5.638450262e-010,5.356577404e-010,-1.487663326e-010,1.459173754e-010,6.655663753e-008,0.9365848303,-4.3209155e-011,-1.427899488e-008,2.538171273e-008,-96.65717316,-13.94838238,8.158286136e-008,2.535684163e-011,0.851
1.848148662e-007,1.873666292e-006,2.088846031e-006,-2.904308076e-006,-2.820665941e-006,-0.0003026100458,0.0003025161859,0.0004014488659,-0.0004011945275,642.0770264,642.0770264,706.2479858,706.2479858,-0.0003789070761,-1.245234887e-010,-5.652566748e-010,5.379501289e-010,-1.51960014e-010,1.445839976e-010,6.644842188e-008,0.9365848303,-2.896077128e-011,-1.561384622e-008,1.123447779e-009,-96.65717316,-13.94838238,8.151651798e-008,3.113635738e-011,0.861
1.856298345e-007,1.868045047e-006,2.104924306e-006,-2.843031552e-006,-2.869839136e-006,-0.0003025768092,0.0003034970141,0.0004014881561,-0.0004031143035,642.0770264,642.0770264,706.2479858,706.2479858,-0.0003789070761,-1.271718009e-010,-5.662953995e-010,5.375307977e-010,-1.530985061e-010,1.446157916e-010,6.634265048e-008,0.9365848303,-1.981617995e-011,-2.113361708e-009,-6.729947444e-008,-96.65717316,-13.94838238,8.14516028e-008,2.968331136e-011,0.871
1.864441589e-007,1.974749011e-006,1.964870307e-006,-2.637730631e-006,-2.838429509e-006,-0.0003008836939,0.0003022808232,0.0003994883737,-0.0004031301069,642.0770264,642.0770264,706.2479858,706.2479858,-0.0003789070761,-1.279895356e-010,-5.586483498e-010,5.453075769e-010,-1.510183506e-010,1.450739806e-010,6.624495796e-008,0.9365848303,1.111444131e-010,-1.315458675e-008,-4.967393608e-008,-96.65717316,-13.94838238,8.139156904e-008,2.80585017e-011,0.881
1.872578906e-007,2.068039066e-006,1.789550424e-006,-2.413420361e-006,-2.86674549e-006,-0.0003019919677,0.0003012036032,0.0004015398736,-0.0004029585398,642.0770264,642.0770264,706.2479858,706.2479858,-0.0003789070761,-1.281874051e-010,-5.543365766e-010,5.486489041e-010,-1.545984729e-010,1.400990157e-010,6.615662329e-008,0.9365848303,4.749199298e-011,-4.050284275e-010,-3.254107739e-008,-96.65717316,-13.94838238,8.133721963e-008,-5.323313838e-012,0.891
1.880710796e-007,1.955416792e-006,1.822702188e-006,-2.352593128e-006,-2.634559451e-006,-0.0003028267238,0.0003033074609,0.0004014052683,-0.0004020546621,642.0770264,642.0770264,706.2479858,706.2479858,-0.0003789070761,-1.278206152e-010,-5.584838147e-010,5.434559469e-010,-1.506951508e-010,1.416735618e-010,6.607937308e-008,0.9365848303,3.849855504e-011,-4.716712798e-009,8.317491584e-009,-96.65717316,-13.94838238,8.128962037e-008,-3.931463488e-011,0.901
1.888837997e-007,1.914548193e-006,1.689685519e-006,-2.173536814e-006,-2.430190989e-006,-0.0003018767748,0.0003033305402,0.0004013943253,-0.0004028780386,642.0770264,642.0770264,706.2479858,706.2479858,-0.0003789070761,-1.270377414e-010,-5.579375295e-010,5.427346905e-010,-1.503778074e-010,1.377647857e-010,6.601423763e-008,0.9365848303,7.781525424e-011,9.586325067e-010,-1.638298741e-008,-96.65717316,-13.94838238,8.124943207e-008,-5.858145913e-011,0.911
1.896961238e-007,1.848818783e-006,1.437210017e-006,-1.974125325e-006,-2.330052666e-006,-0.0003019307042,0.0003033473913,0.0004015337036,-0.0004025777162,642.0770264,642.0770264,706.2479858,706.2479858,-0.0003789070761,-1.265180183e-010,-5.562518779e-010,5.422082228e-010,-1.544192968e-010,1.290557661e-010,6.595578839e-008,0.9365848303,1.26758451e-010,-7.57976959e-010,4.235819473e-010,-96.65717316,-13.94838238,8.121331518e-008,-9.316976357e-011,0.921
1.905080532e-007,1.756396045e-006,1.127737278e-006,-1.736794616e-006,-2.281370826e-006,-0.0003029870277,0.0003033728572,0.0004016707244,-0.0004022753565,642.0770264,642.0770264,706.2479858,706.2479858,-0.0003789070761,-1.264629096e-010,-5.534727676e-010,5.414114157e-010,-1.583933401e-010,1.202884042e-010,6.589190349e-008,0.9365848303,1.475424782e-010,-1.251770465e-009,-9.689414604e-009,-96.65717316,-13.94838238,8.117388006e-008,-8.686130981e-011,0.931
1.913195519e-007,1.501779366e-006,9.731904811e-007,-1.60125353e-006,-2.127089601e-006,-0.0003049046209,0.0003044935584,0.0004034726589,-0.0004022366484,642.0770264,642.0770264,706.2479858,706.2479858,-0.0003789070761,-1.263901622e-010,-5.537380554e-010,5.365288769e-010,-1.550071321e-010,1.191661908e-010,6.582032341e-008,0.9365848303,6.51696197e-011,-3.962996598e-009,5.114431545e-009,-96.65717316,-13.94838238,8.112965588e-008,-1.029248353e-010,0.941
1.921305975e-007,1.213919404e-006,9.444015632e-007,-1.59453657e-006,-1.88308195e-006,-0.0003029718064,0.0003026681079,0.0004012213321,-0.0004024154914,642.0770264,642.0770264,706.2479858,706.2479858,-0.0003789070761,-1.254044923e-010,-5.539478876e-010,5.33201483e-010,-1.453619031e-010,1.243521397e-010,6.574427402e-008,0.9365848303,2.247869078e-011,-4.847261703e-009,-5.656728863e-009,-96.65717316,-13.94838238,8.108270322e-008,-8.428791692e-011,0.951
1.929411652e-007,1.109281811e-006,8.582472333e-007,-1.501230599e-006,-1.751849595e-006,-0.0003030486114,0.0003036749258,0.0004021511704,-0.0004023626389,642.0770264,642.0770264,706.2479858,706.2479858,-0.0003789070761,-1.243986303e-010,-5.515474188e-010,5.319693575e-010,-1.444721703e-010,1.228193103e-010,6.566568089e-008,0.9365848303,3.965991424e-011,-6.809259823e-009,-1.402640049e-008,-96.65717316,-13.94838238,8.103414473e-008,-8.213467406e-011,0.961
1.937512831e-007,1.058858402e-006,8.514597312e-007,-1.381944912e-006,-1.573391046e-006,-0.0003030102525,0.0003028293431,0.000401247933,-0.0004022189241,642.0770264,642.0770264,706.2479858,706.2479858,-0.0003789070761,-1.242081854e-010,-5.527465152e-010,5.281615145e-010,-1.461334248e-010,1.186514914e-010,6.559668719e-008,0.9365848303,5.699985969e-011,-2.286772771e-009,-8.518904693e-009,-96.65717316,-13.94838238,8.099149085e-008,-1.03113143e-010,0.971
1.945610423e-007,1.094259915e-006,7.858650974e-007,-1.160282864e-006,-1.421442789e-006,-0.0003040244046,0.0003028437495,0.0004012862046,-0.000402068079,642.0770264,642.0770264,706.2479858,706.2479858,-0.0003789070761,-1.243910391e-010,-5.511940904e-010,5.277112081e-010,-1.472432176e-010,1.142774833e-010,6.554644472e-008,0.9365848303,5.918488616e-011,-6.135446373e-009,-2.471501404e-008,-96.65717316,-13.94838238,8.096045434e-008,-8.364482024e-011,0.981
1.953705573e-007,1.010396318e-006,7.937588293e-007,-1.069746759e-006,-1.319667263e-006,-0.0003030126973,0.000303898094,0.0004012334975,-0.000402031641,642.0770264,642.0770264,706.2479858,706.2479858,-0.0003789070761,-1.248374459e-010,-5.526701874e-010,5.24993049e-010,-1.45714496e-010,1.132213004e-010,6.551069731e-008,0.9365848303,1.996410329e-011,4.378470919e-009,-4.162677314e-008,-96.65717316,-13.94838238,8.093834225e-008,-9.494709186e-011,0.991
1.961798592e-007,9.376229855e-007,7.178222177e-007,-1.048588388e-006,-1.289924398e-006,-0.0003011237714,0.0003039398289,0.0004012144054,-0.0004020222987,642.0770264,642.0770264,706.2479858,706.2479858,-0.0003789070761,-1.251633241e-010,-5.511444079e-010,5.23688648e-010,-1.451611886e-010,1.129497954e-010,6.547471543e-008,0.9365848303,1.016641285e-010,-1.858697529e-009,-3.370792712e-008,-96.65717316,-13.94838238,8.091613068e-008,-8.177594712e-011,1.001
1.969889038e-007,9.621226127e-007,7.139671538e-007,-1.097204517e-006,-1.400679253e-006,-0.0003031713422,0.0003038915456,0.0004012149002,-0.0004011490091,642.0770264,642.0770264,706.2479858,706.2479858,-0.0003789070761,-1.248871423e-010,-5.477109322e-010,5.251983293e-010,-1.451749831e-010,1.154118606e-010,6.542998676e-008,0.9365848303,5.68138904e-011,-3.219059685e-009,3.236221602e-008,-96.65717316,-13.94838238,8.088849768e-008,-9.073729268e-011,1.011
1.977976682e-007,8.774002254e-007,7.8513483e-007,-1.132231432e-006,-1.293113428e-006,-0.0003030763182,0.0003030334774,0.000400178571,-0.0004021482891,642.0770264,642.0770264,706.2479858,706.2479858,-0.0003789070761,-1.250621967e-010,-5.506813339e-010,5.217807852e-010,-1.430445623e-010,1.166037128e-010,6.538615338e-008,0.9365848303,3.005364707e-011,-1.447435172e-009,-2.076394701e-008,-96.65717316,-13.94838238,8.08614331e-008,-8.802733542e-011,1.021
1.986061426e-007,9.73084866e-007,7.266386888e-007,-1.149922696e-006,-1.430753628e-006,-0.0003030830412,0.000304002926,0.0004023144429,-0.00040007403,642.0770264,642.0770264,706.2479858,706.2479858,-0.0003789070761,-1.25681493e-010,-5.504716127e-010,5.217162813e-010,-1.492069662e-010,1.12092384e-010,6.533861097e-008,0.9365848303,6.67018385e-011,-5.118430124e-009,5.468518083e-008,-96.65717316,-13.94838238,8.083205216e-008,-1.043022613e-010,1.031
1.994142941e-007,1.016050078e-006,6.889360407e-007,-1.184095709e-006,-1.544580186e-006,-0.0003021395241,0.0003039551375,0.0004014119622,-0.0004019616754,642.0770264,642.0770264,706.2479858,706.2479858,-0.0003789070761,-1.262107086e-010,-5.497248212e-010,5.232104749e-010,-1.508893011e-010,1.111921319e-010,6.528337337e-008,0.9365848303,9.314491539e-011,1.178914188e-009,-1.255692794e-008,-96.65717316,-13.94838238,8.07979319e-008,-9.569717241e-011,1.041
2.002220609e-007,9.473651517e-007,7.731686082e-007,-1.359705607e-006,-1.615351835e-006,-0.00030113291,0.0003020236618,0.0004012970021,-0.0004011792771,642.0770264,642.0770264,706.2479858,706.2479858,-0.0003789070761,-1.259605892e-010,-5.50858914e-010,5.230148536e-010,-1.475557454e-010,1.162896723e-010,6.521668183e-008,0.9365848303,3.563198347e-011,-1.023808327e-008,2.309971414e-008,-96.65717316,-13.94838238,8.075669911e-008,-8.998270185e-011,1.051
2.010293587e-007,1.002358658e-006,7.840251897e-007,-1.523714786e-006,-1.755392645e-006,-0.0003031689557,0.0003018780844,0.0004002778151,-0.0004022850771,642.0770264,642.0770264,706.2479858,706.2479858,-0.0003789070761,-1.24685734e-010,-5.477852616e-010,5.275646586e-010,-1.459217747e-010,1.205704564e-010,6.513484863e-008,0.9365848303,4.014175797e-011,-5.171540973e-009,-4.009996957e-008,-96.65717316,-13.94838238,8.070606583e-008,-8.488017234e-011,1.061
2.01836107e-007,1.035470859e-006,8.36045615e-007,-1.643059136e-006,-1.81257144e-006,-0.0003031400265,0.0003018838179,0.0004003118374,-0.0004023319052,642.0770264,642.0770264,706.2479858,706.2479858,-0.0003789070761,-1.236557107e-010,-5.486899268e-010,5.273862458e-010,-1.46908416e-010,1.219276624e-010,6.504227201e-008,0.9365848303,3.807561558e-011,-9.572195259e-010,-4.348273563e-008,-96.65717316,-13.94838238,8.064873924e-008,-7.028386206e-011,1.071
2.026422836e-007,1.169869961e-006,8.569355714e-007,-1.65474296e-006,-1.895724381e-006,-0.0003031109227,0.0003028226201,0.0004004705406,-0.0004003030772,642.0770264,642.0770264,706.2479858,706.2479858,-0.0003789070761,-1.232241947e-010,-5.495996991e-010,5.283719573e-010,-1.515106374e-010,1.187341614e-010,6.495118043e-008,0.9365848303,3.357271058e-011,-7.461014917e-009,-4.631742812e-008,-96.65717316,-13.94838238,8.059226531e-008,-7.816439856e-011,1.081
2.034479048e-007,1.195162554e-006,1.008502068e-006,-1.75752723e-006,-1.896788604e-006,-0.0003011133231,0.0003018513671,0.0004013586731,-0.0004004430957,642.0770264,642.0770264,706.2479858,706.2479858,-0.0003789070761,-1.227696556e-010,-5.514705914e-010,5.2840049e-010,-1.493441759e-010,1.227944968e-010,6.486338577e-008,0.9365848303,8.239172365e-012,-6.092355953e-009,-2.201940852e-008,-96.65717316,-13.94838238,8.053783063e-008,-5.572131992e-011,1.091
2.04253001e-007,1.123678658e-006,1.185056476e-006,-1.823683647e-006,-1.800223345e-006,-0.0003038373834,0.0003039265866,0.0004013022699,-0.0004024311493,642.0770264,642.0770264,706.2479858,706.2479858,-0.0003789070761,-1.232018793e-010,-5.570407469e-010,5.241030943e-010,-1.477088729e-010,1.24805874e-010,6.478227732e-008,0.9365848303,-7.778259807e-012,-2.179350478e-009,-2.615432093e-009,-96.65717316,-13.94838238,8.048747446e-008,-6.264452151e-011,1.101
2.050576208e-007,1.209153083e-006,1.124728328e-006,-1.770034601e-006,-1.861961664e-006,-0.0003028718347,0.0003019439464,0.0004024261434,-0.0004022523644,642.0770264,642.0770264,706.2479858,706.2479858,-0.0003789070761,-1.245252929e-010,-5.570733874e-010,5.255064162e-010,-1.524457505e-010,1.196212157e-010,6.470676084e-008,0.9365848303,4.478779153e-011,3.208578292e-009,3.443098606e-008,-96.65717316,-13.94838238,8.044055733e-008,-6.03094033e-011,1.111
2.058617612e-007,1.168654762e-006,1.207020318e-006,-1.858236487e-006,-1.940095672e-006,-0.0003027857747,0.000302971428,0.000401488709,-0.0004022846988,642.0770264,642.0770264,706.2479858,706.2479858,-0.0003789070761,-1.261055427e-010,-5.597631247e-010,5.237199563e-010,-1.531151456e-010,1.205590627e-010,6.462712321e-008,0.9365848303,-1.794493894e-011,-5.596605956e-010,-3.768620616e-008,-96.65717316,-13.94838238,8.039104671e-008,-6.20927823e-011,1.121
2.066653873e-007,1.200938527e-006,1.20046559e-006,-1.853815206e-006,-1.973133067e-006,-0.0003018925199,0.0003028903157,0.000401441619,-0.0004014007573,642.0770264,642.0770264,706.2479858,706.2479858,-0.0003789070761,-1.268992411e-010,-5.574458117e-010,5.262550951e-010,-1.517494741e-010,1.227117435e-010,6.4542931e-008,0.9365848303,3.976771343e-011,-3.739735632e-009,2.787969144e-008,-96.65717316,-13.94838238,8.033867971e-008,-5.303961437e-011,1.131
2.07468506e-007,1.330007535e-006,1.095793436e-006,-1.721389253e-006,-2.014164011e-006,-0.0003030469816,0.0003016810806,0.0004004549119,-0.0004013704602,642.0770264,642.0770264,706.2479858,706.2479858,-0.0003789070761,-1.265372945e-010,-5.515984336e-010,5.337231213e-010,-1.510572639e-010,1.218339735e-010,6.446433787e-008,0.9365848303,6.339972991e-011,-6.336301261e-009,2.955560519e-010,-96.65717316,-13.94838238,8.028975174e-008,-3.808395613e-011,1.141
2.082711329e-007,1.441920745e-006,9.56262511e-007,-1.664590286e-006,-2.129641643e-006,-0.0003032093227,0.0003034677356,0.0003995599109,-0.0004022821959,642.0770264,642.0770264,706.2479858,706.2479858,-0.0003789070761,-1.25399538e-010,-5.465240482e-010,5.384463431e-010,-1.530929411e-010,1.204869399e-010,6.438437339e-008,0.9365848303,1.503899089e-010,-1.03031299e-008,-6.055975632e-008,-96.65717316,-13.94838238,8.023992848e-008,-4.593029082e-011,1.151
2.090732571e-007,1.307557e-006,1.07550261e-006,-1.70700514e-006,-2.000450195e-006,-0.0003029930522,0.0003017459239,0.0004013968864,-0.0004013848084,642.0770264,642.0770264,706.2479858,706.2479858,-0.0003789070761,-1.247559417e-010,-5.532838632e-010,5.31695854e-010,-1.50452234e-010,1.222494189e-010,6.430474997e-008,0.9365848303,-4.036019349e-012,-9.290255676e-009,2.096511054e-008,-96.65717316,-13.94838238,8.019026865e-008,-7.340198588e-011,1.161
2.098748973e-007,1.153787707e-006,1.225631536e-006,-1.841278163e-006,-1.834084628e-006,-0.0003027266939,0.0003039369476,0.0004022780631,-0.00040239995,642.0770264,642.0770264,706.2479858,706.2479858,-0.0003789070761,-1.24970076e-010,-5.616105914e-010,5.237785206e-010,-1.481519213e-010,1.239015834e-010,6.422867926e-008,0.9365848303,-1.17994451e-011,-6.58716548e-009,1.866379051e-008,-96.65717316,-13.94838238,8.014280439e-008,-7.865702534e-011,1.171
2.10676063e-007,1.228753376e-006,1.112846917e-006,-1.751003879e-006,-1.866924208e-006,-0.0003027930507,0.0003019541327,0.0003996237356,-0.0004002336354,642.0770264,642.0770264,706.2479858,706.2479858,-0.0003789070761,-1.25893504e-010,-5.5953564e-010,5.251881707e-010,-1.549437523e-010,1.16720883e-010,6.41527933e-008,0.9365848303,4.766815762e-011,-1.247989445e-008,2.019596934e-009,-96.65717316,-13.94838238,8.00954183e-008,-9.041544596e-011,1.181
2.114767626e-007,1.251816798e-006,1.101148428e-006,-1.716583711e-006,-1.865304739e-006,-0.0003028706706,0.0003038253635,0.000400594814,-0.0004021461646,642.0770264,642.0770264,706.2479858,706.2479858,-0.0003789070761,-1.264033045e-010,-5.571100803e-010,5.272667858e-010,-1.551139911e-010,1.165420677e-010,6.407909581e-008,0.9365848303,6.005319853e-011,-9.007972146e-011,-4.619073124e-008,-96.65717316,-13.94838238,8.004941066e-008,-6.566505673e-011,1.191
2.122770198e-007,1.227407438e-006,1.109256573e-006,-1.66722316e-006,-1.788034183e-006,-0.0003029966902,0.0003027589119,0.0004032656725,-0.0004013702564,642.0770264,642.0770264,706.2479858,706.2479858,-0.0003789070761,-1.254963494e-010,-5.531705094e-010,5.303626982e-010,-1.490047807e-010,1.218272844e-010,6.401104713e-008,0.9365848303,-2.456632467e-011,-1.209068623e-009,-1.724034959e-008,-96.65717316,-13.94838238,8.000689178e-008,-4.291583755e-011,1.201
2.1307688e-007,1.184226335e-006,1.132134571e-006,-1.667302399e-006,-1.713441975e-006,-0.0003020011063,0.0003037331917,0.0004012333811,-0.0004014295118,642.0770264,642.0770264,706.2479858,706.2479858,-0.0003789070761,-1.24283403e-010,-5.540510273e-010,5.301479811e-010,-1.457106935e-010,1.235462427e-010,6.39499973e-008,0.9365848303,4.020326433e-011,-1.777664793e-009,2.501412445e-011,-96.65717316,-13.94838238,7.996871432e-008,-5.907481448e-011,1.211
2.138763445e-007,1.305001888e-006,9.530316447e-007,-1.579146669e-006,-1.842953793e-006,-0.0003031338565,0.000301654858,0.0004013849539,-0.0004022475623,642.0770264,642.0770264,706.2479858,706.2479858,-0.0003789070761,-1.233228658e-010,-5.488829391e-010,5.345426879e-010,-1.50106011e-010,1.194825627e-010,6.388470553e-008,0.9365848303,7.234856464e-011,-1.049526777e-008,-2.560289936e-008,-96.65717316,-13.94838238,7.992787943e-008,-4.305748466e-011,1.221
2.146753871e-007,1.101222324e-006,1.070963208e-006,-1.641871791e-006,-1.686766041e-006,-0.0003019444121,0.0003019343421,0.0004013175785,-0.0004022907815,642.0770264,642.0770264,706.2479858,706.2479858,-0.0003789070761,-1.235177516e-010,-5.558233318e-010,5.258063984e-010,-1.481522821e-010,1.207352968e-010,6.381660711e-008,0.9365848303,-4.518878761e-012,-8.658780359e-009,2.868964621e-009,-96.65717316,-13.94838238,7.988524686e-008,-5.3308951e-011,1.231
2.154740108e-007,1.126220354e-006,1.06903417e-006,-1.617783482e-006,-1.693449576e-006,-0.0003047737991,0.0003039471339,0.0004033671285,-0.0004012027348,642.0770264,642.0770264,706.2479858,706.2479858,-0.0003789070761,-1.246925757e-010,-5.578276729e-010,5.234606082e-010,-1.519471771e-010,1.169703084e-010,6.37507398e-008,0.9365848303,-9.600708249e-012,2.886743955e-009,4.86164673e-008,-96.65717316,-13.94838238,7.984399986e-008,-6.147701098e-011,1.241
2.162722344e-007,1.091276772e-006,1.124157507e-006,-1.626786457e-006,-1.672274379e-006,-0.0003017870768,0.0003011003719,0.0004014679289,-0.0004021233472,642.0770264,642.0770264,706.2479858,706.2479858,-0.0003789070761,-1.2635612e-010,-5.607414533e-010,5.21451049e-010,-1.525123777e-010,1.158800625e-010,6.368786387e-008,0.9365848303,7.820063173e-012,-9.20143961e-009,1.687060447e-008,-96.65717316,-13.94838238,7.980460737e-008,-6.326630192e-011,1.251
2.170700526e-007,1.172769885e-006,1.029041186e-006,-1.580552748e-006,-1.808783736e-006,-0.0003028673236,0.0003010218788,0.0004006378877,-0.0004001219349,642.0770264,642.0770264,706.2479858,706.2479858,-0.0003789070761,-1.277480205e-010,-5.572144968e-010,5.239047529e-010,-1.563633389e-010,1.134821404e-010,6.36212576e-008,0.9365848303,3.268696772e-011,-1.690165874e-008,-2.80574497e-009,-96.65717316,-13.94838238,7.976287009e-008,-6.11775422e-011,1.261
2.178674529e-007,1.125899757e-006,1.058248813e-006,-1.536808554e-006,-1.718775252e-006,-0.0003029457002,0.0003038624709,0.0004013948492,-0.000402202073,642.0770264,642.0770264,706.2479858,706.2479858,-0.0003789070761,-1.276520001e-010,-5.547647342e-010,5.261067137e-010,-1.503934616e-010,1.181632153e-010,6.355544002e-008,0.9365848303,3.766545409e-011,7.116661926e-009,1.547153161e-008,-96.65717316,-13.94838238,7.972159466e-008,-6.238995431e-011,1.271
2.186644538e-007,1.106524223e-006,1.085999088e-006,-1.572358883e-006,-1.722973138e-006,-0.0003019155993,0.000302005792,0.0004014336737,-0.0004012284044,642.0770264,642.0770264,706.2479858,706.2479858,-0.0003789070761,-1.275868994e-010,-5.567240557e-010,5.235726852e-010,-1.515187698e-010,1.177143105e-010,6.349252146e-008,0.9365848303,-1.486242726e-011,-5.158197869e-009,-1.537729588e-008,-96.65717316,-13.94838238,7.96821098e-008,-8.884681879e-011,1.281
2.194610592e-007,1.206002253e-006,9.934902891e-007,-1.542417408e-006,-1.721147441e-006,-0.0003011296794,0.0003037611023,0.0004013771832,-0.0004022333887,642.0770264,642.0770264,706.2479858,706.2479858,-0.0003789070761,-1.260951066e-010,-5.509597223e-010,5.292761229e-010,-1.498808855e-010,1.190709753e-010,6.343047687e-008,0.9365848303,1.20571525e-010,-5.241676426e-009,1.09303091e-008,-96.65717316,-13.94838238,7.964319337e-008,-6.556959836e-011,1.291
2.202572771e-007,1.273521661e-006,9.106942116e-007,-1.515278086e-006,-1.785928362e-006,-0.0003032283275,0.0003035817645,0.0004022861831,-0.0004022779758,642.0770264,642.0770264,706.2479858,706.2479858,-0.0003789070761,-1.237168701e-010,-5.459294683e-010,5.348818055e-010,-1.48387122e-010,1.203646072e-010,6.336809122e-008,0.9365848303,6.940742425e-011,-2.838866475e-009,1.581720888e-008,-96.65717316,-13.94838238,7.960403536e-008,-5.293953123e-011,1.301
