#Name,"Car.Distance","Car.FxFL","Car.FxFR","Car.FxRL","Car.FxRR","Car.FyFL","Car.FyFR","Car.FyRL","Car.FyRR","Car.FzFL","Car.FzFR","Car.FzRL","Car.FzRR","Car.Pitch","Car.Roll","Car.SlipAngleFL","Car.SlipAngleFR","Car.SlipAngleRL","Car.SlipAngleRR","Car.TrackRadius","Car.Yaw","Car.YawRate","Car.ax","Car.ay","Car.tx","Car.ty","Car.vx","Car.vy","Time"
#Unit,"m","N","N","N","N","N","N","N","N","N","N","N","N","rad","rad","rad","rad","rad","rad","m","rad","rad/s","m/s^2","m/s^2","m","m","m/s","m/s","s"
1.621997378e-010,0.007831318304,0.007831409574,0.009245999157,0.009245936759,-0.0003257690405,0.0003244359395,0.0003268593282,-0.0003292636247,642.0627441,642.0627441,706.2649536,706.2650146,-0.0003790722985,3.387653491e-010,-1.819780437e-009,1.810913197e-009,2.368195196e-009,-2.379340502e-009,2.630611675e-007,0.9365848303,3.762172865e-011,0.0001177954036,1.685462436e-008,-96.65717316,-13.94838238,1.621922081e-007,1.43056799e-011,0.001
4.719211965e-009,0.0007763729664,0.0007766548079,-0.000846224546,-0.0008462643018,0.001056694542,-0.001049702172,-0.001231129165,0.001242652768,642.0696411,642.0696411,706.2580566,706.2581177,-0.0003790532646,2.600940574e-010,-4.148322574e-008,4.119272035e-008,4.386273389e-008,-4.419688437e-008,1.338382731e-006,0.9365848303,-1.267266587e-011,2.743570576e-006,1.267870005e-007,-96.65717316,-13.94838238,4.07208347e-007,4.374092477e-010,0.011
1.045622811e-008,-0.0004950069706,-0.000494688109,-0.0001646858436,-0.0001649656915,0.000903624401,-0.0008889890742,-0.0008400147781,0.0008546172758,642.0776978,642.0776978,706.2503052,706.2503052,-0.0003789970942,1.240458708e-010,-3.380270641e-008,3.334522347e-008,3.00749079e-008,-3.055411568e-008,2.568382797e-006,0.9365848303,-1.31351735e-010,4.171979811e-007,9.825301817e-008,-96.65717316,-13.94838238,5.069448434e-007,1.46199175e-009,0.021
1.723104139e-008,-0.0001247251639,-0.0001247474866,-0.0003720069362,-0.0003724370908,-0.0003238549107,0.0003321372205,0.000470209663,-0.0004613873607,642.0826416,642.0826416,706.2446289,706.2446289,-0.0003789217735,-1.345787717e-011,3.947657312e-009,-4.305368062e-009,-7.383027523e-009,7.076163655e-009,1.719373245e-006,0.9365848303,-3.771457868e-010,-2.438397075e-007,1.738061606e-008,-96.65717316,-13.94838238,4.148708399e-007,2.468066862e-009,0.031
2.542386847e-008,0.001714289538,0.001716238796,-0.0006582555943,-0.0006586224772,-0.001167477807,0.00116924569,0.001673003659,-0.001671558595,642.0844727,642.0844727,706.2420654,706.2420654,-0.0003788530012,-1.212045048e-010,2.789983355e-008,-2.802583232e-008,-3.938646032e-008,3.934455606e-008,1.023478035e-006,0.9365848303,-1.006325717e-010,1.075675573e-005,1.825913531e-009,-96.65717316,-13.94838238,3.202227106e-007,2.912820207e-009,0.041
3.528560779e-008,0.001794152311,0.001797200181,-0.0009203586378,-0.0009253408643,-0.001417557593,0.001411688165,0.00214234693,-0.002148665022,642.0836792,642.0836792,706.2420044,706.2420044,-0.0003788085596,-1.791720106e-010,3.295559026e-008,-3.2798809e-008,-4.946654641e-008,4.964975631e-008,6.431553743e-007,0.9365848303,2.276234479e-010,3.557088121e-006,2.971368929e-007,-96.65717316,-13.94838238,4.201765478e-007,2.726798565e-009,0.051
4.563370473e-008,-0.0006209154963,-0.0006222713855,-0.002552261576,-0.002545073628,-0.001222383347,0.001205361681,0.001862941077,-0.001874961308,642.081665,642.081665,706.2428589,706.2428589,-0.0003787931637,-1.330731636e-010,2.50290686e-008,-2.44969911e-008,-3.874886545e-008,3.911841873e-008,1.054285462e-006,0.9365848303,4.034315104e-010,-2.645570748e-005,-1.54063116e-007,-96.65717316,-13.94838238,3.250507064e-007,1.570021113e-009,0.061
5.469794894e-008,-0.001565224491,-0.001567264204,-0.002685428364,-0.002673807321,-0.0008285567164,0.0008084831061,0.001260435674,-0.001272970578,642.0792847,642.0792847,706.2438354,706.2438354,-0.0003788005852,-3.962560488e-011,1.202501654e-008,-1.13975398e-008,-2.006682465e-008,2.046923164e-008,1.5206572e-008,0.9365848303,2.622000395e-010,-3.36437588e-005,-1.243929972e-007,-96.65717316,-13.94838238,3.930759362e-008,3.613151167e-010,0.071
6.218638951e-008,-0.001420482644,-0.001423216774,-0.001941721188,-0.001933104475,-0.0004024470691,0.0003872120869,0.00072093372,-0.0007299548597,642.0770874,642.0770874,706.244873,706.244873,-0.0003788222966,5.756008517e-011,-1.052540277e-009,1.506548886e-009,-4.267707965e-009,4.606504955e-009,5.988164276e-007,0.9365848303,-5.342957327e-011,-2.639763989e-005,-5.7925444e-008,-96.65717316,-13.94838238,-2.444590166e-007,-7.587395157e-010,0.081
6.878242892e-008,-0.0007494609454,-0.0007532265154,-0.001187270624,-0.00118160597,1.368560879e-005,-2.176774433e-005,0.0004031369172,-0.0004122701648,642.0755615,642.0756226,706.2460938,706.2460938,-0.0003788508475,1.42960116e-010,-1.302168595e-008,1.322616505e-008,4.478919013e-009,-4.253657426e-009,1.920258001e-006,0.9365848303,-1.594428894e-010,-1.527979839e-005,-1.376462109e-007,-96.65717316,-13.94838238,-4.380316341e-007,-1.520146342e-009,0.091
7.480425837e-008,-6.800194387e-005,-7.223678404e-005,-0.000461946096,-0.0004566912539,0.0002976924006,-0.0002966262109,0.0002363286767,-0.0002386812266,642.0748291,642.0748291,706.2473145,706.2473145,-0.0003788802132,2.115915221e-010,-2.025374002e-008,2.027556611e-008,8.710184574e-009,-8.641966254e-009,2.772565722e-006,0.9365848303,-6.549810694e-011,-4.478772553e-006,-2.292205892e-008,-96.65717316,-13.94838238,-5.264593597e-007,-1.864782551e-009,0.101
8.025604684e-008,0.0003859316639,0.0003822853032,0.0002565878676,0.000261736539,0.0003827210458,-0.000382205093,0.0001266000327,-0.0001234129741,642.074585,642.074585,706.248291,706.248291,-0.0003789061448,2.593384674e-010,-2.136472688e-008,2.128398435e-008,1.106734882e-008,-1.11380114e-008,2.699337756e-006,0.9365848303,2.382244575e-012,4.521056781e-006,2.143798206e-008,-96.65717316,-13.94838238,-5.19541004e-007,-1.799723259e-009,0.111
8.515376429e-008,0.0006129432004,0.000610616582,0.0008444488631,0.0008487542509,0.0003180623171,-0.0003163622168,6.634691817e-005,-6.092330659e-005,642.074646,642.074646,706.2489624,706.2489624,-0.0003789261682,2.855942705e-010,-1.810259675e-008,1.797492821e-008,1.198700428e-008,-1.214427581e-008,1.92827747e-006,0.9365848303,8.821230552e-011,1.082922608e-005,5.897872768e-008,-96.65717316,-13.94838238,-4.391775121e-007,-1.484273704e-009,0.121
8.95361019e-008,0.0006852758233,0.000683938677,0.001213934156,0.001217181445,0.0001798668964,-0.0001794842683,5.720262925e-005,-4.99774651e-005,642.0748291,642.0748291,706.2493286,706.2492676,-0.0003789392067,2.954641254e-010,-1.287965201e-008,1.274146921e-008,1.14457297e-008,-1.163076924e-008,9.759406794e-007,0.9365848303,2.655405193e-012,1.430494285e-005,5.520444191e-008,-96.65717316,-13.94838238,-3.125037438e-007,-1.094652924e-009,0.131
9.355163585e-008,0.0006592674181,0.0006618076004,0.001357290777,0.001350656268,2.293287434e-005,-1.437142782e-005,9.431816579e-005,-8.816421177e-005,642.0751343,642.0751953,706.2493286,706.2493286,-0.0003789452894,2.595725301e-010,-7.499765253e-009,7.232143329e-009,9.666028866e-009,-9.87028681e-009,2.73405476e-007,0.9365848303,-2.529345899e-010,1.528191206e-005,7.812271718e-008,-96.65717316,-13.94838238,-1.654844084e-007,-3.694804185e-010,0.141
9.750488299e-008,0.0005663116463,0.0005699474714,0.001301776851,0.001291154069,-0.0001292648521,0.0001379378955,0.0001646505989,-0.0001564510458,642.0756226,642.0756226,706.2490845,706.2490845,-0.0003789452603,1.857665133e-010,-2.742222671e-009,2.381268738e-009,7.125566803e-009,-7.336379948e-009,4.003062326e-009,0.9365848303,-3.624718858e-010,1.438123945e-005,7.906015753e-008,-96.65717316,-13.94838238,-2.015875822e-008,2.058080928e-010,0.151
1.016710421e-007,0.0004344780755,0.0004379362508,0.001089196536,0.001081180293,-0.0002437761286,0.0002524082665,0.0002470629115,-0.0002411673195,642.0761719,642.0761719,706.2487793,706.2487793,-0.0003789407201,1.10795581e-010,6.610658687e-010,-9.745283469e-010,4.435875223e-009,-4.606832693e-009,1.141740924e-007,0.9365848303,-2.424509482e-010,1.171290842e-005,6.883001191e-008,-96.65717316,-13.94838238,1.066913882e-007,7.957183246e-010,0.161
1.061440884e-007,0.0002558201959,0.0002594699617,0.0007907655672,0.000784645672,-0.0003338391834,0.0003362803254,0.0003245437983,-0.0003196964099,642.0767212,642.0767212,706.2484131,706.2484131,-0.0003789333568,4.047541122e-011,3.013297389e-009,-3.212973665e-009,2.022198631e-009,-2.134703969e-009,4.102528806e-007,0.9365848303,-1.679579253e-010,8.087813512e-006,8.140084162e-008,-96.65717316,-13.94838238,2.023868149e-007,1.224767621e-009,0.171
1.108280286e-007,4.308194184e-005,4.692547736e-005,0.0004762269673,0.0004710035282,-0.0004018782638,0.0004046999093,0.0003842193983,-0.0003821217688,642.0772705,642.0772705,706.2481079,706.2481079,-0.0003789249167,-1.945130515e-011,4.781738117e-009,-4.869939563e-009,1.791015392e-010,-2.115912862e-010,6.765507692e-007,0.9365848303,-1.25774155e-010,3.994906365e-006,2.985989411e-008,-96.65717316,-13.94838238,2.599527136e-007,1.476185507e-009,0.181
1.154683496e-007,-0.0001554258051,-0.0001519829239,0.0001846226369,0.0001791040268,-0.0004537892237,0.0004544852709,0.0004324422043,-0.0004333406978,642.0776367,642.0776367,706.2478638,706.2478638,-0.0003789167968,-6.49377635e-011,5.914122969e-009,-5.899364552e-009,-1.134658034e-009,1.188838361e-009,7.795474062e-007,0.9365848303,-1.20016436e-011,2.917312827e-007,4.764244466e-008,-96.65717316,-13.94838238,2.790642668e-007,1.499818936e-009,0.191
1.197811417e-007,-0.0003045358171,-0.0003016389965,-3.327310696e-005,-3.778090104e-005,-0.0004838164314,0.0004817479057,0.0004562851682,-0.0004587584408,642.0778198,642.0778198,706.2478027,706.2478027,-0.0003789100447,-9.649140514e-011,6.252382168e-009,-6.187723223e-009,-1.742082256e-009,1.84172122e-009,7.087290896e-007,0.9365848303,-1.141711864e-010,-2.508231091e-006,-1.534136196e-008,-96.65717316,-13.94838238,2.660985103e-007,1.293607998e-009,0.201
1.235517887e-007,-0.0003911656968,-0.0003888230131,-0.0001525350672,-0.0001554886112,-0.0004853808496,0.0004809350939,0.0004520294897,-0.0004557775392,642.0778809,642.0778809,706.2478027,706.2478027,-0.0003789052425,-1.174086245e-010,5.835816719e-009,-5.761911392e-009,-1.563040808e-009,1.671724759e-009,5.392652724e-007,0.9365848303,-1.198856292e-010,-4.096442353e-006,-4.991074221e-008,-96.65717316,-13.94838238,2.321201009e-007,1.013850448e-009,0.211
1.266650528e-007,-0.0004148083972,-0.0004132474132,-0.0001887598191,-0.0001901672076,-0.0004693295923,0.0004678989062,0.0004297815321,-0.0004334734695,642.0778198,642.0778198,706.2478027,706.2478027,-0.0003789025068,-1.274090972e-010,4.890735372e-009,-4.815113197e-009,-8.901848703e-010,9.972419557e-010,3.564544784e-007,0.9365848303,-4.565024053e-011,-4.584935596e-006,-3.708046137e-008,-96.65717316,-13.94838238,1.887200227e-007,7.502906629e-010,0.221
1.290919942e-007,-0.0003844162857,-0.000383509032,-0.0001747815695,-0.0001754008554,-0.0004378727463,0.000435406313,0.000403495942,-0.0004066845577,642.0776978,642.0776978,706.2479248,706.2479248,-0.0003789015755,-1.301232455e-010,3.60268726e-009,-3.52558871e-009,-1.003127303e-010,1.927747545e-010,2.109687216e-007,0.9365848303,-5.360838162e-011,-4.277335393e-006,-1.41252956e-008,-96.65717316,-13.94838238,1.451879967e-007,5.01165387e-010,0.231
1.308697661e-007,-0.0003137433087,-0.000313175784,-0.0001399645407,-0.0001401433838,-0.0004016975872,0.0004001377383,0.000382608443,-0.0003846468462,642.0775146,642.0775146,706.2480469,706.2480469,-0.0003789019829,-1.315053483e-010,2.23457497e-009,-2.185815529e-009,4.500046447e-010,-3.908967317e-010,1.156132541e-007,0.9365848303,-3.983802524e-011,-3.461163715e-006,-2.00960546e-008,-96.65717316,-13.94838238,1.07483153e-007,2.918690289e-010,0.241
1.32089353e-007,-0.0002222649637,-0.0002220570022,-9.001542639e-005,-9.009033238e-005,-0.000365214597,0.0003631612053,0.0003681532107,-0.0003704976698,642.0773315,642.0773315,706.2481079,706.2481079,-0.0003789032344,-1.311551978e-010,1.006559947e-009,-9.714906657e-010,7.856155726e-010,-7.455526196e-010,6.270581565e-008,0.9365848303,2.711604812e-012,-2.393572458e-006,-4.523958097e-008,-96.65717316,-13.94838238,7.91634065e-008,1.80620699e-010,0.251
1.328890487e-007,-0.0001291499357,-0.0001289007923,-3.441776425e-005,-3.431816731e-005,-0.0003365635057,0.0003362353018,0.0003594559093,-0.0003623135854,642.0772095,642.0772095,706.24823,706.24823,-0.0003789047769,-1.309381215e-010,2.409089594e-011,-1.383237361e-011,9.53646051e-010,-9.26963839e-010,3.822559691e-008,0.9365848303,-3.919277403e-011,-1.239175617e-006,-2.600252103e-008,-96.65717316,-13.94838238,6.18178575e-008,7.077732844e-011,0.261
1.334711333e-007,-4.574481864e-005,-4.543549585e-005,1.086088287e-005,1.112071823e-005,-0.0003106642107,0.0003111138358,0.0003575976589,-0.0003598991025,642.0770874,642.0770874,706.24823,706.24823,-0.0003789062321,-1.31801875e-010,-7.276579894e-010,7.136033986e-010,9.510696675e-010,-9.407955526e-010,3.018448069e-008,0.9365848303,-3.10448299e-011,-2.47402312e-007,-4.034235701e-008,-96.65717316,-13.94838238,5.494410615e-008,4.716855812e-012,0.271
1.340839947e-007,1.893621993e-005,1.896239883e-005,3.54969161e-005,3.557009768e-005,-0.0002927969617,0.0002903389977,0.0003632118169,-0.0003631098371,642.0770874,642.0770264,706.24823,706.24823,-0.0003789074544,-1.318850723e-010,-1.25713151e-009,1.246364345e-009,7.882730579e-010,-7.9123047e-010,3.154456607e-008,0.9365848303,-3.496636314e-011,4.203221806e-007,2.208385119e-008,-96.65717316,-13.94838238,5.617902588e-008,-4.294382211e-011,0.281
1.34868126e-007,5.725224037e-005,5.743210932e-005,4.059855564e-005,4.074981916e-005,-0.0002806730627,0.0002816742053,0.0003713357146,-0.0003688342113,642.0770264,642.0770264,706.24823,706.24823,-0.0003789082402,-1.3327843e-010,-1.4896957e-009,1.458400511e-009,4.959544997e-010,-5.114602075e-010,3.864434106e-008,0.9365848303,-2.547850125e-011,7.372395885e-007,5.623401123e-008,-96.65717316,-13.94838238,6.218760973e-008,-1.07509085e-010,0.291
1.358395302e-007,7.377236034e-005,7.380066381e-005,3.071573883e-005,3.0833864e-005,-0.0002798274218,0.0002794582979,0.0003815679229,-0.0003842505976,642.0770264,642.0770264,706.2481689,706.2481689,-0.0003789086186,-1.321563275e-010,-1.456974319e-009,1.438806851e-009,1.42212575e-010,-1.498611651e-010,4.879854387e-008,0.9365848303,4.484723357e-011,7.993805866e-007,-3.340807453e-008,-96.65717316,-13.94838238,6.988550183e-008,-7.968160853e-011,0.301
1.369652852e-007,7.792880206e-005,7.788385119e-005,9.135625987e-006,9.220039829e-006,-0.0002815198095,0.0002827797434,0.000397285854,-0.0003952600237,642.0770264,642.0770264,706.2481079,706.2481079,-0.0003789086477,-1.29338415e-010,-1.314691356e-009,1.305188513e-009,-2.565382906e-010,2.548260214e-010,5.931671865e-008,0.9365848303,-1.52751041e-011,6.55457427e-007,5.400485037e-008,-96.65717316,-13.94838238,7.705128269e-008,-8.639860355e-011,0.311
1.381963547e-007,7.767754141e-005,7.778524014e-005,-1.834609611e-005,-1.804002022e-005,-0.0002869654854,0.0002865198767,0.0004114347103,-0.0004125872802,642.0770264,642.0769653,706.2480469,706.2480469,-0.0003789083858,-1.261495769e-010,-1.174346176e-009,1.158394936e-009,-6.668216535e-010,6.718354206e-010,6.790980223e-008,0.9365848303,-3.093503231e-011,4.633419621e-007,4.945682086e-009,-96.65717316,-13.94838238,8.244353467e-008,-1.207157013e-010,0.321
1.394748373e-007,7.467225078e-005,7.484991511e-005,-3.981587361e-005,-3.947068399e-005,-0.0002880682296,0.0002892336051,0.0004260758869,-0.0004255799868,642.0769653,642.0769653,706.2479858,706.2479858,-0.0003789079783,-1.256155041e-010,-1.080024847e-009,1.043596431e-009,-9.781743193e-010,9.637947107e-010,7.37064596e-008,0.9365848303,-5.056281088e-011,2.812583091e-007,5.794519087e-009,-96.65717316,-13.94838238,8.58884448e-008,-1.703596014e-010,0.331
1.407466409e-007,6.834724627e-005,6.849306374e-005,-5.189769945e-005,-5.153853999e-005,-0.000289234682,0.0002894788922,0.0004320371372,-0.0004323871399,642.0769653,642.0769653,706.2479248,706.2479248,-0.0003789075417,-1.255178461e-010,-1.013504614e-009,9.757211705e-010,-1.122911319e-009,1.105002867e-009,7.697081372e-008,0.9365848303,-5.353437138e-011,1.439034776e-007,-4.536325449e-008,-96.65717316,-13.94838238,8.776695637e-008,-1.262053517e-010,0.341
1.419695314e-007,5.868071821e-005,5.879756645e-005,-5.675250577e-005,-5.642536053e-005,-0.0002899196115,0.0002888374729,0.0004351713287,-0.0004338959698,642.0769653,642.0769653,706.2478638,706.2478638,-0.0003789070761,-1.243843917e-010,-9.619446351e-010,9.351993624e-010,-1.129830784e-009,1.120768589e-009,7.815418712e-008,0.9365848303,-4.208864854e-011,2.292713575e-008,1.567256014e-008,-96.65717316,-13.94838238,8.84350797e-008,-9.066924989e-011,0.351
1.431147468e-007,4.675714808e-005,4.676570825e-005,-5.664762284e-005,-5.650799721e-005,-0.0002911823103,0.0002899835526,0.0004354165867,-0.0004339528386,642.0769653,642.0769653,706.2478638,706.2478638,-0.0003789067268,-1.238746189e-010,-9.224744857e-010,8.993742973e-010,-1.053586773e-009,1.038859887e-009,7.75984148e-008,0.9365848303,-9.098253401e-012,-7.445201078e-008,2.151670841e-008,-96.65717316,-13.94838238,8.811517915e-008,-9.198027756e-011,0.361
1.441674053e-007,3.386943354e-005,3.40227125e-005,-5.296167001e-005,-5.276181764e-005,-0.0002903650166,0.0002922186977,0.0004334760597,-0.0004312741512,642.0769653,642.0769653,706.2478638,706.2478638,-0.000378906494,-1.235361535e-010,-8.874498914e-010,8.598380341e-010,-9.145570412e-010,9.058142569e-010,7.566203664e-008,0.9365848303,-4.274192805e-011,-1.374779544e-007,2.136052935e-008,-96.65717316,-13.94838238,8.700332188e-008,-7.535636004e-011,0.371
1.451274262e-007,2.179755393e-005,2.180125193e-005,-4.590438039e-005,-4.580322275e-005,-0.0002898109087,0.0002903714776,0.0004275651008,-0.0004273594241,642.0769653,642.0769653,706.2478638,706.2478638,-0.0003789063485,-1.226578283e-010,-8.438287846e-010,8.263063012e-010,-7.431537608e-010,7.371893096e-010,7.283586001e-008,0.9365848303,2.42845119e-011,-1.836257013e-007,1.805323535e-008,-96.65717316,-13.94838238,8.535706542e-008,-4.736489326e-011,0.381
1.460095425e-007,1.122953472e-005,1.104423154e-005,-3.570394256e-005,-3.578387623e-005,-0.0002932469943,0.0002915960213,0.0004229745537,-0.0004207243328,642.0769653,642.0769653,706.2478638,706.2478638,-0.0003789063776,-1.219415263e-010,-7.973625649e-010,7.880285313e-010,-5.551901161e-010,5.447874374e-010,6.97151421e-008,0.9365848303,1.81742555e-011,-1.947888109e-007,2.208510708e-008,-96.65717316,-13.94838238,8.350239966e-008,-3.501178167e-011,0.391
1.468409595e-007,2.339876346e-006,2.25221811e-006,-2.344972927e-005,-2.35069183e-005,-0.0002927616006,0.0002932311909,0.0004162541591,-0.0004149778397,642.0769653,642.0769653,706.2478638,706.2478638,-0.0003789064649,-1.219157969e-010,-7.515938427e-010,7.369145849e-010,-3.603148613e-010,3.506971658e-010,6.685141329e-008,0.9365848303,2.121671111e-012,-1.687098745e-007,1.977226027e-008,-96.65717316,-13.94838238,8.17634529e-008,-2.941867236e-011,0.401
1.476540358e-007,-4.488600098e-006,-4.525050826e-006,-1.056794554e-005,-1.05710169e-005,-0.0002946325694,0.0002949902264,0.0004099356593,-0.0004098909267,642.0769653,642.0769653,706.2478638,706.2478638,-0.0003789066395,-1.214778139e-010,-6.931094032e-010,6.819289577e-010,-1.770939367e-010,1.757961277e-010,6.463386626e-008,0.9365848303,-2.52999878e-013,-1.254326776e-007,1.089081603e-009,-96.65717316,-13.94838238,8.039049249e-008,7.068359786e-012,0.411
1.484760125e-007,-8.778314623e-006,-8.655591955e-006,6.490767532e-007,7.894095688e-007,-0.0002967882901,0.0002970987407,0.000403325801,-0.0004055417667,642.0769653,642.0769653,706.2479248,706.2479248,-0.0003789068724,-1.206837685e-010,-6.257235285e-010,6.160194577e-010,-4.02712412e-011,4.968068665e-011,6.322764534e-008,0.9365848303,-3.167141202e-011,-6.695129429e-008,-6.077254255e-008,-96.65717316,-13.94838238,7.950659864e-008,2.029844348e-011,0.421
1.493227711e-007,-1.093055744e-005,-1.083668485e-005,1.159343537e-005,1.16614392e-005,-0.0002998117998,0.0002994049864,0.0003999599721,-0.0003997788299,642.0769653,642.0769653,706.2479248,706.2479248,-0.0003789070761,-1.218799922e-010,-5.617302179e-010,5.439284578e-010,5.732945021e-011,-6.258230739e-011,6.278941811e-008,0.9365848303,-5.377216901e-012,1.659392845e-009,-9.055757033e-009,-96.65717316,-13.94838238,7.922710665e-008,-7.325818771e-012,0.431
1.501987966e-007,-1.180482286e-005,-1.179898572e-005,2.130486791e-005,2.129667519e-005,-0.0002988440683,0.0003012403031,0.0003960908798,-0.0003977663582,642.0769653,642.0769653,706.2479858,706.2479858,-0.0003789072507,-1.229773366e-010,-5.001430936e-010,4.865591263e-010,1.420033813e-010,-1.483958373e-010,6.342230563e-008,0.9365848303,5.00386399e-011,6.453117152e-008,-2.250370912e-008,-96.65717316,-13.94838238,7.962317738e-008,2.114744317e-011,0.441
1.511000703e-007,-1.264548155e-005,-1.266598792e-005,2.854792001e-005,2.850126657e-005,-0.0003028772771,0.0003009747888,0.0003928619262,-0.0003949357197,642.0770264,642.0770264,706.2479858,706.2479858,-0.0003789073962,-1.226975466e-010,-4.353888916e-010,4.335396486e-010,2.080491196e-010,-2.030217383e-010,6.497852212e-008,0.9365848303,1.711703349e-011,1.155960447e-007,-2.632078167e-010,-96.65717316,-13.94838238,8.059321033e-008,4.958951652e-011,0.451
1.520173909e-007,-1.370858081e-005,-1.357482051e-005,3.230961374e-005,3.233931056e-005,-0.0003025645856,0.0003068458755,0.0003918772854,-0.0003929515078,642.0770264,642.0770264,706.2479858,706.2479858,-0.0003789074835,-1.232453029e-010,-3.838444562e-010,3.722772646e-010,2.36601766e-010,-2.330385329e-010,6.710991585e-008,0.9365848303,3.6782348e-011,1.391439213e-007,1.264392235e-008,-96.65717316,-13.94838238,8.190465195e-008,1.460111372e-011,0.461
1.529400417e-007,-1.45851227e-005,-1.466342837e-005,3.273571929e-005,3.258517609e-005,-0.0003079728049,0.000308296294,0.0003901510499,-0.0003927304933,642.0770264,642.0770264,706.2479858,706.2480469,-0.0003789075126,-1.243210951e-010,-3.370513035e-010,3.269391424e-010,2.312874614e-010,-2.394474896e-010,6.940229724e-008,0.9365848303,4.351832436e-011,1.365413027e-007,-7.691549087e-008,-96.65717316,-13.94838238,8.329305246e-008,1.299082369e-012,0.471
1.538586169e-007,-1.52006869e-005,-1.538581091e-005,3.002115409e-005,2.974799463e-005,-0.0003090065438,0.000309365103,0.0003912142711,-0.0003925820638,642.0770264,642.0770264,706.2480469,706.2480469,-0.0003789075126,-1.257045718e-010,-3.047376795e-010,2.935296173e-010,2.004572203e-010,-2.161647805e-010,7.145803238e-008,0.9365848303,6.546910236e-011,1.204873001e-007,-3.247110314e-008,-96.65717316,-13.94838238,8.451961264e-008,-6.930534705e-012,0.481
1.54766576e-007,-1.517512464e-005,-1.533652721e-005,2.52241789e-005,2.494538785e-005,-0.0003104668285,0.0003088082012,0.0003907777718,-0.0003903995093,642.0770874,642.0770264,706.2480469,706.2480469,-0.0003789074544,-1.261242916e-010,-2.894229023e-010,2.805136401e-010,1.574766151e-010,-1.684458129e-010,7.300919691e-008,0.9365848303,6.522946246e-012,7.283797743e-008,-2.402688182e-008,-96.65717316,-13.94838238,8.543445773e-008,-5.73503571e-012,0.491
1.556609001e-007,-1.45052436e-005,-1.445123326e-005,1.926259392e-005,1.916139627e-005,-0.0003082359908,0.0003097980807,0.0003926288628,-0.0003923616605,642.0770874,642.0770874,706.2480469,706.2480469,-0.0003789073671,-1.264444105e-010,-2.983999992e-010,2.799951937e-010,1.037994551e-010,-1.115483886e-010,7.393727941e-008,0.9365848303,-7.295949435e-012,3.687383909e-008,-2.149804956e-008,-96.65717316,-13.94838238,8.597837109e-008,-3.572434709e-011,0.501
1.565415561e-007,-1.29789978e-005,-1.289860029e-005,1.294673621e-005,1.299095857e-005,-0.0003105805372,0.0003109597601,0.0003945023054,-0.0003945888311,642.0770874,642.0770874,706.2479858,706.2480469,-0.0003789073089,-1.251505566e-010,-3.161085282e-010,3.042538443e-010,4.947470558e-011,-4.696535522e-011,7.423751214e-008,0.9365848303,-1.015335819e-011,1.851101494e-009,-8.946765995e-009,-96.65717316,-13.94838238,8.615541702e-008,-1.323293038e-011,0.511
1.574104803e-007,-1.085177792e-005,-1.078420701e-005,6.955782283e-006,7.014683433e-006,-0.0003094988933,0.0003079984162,0.0003965977812,-0.0003984523064,642.0770874,642.0770874,706.2479858,706.2479858,-0.0003789072216,-1.240838821e-010,-3.499193713e-010,3.362505829e-010,-1.12890244e-011,9.428399034e-012,7.398595869e-008,0.9365848303,-1.778614582e-011,-1.899350544e-008,-1.390617221e-008,-96.65717316,-13.94838238,8.601181634e-008,-5.666844424e-011,0.521
1.582704044e-007,-8.261431503e-006,-8.116519894e-006,1.614256917e-006,1.735213573e-006,-0.0003078451846,0.0003089038364,0.0003987348173,-0.0003981209884,642.0770874,642.0770874,706.2479858,706.2479858,-0.0003789071343,-1.254046311e-010,-4.016126043e-010,3.685204086e-010,-7.325818424e-011,5.545866544e-011,7.332067042e-008,0.9365848303,-3.614729349e-011,-4.747661819e-008,-6.231919869e-009,-96.65717316,-13.94838238,8.562646769e-008,-9.290706399e-011,0.531
1.591239172e-007,-5.319642696e-006,-5.253071777e-006,-2.856359743e-006,-2.700445293e-006,-0.0003075285931,0.0003072152613,0.0004001892521,-0.0003990095574,642.0770264,642.0770264,706.2479858,706.2479858,-0.0003789070761,-1.248206954e-010,-4.416578214e-010,4.213033533e-010,-1.154334961e-010,1.091451374e-010,7.2391515e-008,0.9365848303,8.996358346e-012,-5.612209364e-008,5.971423889e-008,-96.65717316,-13.94838238,8.508416727e-008,-2.793877109e-011,0.541
1.599728644e-007,-2.185145377e-006,-2.096371645e-006,-6.649779607e-006,-6.458039024e-006,-0.0003072543477,0.0003055526176,0.0003995954758,-0.000401830388,642.0770264,642.0770264,706.2479858,706.2479858,-0.000378907047,-1.226316965e-010,-4.802890863e-010,4.732753078e-010,-1.541234779e-010,1.630224983e-010,7.132938151e-008,0.9365848303,-3.985665617e-011,-7.608259978e-008,-3.665415349e-008,-96.65717316,-13.94838238,8.445926625e-008,-1.503689534e-012,0.551
1.608182566e-007,9.858503063e-007,9.545578905e-007,-9.201631656e-006,-9.139487702e-006,-0.0003058110306,0.0003043063334,0.0004031151184,-0.0004048169067,642.0770264,642.0770264,706.2479858,706.2479858,-0.0003789069888,-1.224593066e-010,-5.254051083e-010,5.122327562e-010,-2.002765037e-010,1.939866046e-010,7.026736171e-008,0.9365848303,1.214427604e-011,-5.286303661e-008,-2.776780228e-008,-96.65717316,-13.94838238,8.382932748e-008,-3.205824495e-011,0.561
1.616606426e-007,3.857963293e-006,3.896296221e-006,-1.064238404e-005,-1.058434646e-005,-0.0003023616446,0.0003031734668,0.0004041322391,-0.000405558385,642.0770264,642.0770264,706.2479858,706.2479858,-0.0003789069888,-1.237981107e-010,-5.730219077e-010,5.476451514e-010,-2.297710494e-010,2.154880857e-010,6.934953234e-008,0.9365848303,2.88925329e-012,-3.91939885e-008,-5.158013039e-008,-96.65717316,-13.94838238,8.328084533e-008,-3.772717902e-011,0.571
1.625004001e-007,6.044774636e-006,6.173189377e-006,-1.121532841e-005,-1.112044902e-005,-0.0002992295776,0.000300975662,0.0004044278176,-0.0004051560827,642.0770264,642.0770264,706.2479858,706.2479858,-0.0003789069597,-1.245349796e-010,-6.103546557e-010,5.861056085e-010,-2.383421793e-010,2.316075942e-010,6.863957225e-008,0.9365848303,-1.158487976e-011,-4.253958963e-008,-7.947632774e-009,-96.65717316,-13.94838238,8.285391573e-008,-1.007184613e-011,0.581
1.633375045e-007,7.277587883e-006,7.206308965e-006,-1.109827554e-005,-1.110414814e-005,-0.0003007735359,0.0003007797932,0.0004043017107,-0.0004054926685,642.0770264,642.0770264,706.2479858,706.2479858,-0.0003789069597,-1.228416258e-010,-6.226637539e-010,6.22467855e-010,-2.346849937e-010,2.413672595e-010,6.810302722e-008,0.9365848303,2.268601279e-011,-2.44238052e-008,-3.923848624e-008,-96.65717316,-13.94838238,8.252956718e-008,4.594842909e-011,0.591
1.641715893e-007,7.624187219e-006,7.485253718e-006,-1.074083048e-005,-1.084073301e-005,-0.0003003983584,0.0002984289604,0.0004043338122,-0.0004062989028,642.0770264,642.0770264,706.2479858,706.2479858,-0.0003789069597,-1.21790536e-010,-6.343911507e-010,6.353805815e-010,-2.356162765e-010,2.369612839e-010,6.767355387e-008,0.9365848303,4.294188269e-011,-1.813776507e-008,-2.965412094e-008,-96.65717316,-13.94838238,8.226879089e-008,6.26163444e-012,0.601
1.650021144e-007,7.412360901e-006,7.363551049e-006,-1.015893849e-005,-1.024571429e-005,-0.0003000501019,0.0002995750692,0.0004062958469,-0.0004049876297,642.0770264,642.0770264,706.2479858,706.2479858,-0.0003789069888,-1.228416258e-010,-6.452776091e-010,6.298864763e-010,-2.368731322e-010,2.267224741e-010,6.730064683e-008,0.9365848303,-1.859823753e-011,-2.446720337e-008,2.254776099e-008,-96.65717316,-13.94838238,8.204143143e-008,-1.67929351e-011,0.611
1.658287528e-007,6.86667272e-006,7.185690265e-006,-9.33008323e-006,-9.145744116e-006,-0.0003008136409,0.0003008507774,0.0004049068957,-0.0004057734914,642.0770264,642.0770264,706.2479858,706.2479858,-0.0003789069888,-1.244263442e-010,-6.515593065e-010,6.202492409e-010,-2.243818742e-010,2.217258183e-010,6.699184496e-008,0.9365848303,-6.849942835e-011,-1.406195427e-008,1.826601981e-008,-96.65717316,-13.94838238,8.185243416e-008,-1.988872955e-011,0.621
1.666516945e-007,6.380954346e-006,6.594001661e-006,-7.989455298e-006,-7.869478395e-006,-0.0002981564612,0.0002999040007,0.0004054429592,-0.0004033606965,642.0770264,642.0770264,706.2479858,706.2479858,-0.0003789070179,-1.255549276e-010,-6.438990452e-010,6.196044788e-010,-2.121413878e-010,2.073984456e-010,6.676987852e-008,0.9365848303,-1.923292081e-011,-1.723368825e-008,3.074380572e-008,-96.65717316,-13.94838238,8.171600996e-008,-5.910505592e-012,0.631
1.67471563e-007,5.71898363e-006,5.777197202e-006,-6.473765552e-006,-6.431010661e-006,-0.0003006410843,0.0003008736821,0.000406716601,-0.00040486941,642.0770264,642.0770264,706.2479858,706.2479858,-0.000378907047,-1.248543352e-010,-6.2680372e-010,6.195334801e-010,-1.937035532e-010,1.955101081e-010,6.663827179e-008,0.9365848303,-2.517883688e-012,9.293824738e-011,4.668725495e-008,-96.65717316,-13.94838238,8.16346386e-008,2.848284976e-011,0.641
1.682892854e-007,4.801650903e-006,4.917935712e-006,-4.930871e-006,-4.840106612e-006,-0.000301015767,0.0003003496677,0.0004042187938,-0.0004043671361,642.0770264,642.0770264,706.2479858,706.2479858,-0.0003789070761,-1.241560327e-010,-6.150920884e-010,6.056729562e-010,-1.766433527e-010,1.809448424e-010,6.659200835e-008,0.9365848303,-1.61236198e-011,-1.136136296e-009,2.724435433e-008,-96.65717316,-13.94838238,8.160545661e-008,-8.435444183e-012,0.651
1.691059394e-007,3.983849638e-006,3.877134077e-006,-3.202118251e-006,-3.308347232e-006,-0.0003014274407,0.0002999375283,0.0004039556661,-0.0004044580273,642.0770264,642.0770264,706.2479858,706.2479858,-0.0003789071052,-1.249817194e-010,-6.022234933e-010,5.882249132e-010,-1.690136919e-010,1.558622675e-010,6.663077556e-008,0.9365848303,5.018396115e-011,1.236260871e-008,2.095282348e-008,-96.65717316,-13.94838238,8.162837872e-008,-3.027262815e-011,0.661
1.699226431e-007,3.035668442e-006,2.964704663e-006,-1.61512412e-006,-1.76790536e-006,-0.0003008274361,0.0003005966428,0.0004035184393,-0.0004047540715,642.0770264,642.0770264,706.2479858,706.2479858,-0.0003789071052,-1.265033356e-010,-5.907387912e-010,5.676212833e-010,-1.563345703e-010,1.36794881e-010,6.6752051e-008,0.9365848303,1.441815244e-011,1.522141346e-008,-1.404921512e-008,-96.65717316,-13.94838238,8.170184884e-008,-4.640818632e-011,0.671
1.707403613e-007,2.126936806e-006,2.044009761e-006,-3.011116689e-007,-4.780192171e-007,-0.0003013566893,0.0003011147492,0.0004030366254,-0.0004033443984,642.0770264,642.0770264,706.2479858,706.2479858,-0.0003789071343,-1.275228256e-010,-5.741953579e-010,5.514262935e-010,-1.423632462e-010,1.235694047e-010,6.693720422e-008,0.9365848303,2.812512029e-011,9.387343347e-009,9.341471596e-009,-96.65717316,-13.94838238,8.181440592e-008,-4.704007323e-011,0.681
1.715596996e-007,1.339262894e-006,1.121409127e-006,7.427834134e-007,4.659708281e-007,-0.0003011001681,0.0003014865506,0.0004026502429,-0.000402095553,642.0770264,642.0770264,706.2479858,706.2479858,-0.0003789071343,-1.271295846e-010,-5.51881596e-010,5.398037572e-010,-1.311593056e-010,1.150745957e-010,6.715038126e-008,0.9365848303,5.630199085e-011,1.55483395e-008,-3.156216399e-009,-96.65717316,-13.94838238,8.194402312e-008,-4.801317677e-011,0.691
1.723809371e-007,6.862229611e-007,4.74683219e-007,1.511655682e-006,1.234031629e-006,-0.0003014544782,0.0003009249922,0.0004023594956,-0.0004017527972,642.0770264,642.0770264,706.2479858,706.2479858,-0.0003789071343,-1.266754479e-010,-5.408067327e-010,5.269329417e-010,-1.227285773e-010,1.051355669e-010,6.73866154e-008,0.9365848303,2.179769039e-011,7.626996812e-009,4.554222333e-009,-96.65717316,-13.94838238,8.20876167e-008,-6.538878466e-011,0.701
1.732040771e-007,-3.429605044e-008,-1.449523523e-007,1.902492841e-006,1.766266564e-006,-0.000303655077,0.0003022884484,0.0004030140699,-0.0004034613376,642.0770264,642.0770264,706.2479858,706.2479858,-0.0003789071343,-1.258628618e-010,-5.325900831e-010,5.147370863e-010,-1.139910111e-010,9.930841566e-011,6.761639071e-008,0.9365848303,3.398259452e-011,1.789373449e-008,5.086914356e-008,-96.65717316,-13.94838238,8.22271673e-008,-8.791636169e-011,0.711
1.740287797e-007,-7.209660566e-007,-8.125048225e-007,2.049714112e-006,1.949661282e-006,-0.0003009178326,0.0003026876948,0.0004000609624,-0.0003993381397,642.0770264,642.0770264,706.2479858,706.2479858,-0.0003789071343,-1.257551424e-010,-5.271575954e-010,5.022575134e-010,-1.11713673e-010,9.075332846e-011,6.780247475e-008,0.9365848303,3.843654995e-012,-7.876528874e-010,1.056972376e-008,-96.65717316,-13.94838238,8.234012228e-008,-9.489600772e-011,0.721
1.748544001e-007,-1.315822942e-006,-1.294474828e-006,1.838705089e-006,1.940540869e-006,-0.0003042095632,0.0003028174979,0.0004016172606,-0.0004005376832,642.0770264,642.0770264,706.2479858,706.2479858,-0.0003789071343,-1.237815128e-010,-5.152574478e-010,4.982002588e-010,-1.012055093e-010,9.768472836e-011,6.791085383e-008,0.9365848303,-4.090949107e-011,2.551700407e-009,3.531319592e-008,-96.65717316,-13.94838238,8.240598959e-008,-3.154228614e-011,0.731
1.756802854e-007,-1.827917117e-006,-1.44009914e-006,1.475782142e-006,1.958378562e-006,-0.0003043341858,0.0003020038421,0.0004031130811,-0.00040086644,642.0770264,642.0770264,706.2479858,706.2479858,-0.0003789071343,-1.209141537e-010,-5.113617307e-010,4.932099174e-010,-8.920957029e-011,1.072178388e-010,6.795202268e-008,0.9365848303,-1.749517198e-010,8.852981459e-009,1.392321636e-008,-96.65717316,-13.94838238,8.243111438e-008,-4.955816573e-012,0.741
1.765059246e-007,-1.953230594e-006,-1.548451223e-006,1.058276894e-006,1.647423005e-006,-0.0003042038879,0.0003050441737,0.0003994644503,-0.0004016571038,642.0770264,642.0770264,706.2479858,706.2479858,-0.0003789071052,-1.200822219e-010,-5.154351945e-010,4.891683725e-010,-9.441600279e-011,1.023600649e-010,6.793751339e-008,0.9365848303,-1.772524944e-012,-2.714303671e-009,-4.344403448e-010,-96.65717316,-13.94838238,8.242255234e-008,-3.585647751e-011,0.751
1.773308614e-007,-1.609535843e-006,-1.793771389e-006,7.434102258e-007,7.566591762e-007,-0.0003032277455,0.0003030447988,0.0004002657079,-0.0004021060886,642.0770264,642.0770264,706.2479858,706.2479858,-0.0003789071052,-1.224803453e-010,-5.157079208e-010,4.91094776e-010,-1.176510556e-010,8.766162796e-011,6.785280959e-008,0.9365848303,9.414916763e-011,-4.856742564e-009,-3.869988774e-008,-96.65717316,-13.94838238,8.237143589e-008,-5.380228207e-011,0.761
1.781547568e-007,-1.290477257e-006,-1.614451548e-006,4.129154547e-007,9.980713145e-008,-0.0003040943702,0.0003048650105,0.0004024639784,-0.0004002033093,642.0770264,642.0770264,706.2479858,706.2479858,-0.0003789071052,-1.255537757e-010,-5.188586227e-010,4.947686705e-010,-1.257574184e-010,8.798937273e-011,6.77222971e-008,0.9365848303,5.109321993e-011,-1.080736212e-008,2.37381439e-008,-96.65717316,-13.94838238,8.229251591e-008,-2.159287853e-011,0.771
1.789774974e-007,-8.390283597e-007,-1.281154482e-006,1.867706345e-008,-5.33722357e-007,-0.0003042242315,0.0003044088953,0.0004014615843,-0.0003996483574,642.0770264,642.0770264,706.2479858,706.2479858,-0.0003789071052,-1.262508847e-010,-5.147984816e-010,5.09026099e-010,-1.244762349e-010,9.974882031e-011,6.757025517e-008,0.9365848303,7.339704539e-011,-6.371266181e-009,1.436403441e-008,-96.65717316,-13.94838238,8.220042957e-008,1.317138564e-012,0.781
1.797990878e-007,-5.639795404e-007,-5.853082712e-007,-6.049772878e-007,-8.984878832e-007,-0.0003029066138,0.0003044063924,0.000401421421,-0.0004001232446,642.0770264,642.0770264,706.2479858,706.2479858,-0.0003789070761,-1.266088068e-010,-5.257460578e-010,5.091049804e-010,-1.233114028e-010,1.135200545e-010,6.74095233e-008,0.9365848303,-6.214120798e-012,-1.128201799e-008,3.145534677e-008,-96.65717316,-13.94838238,8.210291469e-008,-2.015364264e-011,0.791
1.806196331e-007,-1.578173112e-007,8.101035576e-008,-1.24567282e-006,-1.171037752e-006,-0.0003055657144,0.0003041768505,0.0004022695648,-0.0004025416274,642.0770264,642.0770264,706.2479858,706.2479858,-0.0003789070761,-1.253677023e-010,-5.330734743e-010,5.162799077e-010,-1.201199973e-010,1.28009256e-010,6.725730373e-008,0.9365848303,-8.752235742e-011,3.29927663e-009,-6.897094007e-009,-96.65717316,-13.94838238,8.201044466e-008,-1.485949493e-012,0.801
1.814392501e-007,8.035738119e-008,7.160201108e-007,-1.920956947e-006,-1.37179893e-006,-0.0003032535606,0.0003031963715,0.0004022730864,-0.0004019558546,642.0770264,642.0770264,706.2479858,706.2479858,-0.0003789070761,-1.238301406e-010,-5.451407659e-010,5.166884143e-010,-1.202225958e-010,1.388087145e-010,6.710957479e-008,0.9365848303,-1.638739422e-010,-8.95727581e-009,-1.005573402e-008,-96.65717316,-13.94838238,8.1920561e-008,-1.873835462e-011,0.811
1.822579773e-007,6.097578193e-007,1.017041086e-006,-2.344120503e-006,-1.770423637e-006,-0.0003051234235,0.000303882407,0.0004035459133,-0.0004029922129,642.0770264,642.0770264,706.2479858,706.2479858,-0.0003789070761,-1.221984874e-010,-5.468990261e-010,5.254843227e-010,-1.294131191e-010,1.41074985e-010,6.695944421e-008,0.9365848303,-8.734235557e-011,1.372720826e-009,-1.752457557e-008,-96.65717316,-13.94838238,8.182907152e-008,-7.089092334e-012,0.821
1.830758395e-007,9.79526817e-007,1.421332627e-006,-2.744727681e-006,-2.10092071e-006,-0.0003029812651,0.0003028367646,0.0004009029071,-0.0004012274148,642.0770264,642.0770264,706.2479858,706.2479858,-0.0003789070761,-1.213490974e-010,-5.536526793e-010,5.279299775e-010,-1.361281643e-010,1.455382342e-010,6.681106868e-008,0.9365848303,-1.138106623e-010,-5.717009532e-009,-1.271085015e-008,-96.65717316,-13.94838238,8.173849864e-008,-1.428987484e-011,0.831
1.838928658e-007,1.291342187e-006,1.873022711e-006,-2.987449761e-006,-2.293499392e-006,-0.0003035891859,0.0003028961364,0.0004030391865,-0.0004013024736,642.0770264,642.0770264,706.2479858,706.2479858,-0.0003789070761,-1.222708601e-010,-5.647985968e-010,5.260737401e-010,-1.424378532e-010,1.477141187e-010,6.667364261e-008,0.9365848303,-1.459324744e-010,-7.619911813e-009,1.472538269e-008,-96.65717316,-13.94838238,8.165449117e-008,-5.417275569e-012,0.841
1.847091637e-007,1.528403686e-006,2.108218723e-006,-3.025554633e-006,-2.419326847e-006,-0.0003014853282,0.0003028113861,0.0004031697754,-0.0004012909776,642.0770264,642.0770264,706.2479858,706.2479858,-0.0003789070761,-1.240153952e-010,-5.701742967e-010,5.287230653e-010,-1.462246574e-010,1.473810102e-010,6.655876916e-008,0.9365848303,-8.245355093e-011,-1.089563995e-008,1.543966732e-008,-96.65717316,-13.94838238,8.158416875e-008,-4.426869028e-012,0.851
1.855248108e-007,1.679648904e-006,2.15168393e-006,-2.949405143e-006,-2.605274403e-006,-0.0003023601894,0.0003017906856,0.0004005406809,-0.0004030283017,642.0770264,642.0770264,706.2479858,706.2479858,-0.0003789070761,-1.270271666e-010,-5.730667052e-010,5.30296862e-010,-1.535441219e-010,1.421214257e-010,6.645347383e-008,0.9365848303,-6.496955057e-011,-4.450531055e-009,-4.162813383e-008,-96.65717316,-13.94838238,8.151962305e-008,-2.680903936e-011,0.861
1.863398198e-007,1.742034101e-006,2.074386657e-006,-2.84105181e-006,-2.752996124e-006,-0.0003022990422,0.0003027451748,0.0004007286043,-0.0004028480907,642.0770264,642.0770264,706.2479858,706.2479858,-0.0003789070761,-1.305565794e-010,-5.749781207e-010,5.307927431e-010,-1.589940818e-010,1.368964248e-010,6.634915906e-008,0.9365848303,-1.467186095e-011,-1.533716265e-008,-6.395539742e-008,-96.65717316,-13.94838238,8.145559605e-008,-3.989450437e-011,0.871
1.871541434e-007,1.849036948e-006,1.874895929e-006,-2.703278142e-006,-2.893508054e-006,-0.0003025969199,0.0003034702968,0.0004016803869,-0.0004029098491,642.0770264,642.0770264,706.2479858,706.2479858,-0.0003789070761,-1.317872061e-010,-5.656671243e-010,5.383659074e-010,-1.586732828e-010,1.386866733e-010,6.623700699e-008,0.9365848303,6.392202739e-011,-6.892160176e-009,-7.633850219e-010,-96.65717316,-13.94838238,8.138668051e-008,-3.838538862e-011,0.881
1.879677715e-007,1.948299541e-006,1.750614388e-006,-2.448949999e-006,-2.789014843e-006,-0.00030285705,0.0003022609453,0.0003995779552,-0.0004029973643,642.0770264,642.0770264,706.2479858,706.2479858,-0.0003789070761,-1.304167607e-010,-5.575354067e-010,5.459288022e-010,-1.536157035e-010,1.412249623e-010,6.613514358e-008,0.9365848303,6.013594483e-011,-1.068586819e-008,-7.842545102e-008,-96.65717316,-13.94838238,8.132398932e-008,-5.307539477e-011,0.891
1.887808085e-007,1.958633902e-006,1.655155529e-006,-2.225787739e-006,-2.587117024e-006,-0.0003018349817,0.0003033149696,0.0004025125527,-0.0004028193071,642.0770264,642.0770264,706.2479858,706.2479858,-0.0003789070761,-1.289943707e-010,-5.592442065e-010,5.432216899e-010,-1.549516904e-010,1.360613844e-010,6.60542625e-008,0.9365848303,9.717907035e-011,-4.282134647e-009,1.289146656e-008,-96.65717316,-13.94838238,8.127411633e-008,-9.937922013e-011,0.901
1.895933761e-007,2.006713885e-006,1.481900995e-006,-2.065295348e-006,-2.474349003e-006,-0.000302904431,0.0003032521345,0.0004015916784,-0.0004026824608,642.0770264,642.0770264,706.2479858,706.2479858,-0.0003789070761,-1.266889094e-010,-5.560545357e-010,5.451853413e-010,-1.561009794e-010,1.320936277e-010,6.598876467e-008,0.9365848303,1.129054628e-010,5.196194586e-010,1.508661973e-009,-96.65717316,-13.94838238,8.123368644e-008,-1.210446465e-010,0.911
1.904055429e-007,1.944797305e-006,1.270366852e-006,-1.81919836e-006,-2.303270776e-006,-0.0003029373474,0.0003033156972,0.0004016874882,-0.0004024252703,642.0770264,642.0770264,706.2479858,706.2479858,-0.0003789070761,-1.249848003e-010,-5.55025359e-010,5.431981531e-010,-1.588792292e-010,1.246357184e-010,6.593220547e-008,0.9365848303,1.406726818e-010,-1.810811834e-009,1.440339847e-008,-96.65717316,-13.94838238,8.119874195e-008,-1.323419846e-010,0.921
1.912173616e-007,1.736901481e-006,1.151647893e-006,-1.669483822e-006,-2.127849712e-006,-0.0003008731001,0.0003025729093,0.0004026874376,-0.0004003031645,642.0770264,642.0770264,706.2479858,706.2479858,-0.0003789070761,-1.246410058e-010,-5.589798069e-010,5.361774913e-010,-1.60022412e-010,1.187373394e-010,6.58794832e-008,0.9365848303,8.879053048e-011,-4.400758424e-009,1.576648323e-008,-96.65717316,-13.94838238,8.116616357e-008,-1.327462307e-010,0.931
1.920288297e-007,1.499746872e-006,1.033367539e-006,-1.575520855e-006,-1.952305638e-006,-0.0003028753272,0.0003036261478,0.0004015690938,-0.0004022581852,642.0770264,642.0770264,706.2479858,706.2479858,-0.0003789070761,-1.241178271e-010,-5.569645856e-010,5.334940267e-010,-1.554462947e-010,1.197904692e-010,6.582162371e-008,0.9365848303,1.02774636e-010,-4.000531462e-009,-8.290014897e-009,-96.65717316,-13.94838238,8.113045169e-008,-1.10454916e-010,0.941
1.928399409e-007,1.30680246e-006,9.069177054e-007,-1.423880576e-006,-1.79999131e-006,-0.0003029580403,0.000303654233,0.0004014519509,-0.0004022131616,642.0770264,642.0770264,706.2479858,706.2479858,-0.0003789070761,-1.237048797e-010,-5.543788761e-010,5.326159513e-010,-1.520488457e-010,1.184844167e-010,6.576353684e-008,0.9365848303,6.655394291e-011,-4.510429363e-009,-4.112829544e-008,-96.65717316,-13.94838238,8.109456928e-008,-9.935754997e-011,0.951
1.936506852e-007,1.173812279e-006,7.814415994e-007,-1.333096066e-006,-1.732773285e-006,-0.0003030044027,0.0003017848067,0.0004005005758,-0.0004021109198,642.0770264,642.0770264,706.2479858,706.2479858,-0.0003789070761,-1.238523867e-010,-5.529292579e-010,5.30481159e-010,-1.523819265e-010,1.155201906e-010,6.570095934e-008,0.9365848303,9.183207667e-011,-1.031956387e-008,-2.678160449e-008,-96.65717316,-13.94838238,8.105590155e-008,-1.028383628e-010,0.961
1.944610392e-007,1.065367996e-006,7.113687843e-007,-1.217653448e-006,-1.609889978e-006,-0.0003030305379,0.0003028259089,0.0004004505172,-0.0004020653141,642.0770264,642.0770264,706.2479858,706.2479858,-0.0003789070761,-1.241823727e-010,-5.521126334e-010,5.282689841e-010,-1.509300879e-010,1.141979705e-010,6.563658417e-008,0.9365848303,6.830531279e-011,-8.977795396e-009,-3.950747995e-008,-96.65717316,-13.94838238,8.101615379e-008,-8.412100183e-011,0.971
1.952710254e-007,1.048148874e-006,6.035438673e-007,-1.041321866e-006,-1.527275799e-006,-0.0003031282977,0.0003037666029,0.0004014011647,-0.0004000512126,642.0770264,642.0770264,706.2479858,706.2479858,-0.0003789070761,-1.243198045e-010,-5.49056578e-010,5.291036498e-010,-1.505764263e-010,1.114311213e-010,6.557905863e-008,0.9365848303,8.498887705e-011,-4.901091089e-009,2.052004433e-008,-96.65717316,-13.94838238,8.098059823e-008,-9.143379109e-011,0.981
1.960806816e-007,9.217480397e-007,6.847935197e-007,-1.077693582e-006,-1.39134886e-006,-0.0003011297667,0.0003038565337,0.0004012298887,-0.0004001682973,642.0770264,642.0770264,706.2479858,706.2479858,-0.0003789070761,-1.242759506e-010,-5.509567802e-010,5.262928982e-010,-1.456098297e-010,1.148265025e-010,6.552714638e-008,0.9365848303,6.20108756e-011,-1.078870504e-008,1.512398384e-008,-96.65717316,-13.94838238,8.094853854e-008,-7.789064532e-011,0.991
1.968900202e-007,8.759658385e-007,6.55707197e-007,-1.084025826e-006,-1.343665417e-006,-0.0003050841042,0.0003028554493,0.0004011435667,-0.0004021538771,642.0770264,642.0770264,706.2479858,706.2479858,-0.0003789070761,-1.237195207e-010,-5.481274878e-010,5.273457782e-010,-1.431066654e-010,1.167656388e-010,6.547482911e-008,0.9365848303,5.107610862e-011,2.990110826e-009,3.183509278e-008,-96.65717316,-13.94838238,8.091620884e-008,-8.188112688e-011,1.001
1.976990338e-007,9.282393876e-007,5.46288959e-007,-9.796356153e-007,-1.409013521e-006,-0.0003030823427,0.0003020059667,0.0004014570732,-0.0004018208419,642.0770264,642.0770264,706.2479858,706.2479858,-0.0003789070761,-1.249876036e-010,-5.50492818e-010,5.235675782e-010,-1.521973242e-010,1.071087247e-010,6.542182263e-008,0.9365848303,7.848893757e-011,3.929579329e-009,-4.161041289e-009,-96.65717316,-13.94838238,8.088343151e-008,-1.122337015e-010,1.011
1.9850771e-007,8.095394719e-007,6.472686209e-007,-1.05504796e-006,-1.318482759e-006,-0.0003019991273,0.0003021617304,0.0003994371218,-0.0003999917826,642.0770264,642.0770264,706.2479858,706.2479858,-0.0003789070761,-1.261875743e-010,-5.541133108e-010,5.186986951e-010,-1.49532442e-010,1.097077984e-010,6.536807007e-008,0.9365848303,4.164346298e-011,-1.241020176e-008,-1.243804171e-009,-96.65717316,-13.94838238,8.085023495e-008,-1.008758355e-010,1.021
1.993160428e-007,8.87947408e-007,6.830304642e-007,-1.133473688e-006,-1.443591486e-006,-0.0003020305303,0.00030404891,0.0003994926519,-0.0004000139015,642.0770264,642.0770264,706.2479858,706.2479858,-0.0003789070761,-1.269244571e-010,-5.53131374e-010,5.202795417e-010,-1.511421266e-010,1.10348862e-010,6.531192298e-008,0.9365848303,5.601172304e-011,-5.078861776e-009,-4.257944397e-008,-96.65717316,-13.94838238,8.081554626e-008,-1.047007966e-010,1.031
2.001240104e-007,9.986921441e-007,6.379598858e-007,-1.122495178e-006,-1.543150915e-006,-0.0003050829109,0.0003028997744,0.0004014114384,-0.0004019793996,642.0770264,642.0770264,706.2479858,706.2479858,-0.0003789070761,-1.265469673e-010,-5.481649579e-010,5.259598868e-010,-1.50873869e-010,1.117065537e-010,6.525241503e-008,0.9365848303,5.814297654e-011,5.711465079e-009,-1.864127519e-008,-96.65717316,-13.94838238,8.077876146e-008,-1.004541589e-010,1.041
2.009315954e-007,8.614621834e-007,8.044582387e-007,-1.319483658e-006,-1.48630204e-006,-0.0003020081203,0.0003020987788,0.0004012963618,-0.0004002203932,642.0770264,642.0770264,706.2479858,706.2479858,-0.0003789070761,-1.261497157e-010,-5.538317582e-010,5.206659548e-010,-1.475372047e-010,1.163369401e-010,6.518951068e-008,0.9365848303,-7.098861429e-012,-7.026857762e-009,4.35810108e-008,-96.65717316,-13.94838238,8.073983793e-008,-1.104771621e-010,1.051
2.017387576e-007,8.761090271e-007,8.494034205e-007,-1.455642632e-006,-1.511271307e-006,-0.0003029578074,0.0003040451556,0.0004032263241,-0.0004012361751,642.0770264,642.0770264,706.2479858,706.2479858,-0.0003789070761,-1.253354781e-010,-5.543863146e-010,5.203967257e-010,-1.478638184e-010,1.179399495e-010,6.511859851e-008,0.9365848303,1.007819002e-011,3.257078829e-009,7.302455174e-008,-96.65717316,-13.94838238,8.069593349e-008,-1.259205101e-010,1.061
2.025454683e-007,9.599749546e-007,8.810284271e-007,-1.550580009e-006,-1.59936485e-006,-0.0003029154614,0.0003001326113,0.0004014090518,-0.0004002299975,642.0770264,642.0770264,706.2479858,706.2479858,-0.0003789070761,-1.248529891e-010,-5.557093119e-010,5.21184873e-010,-1.508048547e-010,1.16615162e-010,6.504449601e-008,0.9365848303,-9.175186652e-012,-1.38537839e-008,2.643796471e-008,-96.65717316,-13.94838238,8.065005375e-008,-1.189673915e-010,1.071
2.033516932e-007,1.019416004e-006,9.119995639e-007,-1.654362222e-006,-1.67741166e-006,-0.0003029286745,0.0003039737057,0.0004023957881,-0.0004021992499,642.0770264,642.0770264,706.2479858,706.2479858,-0.0003789070761,-1.243503217e-010,-5.552970306e-010,5.226298838e-010,-1.51565982e-010,1.180810449e-010,6.496345861e-008,0.9365848303,4.3518876e-011,1.084193957e-009,1.408441808e-008,-96.65717316,-13.94838238,8.05998539e-008,-1.023300195e-010,1.081
2.041574099e-007,1.108416654e-006,9.237983249e-007,-1.693524382e-006,-1.783327662e-006,-0.0003029589134,0.0003038754803,0.0004033948353,-0.0004012454883,642.0770264,642.0770264,706.2479858,706.2479858,-0.0003789070761,-1.238117386e-010,-5.543510095e-010,5.256999835e-010,-1.527506177e-010,1.182101084e-010,6.487981352e-008,0.9365848303,2.613633962e-011,4.116548435e-009,2.759097839e-008,-96.65717316,-13.94838238,8.054798428e-008,-9.105487891e-011,1.091
2.049625939e-007,1.095765242e-006,9.699921293e-007,-1.74401714e-006,-1.825000709e-006,-0.0003019653959,0.0003019443539,0.0004014508449,-0.0004032276338,642.0770264,642.0770264,706.2479858,706.2479858,-0.0003789070761,-1.23652838e-010,-5.551679672e-010,5.254934821e-010,-1.520171905e-010,1.201836408e-010,6.479239545e-008,0.9365848303,3.631673087e-011,-6.765270566e-009,-1.949495143e-008,-96.65717316,-13.94838238,8.049373434e-008,-7.84150106e-011,1.101
2.057672347e-007,1.174174258e-006,9.262985827e-007,-1.645218276e-006,-1.911272875e-006,-0.0003028660431,0.0003019854485,0.0004016685998,-0.0004020449414,642.0770264,642.0770264,706.2479858,706.2479858,-0.0003789070761,-1.247811438e-010,-5.572540207e-010,5.242087875e-010,-1.583313342e-010,1.136069988e-010,6.470604319e-008,0.9365848303,2.660128021e-011,-8.592909495e-009,-3.366360701e-008,-96.65717316,-13.94838238,8.044006705e-008,-9.858724254e-011,1.111
2.065713435e-007,1.18588332e-006,9.951734228e-007,-1.680201876e-006,-1.951930699e-006,-0.0003028218925,0.0003019752912,0.000402589445,-0.000402105914,642.0770264,642.0770264,706.2479858,706.2479858,-0.0003789070761,-1.257920296e-010,-5.5863425e-010,5.245263668e-010,-1.571811431e-010,1.153748555e-010,6.462055069e-008,0.9365848303,3.32467491e-011,-4.915674534e-009,1.019075224e-008,-96.65717316,-13.94838238,8.038693267e-008,-7.79387388e-011,1.121
2.073749235e-007,1.187708676e-006,1.05388051e-006,-1.727912831e-006,-1.959877864e-006,-0.0003009644279,0.0003018342541,0.0004014417646,-0.0004003821232,642.0770264,642.0770264,706.2479858,706.2479858,-0.0003789070761,-1.255760912e-010,-5.561249239e-010,5.289352289e-010,-1.517537623e-010,1.210262168e-010,6.453579005e-008,0.9365848303,-2.45959313e-013,-1.727057075e-008,4.395368958e-009,-96.65717316,-13.94838238,8.033422461e-008,-4.160927158e-011,1.131
2.081779732e-007,1.191634738e-006,1.032351975e-006,-1.759182737e-006,-1.924818434e-006,-0.000303077366,0.0003016546834,0.0004031742574,-0.0004034403246,642.0770264,642.0770264,706.2479858,706.2479858,-0.0003789070761,-1.238800729e-010,-5.506483602e-010,5.345487386e-010,-1.463544147e-010,1.263511795e-010,6.444979306e-008,0.9365848303,3.087662764e-011,2.253904618e-009,2.083858419e-008,-96.65717316,-13.94838238,8.028068521e-008,-3.310596589e-011,1.141
2.089804977e-007,1.233082344e-006,9.709006008e-007,-1.696945219e-006,-1.919392162e-006,-0.0003011158551,0.0003016724077,0.0004014048318,-0.0004003839276,642.0770264,642.0770264,706.2479858,706.2479858,-0.0003789070761,-1.231626051e-010,-5.513918766e-010,5.339943487e-010,-1.506824804e-010,1.210787581e-010,6.436652455e-008,0.9365848303,5.923649765e-011,-7.488911713e-009,4.410787469e-008,-96.65717316,-13.94838238,8.022878717e-008,-5.530111091e-011,1.151
2.09782494e-007,1.198095788e-006,1.086859015e-006,-1.744442443e-006,-1.88022284e-006,-0.0003028160718,0.0003009789216,0.0004015795421,-0.0004002766509,642.0770264,642.0770264,706.2479858,706.2479858,-0.0003789070761,-1.24181998e-010,-5.588167706e-010,5.252479562e-010,-1.557492052e-010,1.179683851e-010,6.428330579e-008,0.9365848303,6.803500038e-012,-1.05840865e-008,6.011612896e-008,-96.65717316,-13.94838238,8.017687492e-008,-8.18094481e-011,1.161
2.10584023e-007,1.220857939e-006,1.125311996e-006,-1.624684387e-006,-1.760628834e-006,-0.0003017972922,0.0003039158473,0.0004015658051,-0.0004021373752,642.0770264,642.0770264,706.2479858,706.2479858,-0.0003789070761,-1.254838733e-010,-5.604224862e-010,5.244384371e-010,-1.553504686e-010,1.16287216e-010,6.421559107e-008,0.9365848303,5.447334597e-011,-3.854890185e-009,-5.689146043e-009,-96.65717316,-13.94838238,8.013464736e-008,-5.609354994e-011,1.171
2.113851766e-007,1.287094165e-006,1.022751803e-006,-1.488443786e-006,-1.798606945e-006,-0.0003010255168,0.0003017631825,0.0004015176964,-0.0004021248315,642.0770264,642.0770264,706.2479858,706.2479858,-0.0003789070761,-1.256997423e-010,-5.542150072e-010,5.311565632e-010,-1.539558342e-010,1.159233057e-010,6.415927345e-008,0.9365848303,9.828286102e-011,-5.727848862e-009,3.126570647e-008,-96.65717316,-13.94838238,8.009949681e-008,-4.800877751e-011,1.181
2.121859616e-007,1.237238394e-006,1.012982239e-006,-1.507822958e-006,-1.850066042e-006,-0.0003019629803,0.0003037700953,0.0004015594895,-0.0004021111235,642.0770264,642.0770264,706.2479858,706.2479858,-0.0003789070761,-1.263489036e-010,-5.552428517e-010,5.289947924e-010,-1.551674483e-010,1.15525603e-010,6.409756992e-008,0.9365848303,6.517239526e-011,-4.083432259e-009,-7.586973716e-009,-96.65717316,-13.94838238,8.006095698e-008,-5.745437112e-011,1.191
2.129863479e-007,1.142923338e-006,1.044196438e-006,-1.58772923e-006,-1.760445457e-006,-0.0003029878426,0.0003017825948,0.000401295023,-0.0004023565853,642.0770264,642.0770264,706.2479858,706.2479858,-0.0003789070761,-1.254020082e-010,-5.534468994e-010,5.305499373e-010,-1.474989159e-010,1.226435065e-010,6.403180208e-008,0.9365848303,-5.776774024e-012,-5.339273024e-009,-1.177900355e-008,-96.65717316,-13.94838238,8.001987339e-008,-3.722421676e-011,1.201
2.137863065e-007,1.170574933e-006,9.640643839e-007,-1.591115165e-006,-1.793725801e-006,-0.0003030329826,0.0003027307685,0.0004013861762,-0.0004022723006,642.0770264,642.0770264,706.2479858,706.2479858,-0.0003789070761,-1.246872328e-010,-5.520363611e-010,5.31242661e-010,-1.501420932e-010,1.201992672e-010,6.39612594e-008,0.9365848303,8.036547122e-011,-3.251694913e-009,1.408668115e-008,-96.65717316,-13.94838238,7.997577001e-008,-4.434352191e-011,1.211
2.145858135e-007,1.260332397e-006,8.396278304e-007,-1.516117322e-006,-1.857586994e-006,-0.0003032208479,0.0003044903569,0.0004014148435,-0.0004022364446,642.0770264,642.0770264,706.2479858,706.2479858,-0.0003789070761,-1.234208014e-010,-5.461637254e-010,5.36628908e-010,-1.509729147e-010,1.191596405e-010,6.38878106e-008,0.9365848303,9.186237881e-011,-2.014435285e-010,2.577548308e-008,-96.65717316,-13.94838238,7.992983342e-008,-2.78251866e-011,1.221
2.153848571e-007,1.183036829e-006,9.228813269e-007,-1.563707769e-006,-1.799808956e-006,-0.000303112698,0.0003026959021,0.0004013865546,-0.0004022838548,642.0770264,642.0770264,706.2479858,706.2479858,-0.0003789070761,-1.228424445e-010,-5.49544632e-010,5.323329555e-010,-1.501524044e-010,1.205347766e-010,6.381333151e-008,0.9365848303,2.327133625e-011,3.421886552e-009,-1.0092438e-008,-96.65717316,-13.94838238,7.988322182e-008,-3.617276964e-011,1.231
2.161834539e-007,1.152260438e-006,9.991997558e-007,-1.539748268e-006,-1.699223958e-006,-0.0003010317741,0.0003018757852,0.0004004708026,-0.0004022170906,642.0770264,642.0770264,706.2479858,706.2479858,-0.0003789070761,-1.234149033e-010,-5.54019608e-010,5.276364901e-010,-1.515185893e-010,1.185986032e-010,6.374582284e-008,0.9365848303,4.149832214e-011,-8.152175823e-009,-3.751650368e-008,-96.65717316,-13.94838238,7.984095163e-008,-3.256969e-011,1.241
2.169816608e-007,1.167297e-006,1.001190412e-006,-1.478770969e-006,-1.654731022e-006,-0.00030108582,0.0003018439747,0.0004014169972,-0.0004002949863,642.0770264,642.0770264,706.2479858,706.2479858,-0.0003789070761,-1.238782549e-010,-5.523305702e-010,5.286314719e-010,-1.510358782e-010,1.18500168e-010,6.368744465e-008,0.9365848303,3.373964302e-011,3.265464288e-010,3.597217813e-008,-96.65717316,-13.94838238,7.98043871e-008,-1.652588136e-011,1.251
2.177795224e-007,1.202149747e-006,1.002118665e-006,-1.430656653e-006,-1.685796633e-006,-0.0003030289663,0.0003037535644,0.0004014726146,-0.0004021487839,642.0770264,642.0770264,706.2479858,706.2479858,-0.0003789070761,-1.247722897e-010,-5.521617608e-010,5.295109351e-010,-1.526484494e-010,1.166177294e-010,6.363439553e-008,0.9365848303,3.918913458e-011,4.596705683e-009,-2.589059989e-008,-96.65717316,-13.94838238,7.97711408e-008,-2.227934677e-011,1.261
2.185770477e-007,1.184762141e-006,9.202878459e-007,-1.388468945e-006,-1.739011168e-006,-0.0003030582156,0.0003018090501,0.0004015311424,-0.0004020755878,642.0770264,642.0770264,706.2479858,706.2479858,-0.0003789070761,-1.257426524e-010,-5.512472701e-010,5.297225991e-010,-1.54345231e-010,1.14495774e-010,6.357894478e-008,0.9365848303,4.239801565e-011,-1.778647785e-009,-2.082939515e-010,-96.65717316,-13.94838238,7.973636684e-008,-3.321702288e-011,1.271
2.193741947e-007,1.148714546e-006,9.158346757e-007,-1.483345159e-006,-1.807810804e-006,-0.0003021233715,0.0003027596977,0.000401469646,-0.0004012220888,642.0770264,642.0770264,706.2479858,706.2479858,-0.0003789070761,-1.261183935e-010,-5.502293066e-010,5.303382178e-010,-1.525621018e-010,1.175308323e-010,6.351370274e-008,0.9365848303,3.530373216e-011,-1.213366518e-009,-1.890912316e-008,-96.65717316,-13.94838238,7.969545379e-008,-1.551239519e-011,1.281
2.201709002e-007,1.090202318e-006,9.522969435e-007,-1.530225973e-006,-1.755883318e-006,-0.0003022046003,0.0003017160343,0.0004003082577,-0.0004004575021,642.0770264,642.0770264,706.2479858,706.2479858,-0.0003789070761,-1.250869824e-010,-5.476899489e-010,5.326305508e-010,-1.46804735e-010,1.23212468e-010,6.344174608e-008,0.9365848303,1.504167103e-011,-1.538882088e-008,3.027693429e-009,-96.65717316,-13.94838238,7.96502917e-008,-9.831226978e-012,1.291
2.209671508e-007,1.056639121e-006,9.614111605e-007,-1.589560384e-006,-1.701119004e-006,-0.000303127279,0.0003027246566,0.0004012590216,-0.0004023746878,642.0770264,642.0770264,706.2479858,706.2479858,-0.0003789070761,-1.243208453e-010,-5.490883859e-010,5.314335083e-010,-1.464546262e-010,1.231682811e-010,6.336866676e-008,0.9365848303,5.107422818e-011,-4.908221385e-009,7.290684501e-009,-96.65717316,-13.94838238,7.960441195e-008,-9.814943996e-012,1.301
