Car.Distance,Car.FxFL,Car.FxFR,Car.FxRL,Car.FxRR,Car.FyFL,Car.FyFR,Car.FyRL,Car.FyRR,Car.FzFL,Car.FzFR,Car.FzRL,Car.FzRR,Car.Pitch,Car.Roll,Car.SlipAngleFL,Car.SlipAngleFR,Car.SlipAngleRL,Car.SlipAngleRR,Car.TrackRadius,Car.Yaw,Car.YawRate,Car.ax,Car.ay,Car.tx,Car.ty,Car.vx,Car.vy,Time
m,N,N,N,N,N,N,N,N,N,N,N,N,rad,rad,rad,rad,rad,rad,m,rad,rad/s,m/s^2,m/s^2,m,m,m/s,m/s,s
1.62E-10,0.007831318,0.00783141,0.009277102,0.009277039,-0.000325769,0.000324436,0.000326859,-0.000329264,642.0627441,642.0627441,706.2649536,706.2650146,-0.000379072,3.39E-10,-1.82E-09,1.81E-09,2.37E-09,-2.38E-09,2.63E-07,0.93658483,3.76E-11,0.000118026,1.69E-08,-96.65717316,-13.94838238,1.62E-07,1.43E-11,0.001
4.76E-09,0.000772799,0.000773085,-0.000927539,-0.000927591,0.001059237,-0.001049985,-0.00123054,0.001239317,642.0696411,642.0696411,706.2580566,706.2581177,-0.000379053,2.60E-10,-4.15E-08,4.12E-08,4.38E-08,-4.42E-08,1.71E-06,0.93658483,3.37E-11,2.13E-06,4.44E-08,-96.65717316,-13.94838238,4.14E-07,4.39E-10,0.011
1.05E-08,-0.000497071,-0.000496743,-9.27E-05,-9.29E-05,0.000905456,-0.00088715,-0.000840232,0.000855334,642.0776978,642.0776978,706.2503052,706.2503052,-0.000378997,1.23E-10,-3.38E-08,3.33E-08,3.01E-08,-3.06E-08,2.61E-06,0.93658483,-8.15E-11,9.29E-07,9.07E-08,-96.65717316,-13.94838238,5.11E-07,1.44E-09,0.021
1.73E-08,-0.000121073,-0.000121141,-0.000409181,-0.000409652,-0.000325583,0.000333571,0.000471933,-0.000461121,642.0826416,642.0826416,706.2446289,706.2446289,-0.000378922,-1.39E-11,3.95E-09,-4.30E-09,-7.38E-09,7.07E-09,1.60E-06,0.93658483,-2.87E-10,-4.69E-07,1.07E-07,-96.65717316,-13.94838238,4.19E-07,2.50E-09,0.031
2.55E-08,0.001708338,0.001710595,-0.000668763,-0.000668981,-0.00116764,0.001169057,0.001672403,-0.001669498,642.0844727,642.0844727,706.2420654,706.2420654,-0.000378853,-1.19E-10,2.79E-08,-2.80E-08,-3.94E-08,3.94E-08,1.05E-06,0.93658483,-2.40E-10,1.06E-05,6.15E-08,-96.65717316,-13.94838238,3.24E-07,2.97E-09,0.041
3.54E-08,0.001787587,0.001791026,-0.00093252,-0.000937261,-0.001416627,0.001409946,0.002143851,-0.002149218,642.0836792,642.0836792,706.2420044,706.2420044,-0.000378809,-1.76E-10,3.30E-08,-3.28E-08,-4.95E-08,4.97E-08,6.38E-07,0.93658483,1.30E-10,3.42E-06,3.01E-07,-96.65717316,-13.94838238,4.22E-07,2.76E-09,0.051
4.58E-08,-0.000623209,-0.000624478,-0.002556054,-0.002548577,-0.001221741,0.001204802,0.001863207,-0.001874518,642.081665,642.081665,706.2428589,706.2428589,-0.000378793,-1.31E-10,2.50E-08,-2.45E-08,-3.88E-08,3.91E-08,1.06E-06,0.93658483,4.41E-10,-2.65E-05,-1.34E-07,-96.65717316,-13.94838238,3.26E-07,1.58E-09,0.061
5.48E-08,-0.001566324,-0.001568277,-0.002687538,-0.002675767,-0.000830035,0.000810218,0.001260978,-0.001273304,642.0792847,642.0792847,706.2438354,706.2438354,-0.000378801,-3.91E-11,1.20E-08,-1.14E-08,-2.01E-08,2.05E-08,1.56E-08,0.93658483,2.70E-10,-3.37E-05,-9.23E-08,-96.65717316,-13.94838238,3.98E-08,3.70E-10,0.071
6.23E-08,-0.001421596,-0.001424195,-0.001943193,-0.00193453,-0.000403309,0.000388316,0.000720632,-0.00073094,642.0770874,642.0770874,706.244873,706.244873,-0.000378822,5.64E-11,-1.05E-09,1.49E-09,-4.28E-09,4.62E-09,5.97E-07,0.93658483,-7.39E-11,-2.64E-05,-9.20E-08,-96.65717316,-13.94838238,-2.44E-07,-7.33E-10,0.081
6.89E-08,-0.000750573,-0.000754429,-0.001188055,-0.001182553,1.33E-05,-2.17E-05,0.000403151,-0.000412395,642.0755615,642.0756226,706.2460938,706.2460938,-0.000378851,1.42E-10,-1.30E-08,1.32E-08,4.48E-09,-4.25E-09,1.92E-06,0.93658483,-1.02E-10,-1.53E-05,-9.39E-08,-96.65717316,-13.94838238,-4.38E-07,-1.47E-09,0.091
7.49E-08,-6.89E-05,-7.34E-05,-0.00046244,-0.000457518,0.000296432,-0.000296715,0.000237008,-0.000238605,642.0748291,642.0748291,706.2473145,706.2473145,-0.00037888,2.11E-10,-2.02E-08,2.03E-08,8.71E-09,-8.64E-09,2.77E-06,0.93658483,-2.44E-11,-4.50E-06,4.71E-10,-96.65717316,-13.94838238,-5.26E-07,-1.84E-09,0.101
8.04E-08,0.000385153,0.000381542,0.000256217,0.000261297,0.000381636,-0.000380157,0.000127101,-0.000124874,642.074585,642.074585,706.248291,706.248291,-0.000378906,2.59E-10,-2.14E-08,2.13E-08,1.11E-08,-1.11E-08,2.70E-06,0.93658483,-3.52E-11,4.52E-06,1.40E-08,-96.65717316,-13.94838238,-5.20E-07,-1.81E-09,0.111
8.53E-08,0.000612308,0.000610323,0.000844164,0.000848697,0.000318445,-0.000314943,6.61E-05,-5.92E-05,642.074646,642.074646,706.2489624,706.2489624,-0.000378926,2.84E-10,-1.81E-08,1.80E-08,1.20E-08,-1.21E-08,1.93E-06,0.93658483,-3.08E-11,1.08E-05,5.15E-08,-96.65717316,-13.94838238,-4.39E-07,-1.52E-09,0.121
8.97E-08,0.000684969,0.000683852,0.001213896,0.001217395,0.000178758,-0.000176786,5.69E-05,-4.99E-05,642.0748291,642.0748291,706.2493286,706.2493286,-0.000378939,2.94E-10,-1.29E-08,1.27E-08,1.15E-08,-1.16E-08,9.77E-07,0.93658483,1.29E-11,1.43E-05,4.00E-08,-96.65717316,-13.94838238,-3.13E-07,-1.10E-09,0.131
9.37E-08,0.000659283,0.000661815,0.001357625,0.001351019,2.30E-05,-1.60E-05,9.40E-05,-8.71E-05,642.0751343,642.0751953,706.2493286,706.2493286,-0.000378945,2.59E-10,-7.50E-09,7.24E-09,9.67E-09,-9.88E-09,2.74E-07,0.93658483,-2.63E-10,1.53E-05,1.17E-07,-96.65717316,-13.94838238,-1.66E-07,-3.88E-10,0.141
9.76E-08,0.000566303,0.000570177,0.001302078,0.001291745,-0.000130475,0.000137918,0.00016335,-0.000158277,642.0756226,642.0756226,706.2490845,706.2490845,-0.000378945,1.86E-10,-2.75E-09,2.38E-09,7.14E-09,-7.34E-09,4.06E-09,0.93658483,-4.29E-10,1.44E-05,-2.95E-08,-96.65717316,-13.94838238,-2.03E-08,2.09E-10,0.151
1.02E-07,0.00043453,0.000438209,0.001089533,0.001081798,-0.000243549,0.000253875,0.000244894,-0.000241091,642.0761719,642.0761719,706.2487793,706.2487793,-0.000378941,1.11E-10,6.54E-10,-9.77E-10,4.44E-09,-4.61E-09,1.14E-07,0.93658483,-2.39E-10,1.17E-05,3.86E-08,-96.65717316,-13.94838238,1.07E-07,7.63E-10,0.161
1.06E-07,0.000256175,0.000259492,0.000791215,0.000784893,-0.000332555,0.00033612,0.000324667,-0.000320332,642.0767212,642.0767212,706.2484131,706.2484131,-0.000378933,4.04E-11,3.01E-09,-3.21E-09,2.02E-09,-2.14E-09,4.10E-07,0.93658483,-7.65E-11,8.10E-06,6.90E-08,-96.65717316,-13.94838238,2.02E-07,1.21E-09,0.171
1.11E-07,4.34E-05,4.69E-05,0.000476636,0.000471035,-0.000401875,0.000404618,0.000384495,-0.000383705,642.0772705,642.0772705,706.2481079,706.2481079,-0.000378925,-2.04E-11,4.78E-09,-4.87E-09,1.71E-10,-2.22E-10,6.76E-07,0.93658483,-6.05E-11,4.00E-06,2.59E-08,-96.65717316,-13.94838238,2.60E-07,1.43E-09,0.181
1.16E-07,-0.000155165,-0.000151919,0.000184877,0.000179011,-0.000451254,0.000453458,0.000429907,-0.000432021,642.0776367,642.0776367,706.2478638,706.2478638,-0.000378917,-6.79E-11,5.91E-09,-5.90E-09,-1.15E-09,1.18E-09,7.80E-07,0.93658483,6.36E-12,2.70E-07,-2.71E-08,-96.65717316,-13.94838238,2.79E-07,1.46E-09,0.191
1.20E-07,-0.000304314,-0.00030153,-3.31E-05,-3.79E-05,-0.000483861,0.000481707,0.000456367,-0.000459763,642.0778198,642.0778198,706.2478027,706.2478027,-0.00037891,-9.86E-11,6.25E-09,-6.19E-09,-1.74E-09,1.84E-09,7.09E-07,0.93658483,-1.03E-10,-2.51E-06,-1.91E-08,-96.65717316,-13.94838238,2.66E-07,1.29E-09,0.201
1.24E-07,-0.000391064,-0.000388589,-0.000152581,-0.000155533,-0.00048532,0.000484094,0.000452008,-0.000455954,642.0778809,642.0778809,706.2478027,706.2478027,-0.000378905,-1.18E-10,5.83E-09,-5.76E-09,-1.56E-09,1.68E-09,5.39E-07,0.93658483,-1.48E-10,-4.09E-06,-5.04E-08,-96.65717316,-13.94838238,2.32E-07,9.78E-10,0.211
1.27E-07,-0.000414786,-0.000413012,-0.000189002,-0.000190203,-0.000471138,0.000467026,0.000430744,-0.000434597,642.0778198,642.0778198,706.2478027,706.2478027,-0.000378903,-1.28E-10,4.89E-09,-4.82E-09,-8.90E-10,1.00E-09,3.57E-07,0.93658483,-1.02E-10,-4.58E-06,-4.77E-09,-96.65717316,-13.94838238,1.89E-07,7.01E-10,0.221
1.29E-07,-0.000384337,-0.000383518,-0.000174954,-0.000175524,-0.000437751,0.000434591,0.000401926,-0.000406525,642.0776978,642.0776978,706.2479248,706.2479248,-0.000378902,-1.31E-10,3.60E-09,-3.53E-09,-1.10E-10,1.88E-10,2.11E-07,0.93658483,3.35E-11,-4.29E-06,-2.20E-08,-96.65717316,-13.94838238,1.45E-07,4.53E-10,0.231
1.31E-07,-0.000313659,-0.000313233,-0.000140043,-0.000140273,-0.000401699,0.000398264,0.000380891,-0.000384566,642.0775146,642.0775146,706.2480469,706.2480469,-0.000378902,-1.32E-10,2.23E-09,-2.19E-09,4.44E-10,-3.93E-10,1.16E-07,0.93658483,-3.86E-11,-3.47E-06,-5.44E-08,-96.65717316,-13.94838238,1.08E-07,2.72E-10,0.241
1.32E-07,-0.000222379,-0.000221959,-9.02E-05,-9.01E-05,-0.000366014,0.000362361,0.000368079,-0.000370664,642.0773315,642.0773315,706.2481079,706.2481079,-0.000378903,-1.31E-10,1.00E-09,-9.76E-10,7.88E-10,-7.41E-10,6.27E-08,0.93658483,-6.63E-11,-2.39E-06,-4.49E-08,-96.65717316,-13.94838238,7.92E-08,1.76E-10,0.251
1.33E-07,-0.000129159,-0.000128919,-3.46E-05,-3.44E-05,-0.000335603,0.000334413,0.000360491,-0.000361381,642.0772095,642.0772095,706.24823,706.24823,-0.000378905,-1.30E-10,2.29E-11,-1.47E-11,9.52E-10,-9.26E-10,3.82E-08,0.93658483,-2.10E-11,-1.24E-06,-2.14E-08,-96.65717316,-13.94838238,6.18E-08,6.51E-11,0.261
1.34E-07,-4.56E-05,-4.56E-05,1.08E-05,1.09E-05,-0.000310971,0.000310788,0.000358556,-0.000360014,642.0770874,642.0770874,706.24823,706.24823,-0.000378906,-1.29E-10,-7.18E-10,7.24E-10,9.52E-10,-9.37E-10,3.02E-08,0.93658483,2.14E-11,-2.43E-07,-1.46E-08,-96.65717316,-13.94838238,5.49E-08,3.13E-11,0.271
1.34E-07,1.90E-05,1.89E-05,3.55E-05,3.55E-05,-0.000290957,0.000292105,0.000361267,-0.000363104,642.0770874,642.0770264,706.24823,706.24823,-0.000378907,-1.29E-10,-1.26E-09,1.25E-09,7.88E-10,-7.91E-10,3.15E-08,0.93658483,5.63E-11,4.15E-07,-2.62E-08,-96.65717316,-13.94838238,5.62E-08,-1.68E-11,0.281
1.35E-07,5.73E-05,5.72E-05,4.06E-05,4.07E-05,-0.000281092,0.000281195,0.000371011,-0.000373042,642.0770264,642.0770264,706.24823,706.24823,-0.000378908,-1.28E-10,-1.48E-09,1.47E-09,5.05E-10,-5.03E-10,3.86E-08,0.93658483,3.06E-13,7.46E-07,-4.25E-08,-96.65717316,-13.94838238,6.22E-08,-1.45E-12,0.291
1.36E-07,7.37E-05,7.37E-05,3.07E-05,3.07E-05,-0.000279055,0.000280214,0.000381388,-0.000382475,642.0770264,642.0770264,706.2481689,706.2481689,-0.000378909,-1.27E-10,-1.45E-09,1.44E-09,1.47E-10,-1.44E-10,4.88E-08,0.93658483,1.30E-11,7.95E-07,-5.23E-09,-96.65717316,-13.94838238,6.99E-08,-2.36E-11,0.301
1.37E-07,7.78E-05,7.78E-05,9.14E-06,9.24E-06,-0.000284313,0.000282815,0.000397247,-0.000396218,642.0770264,642.0770264,706.2481079,706.2481079,-0.000378909,-1.27E-10,-1.32E-09,1.30E-09,-2.55E-10,2.54E-10,5.93E-08,0.93658483,-4.86E-11,6.66E-07,4.88E-08,-96.65717316,-13.94838238,7.70E-08,-4.83E-11,0.311
1.38E-07,7.77E-05,7.77E-05,-1.82E-05,-1.82E-05,-0.00028691,0.000285633,0.000411732,-0.000413275,642.0770264,642.0769653,706.2480469,706.2480469,-0.000378908,-1.27E-10,-1.18E-09,1.16E-09,-6.75E-10,6.63E-10,6.79E-08,0.93658483,8.13E-12,4.66E-07,-2.73E-08,-96.65717316,-13.94838238,8.24E-08,-7.01E-11,0.321
1.40E-07,7.48E-05,7.47E-05,-3.94E-05,-3.95E-05,-0.000288405,0.000288893,0.000425162,-0.000425413,642.0769653,642.0769653,706.2479858,706.2479858,-0.000378908,-1.28E-10,-1.07E-09,1.05E-09,-9.80E-10,9.59E-10,7.37E-08,0.93658483,2.79E-11,2.88E-07,-5.07E-08,-96.65717316,-13.94838238,8.59E-08,-7.43E-11,0.331
1.41E-07,6.84E-05,6.85E-05,-5.16E-05,-5.15E-05,-0.000289581,0.000287201,0.000433621,-0.000432606,642.0769653,642.0769653,706.2479248,706.2479248,-0.000378908,-1.27E-10,-1.00E-09,9.86E-10,-1.11E-09,1.11E-09,7.69E-08,0.93658483,-1.16E-10,1.41E-07,1.33E-08,-96.65717316,-13.94838238,8.78E-08,-5.28E-11,0.341
1.42E-07,5.86E-05,5.89E-05,-5.67E-05,-5.63E-05,-0.000288963,0.000288839,0.000434888,-0.000435102,642.0769653,642.0769653,706.2478638,706.2478638,-0.000378907,-1.26E-10,-9.62E-10,9.35E-10,-1.12E-09,1.13E-09,7.81E-08,0.93658483,-5.46E-11,3.01E-08,3.51E-08,-96.65717316,-13.94838238,8.84E-08,-7.30E-11,0.351
1.43E-07,4.68E-05,4.68E-05,-5.66E-05,-5.64E-05,-0.00029032,0.000289945,0.000436326,-0.000435932,642.0769653,642.0769653,706.2478638,706.2478638,-0.000378907,-1.25E-10,-9.19E-10,9.01E-10,-1.05E-09,1.04E-09,7.76E-08,0.93658483,3.75E-11,-6.55E-08,1.60E-08,-96.65717316,-13.94838238,8.81E-08,-8.50E-11,0.361
1.44E-07,3.40E-05,3.39E-05,-5.27E-05,-5.27E-05,-0.000291503,0.000291105,0.000431651,-0.000431127,642.0769653,642.0769653,706.2478638,706.2478638,-0.000378906,-1.25E-10,-8.82E-10,8.64E-10,-9.17E-10,9.02E-10,7.57E-08,0.93658483,-1.06E-12,-1.39E-07,6.39E-11,-96.65717316,-13.94838238,8.70E-08,-8.14E-11,0.371
1.45E-07,2.17E-05,2.18E-05,-4.59E-05,-4.57E-05,-0.000291808,0.000290355,0.000427437,-0.000429342,642.0769653,642.0769653,706.2478638,706.2478638,-0.000378906,-1.23E-10,-8.42E-10,8.27E-10,-7.39E-10,7.40E-10,7.29E-08,0.93658483,-2.74E-11,-1.80E-07,-3.39E-08,-96.65717316,-13.94838238,8.54E-08,-4.22E-11,0.381
1.46E-07,1.11E-05,1.10E-05,-3.58E-05,-3.57E-05,-0.000291236,0.000289725,0.000421029,-0.000423615,642.0769653,642.0769653,706.2478638,706.2478638,-0.000378906,-1.23E-10,-7.99E-10,7.85E-10,-5.54E-10,5.46E-10,6.98E-08,0.93658483,3.08E-11,-2.01E-07,-4.95E-08,-96.65717316,-13.94838238,8.35E-08,-5.34E-11,0.391
1.47E-07,2.29E-06,2.17E-06,-2.35E-05,-2.36E-05,-0.000291703,0.000293395,0.000416525,-0.000414785,642.0769653,642.0769653,706.2478638,706.2478638,-0.000378906,-1.24E-10,-7.54E-10,7.32E-10,-3.68E-10,3.45E-10,6.69E-08,0.93658483,1.88E-11,-1.66E-07,1.37E-08,-96.65717316,-13.94838238,8.18E-08,-7.52E-11,0.401
1.48E-07,-4.58E-06,-4.43E-06,-1.06E-05,-1.05E-05,-0.000295393,0.000294282,0.000411028,-0.000408857,642.0769653,642.0769653,706.2478638,706.2478638,-0.000378907,-1.25E-10,-7.00E-10,6.73E-10,-1.81E-10,1.73E-10,6.46E-08,0.93658483,-6.79E-11,-1.32E-07,6.08E-08,-96.65717316,-13.94838238,8.04E-08,-4.87E-11,0.411
1.49E-07,-8.78E-06,-8.65E-06,7.18E-07,8.23E-07,-0.000296669,0.000296251,0.000406343,-0.000405347,642.0769653,642.0769653,706.2479248,706.2479248,-0.000378907,-1.24E-10,-6.29E-10,6.12E-10,-4.56E-11,4.40E-11,6.32E-08,0.93658483,-3.06E-11,-6.96E-08,3.62E-08,-96.65717316,-13.94838238,7.95E-08,-2.42E-11,0.421
1.49E-07,-1.09E-05,-1.09E-05,1.16E-05,1.17E-05,-0.000298929,0.000299291,0.000400778,-0.000399892,642.0769653,642.0769653,706.2479248,706.2479248,-0.000378907,-1.23E-10,-5.59E-10,5.48E-10,6.11E-11,-5.93E-11,6.28E-08,0.93658483,4.80E-13,1.76E-09,4.13E-09,-96.65717316,-13.94838238,7.92E-08,-2.21E-11,0.431
1.50E-07,-1.19E-05,-1.19E-05,2.12E-05,2.13E-05,-0.000300882,0.000299213,0.000396884,-0.0003979,642.0769653,642.0769653,706.2479858,706.2479858,-0.000378907,-1.22E-10,-4.98E-10,4.89E-10,1.47E-10,-1.45E-10,6.34E-08,0.93658483,-2.12E-11,7.02E-08,-2.30E-08,-96.65717316,-13.94838238,7.96E-08,-1.04E-11,0.441
1.51E-07,-1.28E-05,-1.26E-05,2.84E-05,2.86E-05,-0.000302651,0.00030322,0.000394837,-0.00039396,642.0770264,642.0770264,706.2479858,706.2479858,-0.000378907,-1.22E-10,-4.42E-10,4.25E-10,2.06E-10,-2.04E-10,6.50E-08,0.93658483,-1.64E-11,1.14E-07,3.71E-08,-96.65717316,-13.94838238,8.06E-08,-1.20E-11,0.451
1.52E-07,-1.37E-05,-1.36E-05,3.23E-05,3.23E-05,-0.000304397,0.000307922,0.000392103,-0.00039368,642.0770264,642.0770264,706.2479858,706.2479858,-0.000378907,-1.23E-10,-3.88E-10,3.69E-10,2.30E-10,-2.39E-10,6.71E-08,0.93658483,9.04E-11,1.51E-07,-7.53E-09,-96.65717316,-13.94838238,8.19E-08,-3.39E-11,0.461
1.53E-07,-1.46E-05,-1.47E-05,3.27E-05,3.25E-05,-0.000307836,0.000306475,0.000390348,-0.000391631,642.0770264,642.0770264,706.2479858,706.2480469,-0.000378908,-1.25E-10,-3.41E-10,3.23E-10,2.26E-10,-2.44E-10,6.94E-08,0.93658483,1.59E-11,1.40E-07,-2.64E-08,-96.65717316,-13.94838238,8.33E-08,-2.67E-11,0.471
1.54E-07,-1.53E-05,-1.53E-05,3.00E-05,2.99E-05,-0.00030789,0.000309469,0.000391159,-0.000390676,642.0770264,642.0770264,706.2480469,706.2480469,-0.000378908,-1.26E-10,-3.09E-10,2.90E-10,2.02E-10,-2.16E-10,7.15E-08,0.93658483,3.05E-11,1.10E-07,1.01E-08,-96.65717316,-13.94838238,8.45E-08,-1.28E-11,0.481
1.55E-07,-1.53E-05,-1.53E-05,2.52E-05,2.51E-05,-0.000310255,0.000309984,0.000390761,-0.000390372,642.0770874,642.0770264,706.2480469,706.2480469,-0.000378907,-1.27E-10,-2.96E-10,2.74E-10,1.58E-10,-1.69E-10,7.30E-08,0.93658483,-1.81E-11,7.42E-08,3.52E-08,-96.65717316,-13.94838238,8.54E-08,-4.45E-11,0.491
1.56E-07,-1.46E-05,-1.44E-05,1.92E-05,1.92E-05,-0.000309101,0.000310873,0.000394496,-0.000393369,642.0770874,642.0770874,706.2480469,706.2480469,-0.000378907,-1.27E-10,-3.02E-10,2.77E-10,1.05E-10,-1.10E-10,7.39E-08,0.93658483,-5.02E-11,4.52E-08,1.14E-08,-96.65717316,-13.94838238,8.60E-08,-5.11E-11,0.501
1.57E-07,-1.30E-05,-1.29E-05,1.29E-05,1.30E-05,-0.000310512,0.000311004,0.000394575,-0.000394528,642.0770874,642.0770874,706.2479858,706.2480469,-0.000378907,-1.26E-10,-3.18E-10,3.03E-10,4.74E-11,-4.87E-11,7.42E-08,0.93658483,7.14E-12,1.25E-09,2.06E-08,-96.65717316,-13.94838238,8.61E-08,-5.08E-11,0.511
1.58E-07,-1.08E-05,-1.08E-05,6.96E-06,6.93E-06,-0.000309413,0.00030999,0.000394877,-0.000396356,642.0770874,642.0770874,706.2479858,706.2479858,-0.000378907,-1.26E-10,-3.53E-10,3.35E-10,-1.73E-11,4.29E-12,7.40E-08,0.93658483,3.63E-11,-2.59E-08,-1.73E-08,-96.65717316,-13.94838238,8.60E-08,-8.26E-11,0.521
1.58E-07,-8.17E-06,-8.16E-06,1.68E-06,1.71E-06,-0.000307962,0.000308766,0.000397732,-0.000398169,642.0770874,642.0770874,706.2479858,706.2479858,-0.000378907,-1.25E-10,-3.98E-10,3.73E-10,-7.21E-11,5.69E-11,7.33E-08,0.93658483,-3.96E-12,-4.72E-08,-1.96E-08,-96.65717316,-13.94838238,8.56E-08,-8.77E-11,0.531
1.59E-07,-5.19E-06,-5.26E-06,-2.75E-06,-2.73E-06,-0.000306624,0.000307147,0.000400261,-0.00039993,642.0770264,642.0770264,706.2479858,706.2479858,-0.000378907,-1.24E-10,-4.40E-10,4.23E-10,-1.18E-10,1.08E-10,7.24E-08,0.93658483,7.46E-12,-5.83E-08,-1.27E-08,-96.65717316,-13.94838238,8.51E-08,-5.59E-11,0.541
1.60E-07,-2.04E-06,-2.14E-06,-6.49E-06,-6.47E-06,-0.000309095,0.000305631,0.000401788,-0.000403492,642.0770264,642.0770264,706.2479858,706.2479858,-0.000378907,-1.23E-10,-4.83E-10,4.71E-10,-1.62E-10,1.56E-10,7.13E-08,0.93658483,1.17E-11,-6.45E-08,7.05E-09,-96.65717316,-13.94838238,8.45E-08,-4.37E-11,0.551
1.61E-07,9.87E-07,1.00E-06,-9.14E-06,-9.08E-06,-0.000305645,0.000304484,0.000401306,-0.000402777,642.0770264,642.0770264,706.2479858,706.2479858,-0.000378907,-1.23E-10,-5.31E-10,5.07E-10,-2.04E-10,1.90E-10,7.03E-08,0.93658483,-2.09E-11,-5.98E-08,-2.31E-08,-96.65717316,-13.94838238,8.38E-08,-6.58E-11,0.561
1.62E-07,3.86E-06,3.94E-06,-1.06E-05,-1.06E-05,-0.000303167,0.000303302,0.00040426,-0.000403525,642.0770264,642.0770264,706.2479858,706.2479858,-0.000378907,-1.25E-10,-5.78E-10,5.44E-10,-2.33E-10,2.12E-10,6.94E-08,0.93658483,-5.10E-12,-5.02E-08,-3.60E-10,-96.65717316,-13.94838238,8.33E-08,-6.25E-11,0.571
1.63E-07,6.11E-06,6.04E-06,-1.12E-05,-1.12E-05,-0.000301241,0.000301872,0.000405565,-0.000402119,642.0770264,642.0770264,706.2479858,706.2479858,-0.000378907,-1.25E-10,-6.08E-10,5.88E-10,-2.43E-10,2.27E-10,6.87E-08,0.93658483,2.06E-11,-3.44E-08,3.29E-08,-96.65717316,-13.94838238,8.29E-08,-2.08E-11,0.581
1.63E-07,7.17E-06,7.26E-06,-1.12E-05,-1.11E-05,-0.000302548,0.000301921,0.000405331,-0.000405491,642.0770264,642.0770264,706.2479858,706.2479858,-0.000378907,-1.23E-10,-6.27E-10,6.17E-10,-2.37E-10,2.41E-10,6.81E-08,0.93658483,-7.21E-11,-2.69E-08,-3.40E-08,-96.65717316,-13.94838238,8.25E-08,2.98E-12,0.591
1.64E-07,7.46E-06,7.56E-06,-1.09E-05,-1.08E-05,-0.000301126,0.000299623,0.000404313,-0.000405358,642.0770264,642.0770264,706.2479858,706.2479858,-0.000378907,-1.22E-10,-6.42E-10,6.28E-10,-2.35E-10,2.37E-10,6.77E-08,0.93658483,-2.21E-11,-2.62E-08,-1.93E-09,-96.65717316,-13.94838238,8.23E-08,-1.94E-11,0.601
1.65E-07,7.20E-06,7.40E-06,-1.03E-05,-1.01E-05,-0.000299804,0.000299814,0.000405319,-0.000405906,642.0770264,642.0770264,706.2479858,706.2479858,-0.000378907,-1.24E-10,-6.53E-10,6.22E-10,-2.36E-10,2.26E-10,6.73E-08,0.93658483,-3.03E-11,-2.97E-08,1.36E-08,-96.65717316,-13.94838238,8.20E-08,-5.16E-11,0.611
1.66E-07,6.83E-06,7.04E-06,-9.33E-06,-9.18E-06,-0.00030075,0.000300883,0.000406068,-0.000405507,642.0770264,642.0770264,706.2479858,706.2479858,-0.000378907,-1.26E-10,-6.54E-10,6.19E-10,-2.30E-10,2.14E-10,6.70E-08,0.93658483,-4.89E-11,-8.79E-09,-1.84E-08,-96.65717316,-13.94838238,8.18E-08,-5.12E-11,0.621
1.67E-07,6.23E-06,6.67E-06,-8.18E-06,-7.87E-06,-0.000298943,0.000300088,0.000405431,-0.000404383,642.0770264,642.0770264,706.2479858,706.2479858,-0.000378907,-1.26E-10,-6.50E-10,6.14E-10,-2.12E-10,2.09E-10,6.67E-08,0.93658483,-1.05E-10,-1.35E-08,1.76E-10,-96.65717316,-13.94838238,8.17E-08,-2.35E-11,0.631
1.68E-07,5.58E-06,5.95E-06,-6.58E-06,-6.23E-06,-0.000300386,0.000301119,0.000404701,-0.000405924,642.0770264,642.0770264,706.2479858,706.2479858,-0.000378907,-1.25E-10,-6.35E-10,6.12E-10,-1.91E-10,1.98E-10,6.66E-08,0.93658483,-2.26E-11,-3.81E-09,-2.64E-08,-96.65717316,-13.94838238,8.16E-08,-5.19E-12,0.641
1.68E-07,4.86E-06,4.97E-06,-4.89E-06,-4.71E-06,-0.000299949,0.000299442,0.000403333,-0.000405221,642.0770264,642.0770264,706.2479858,706.2479858,-0.000378907,-1.24E-10,-6.18E-10,6.04E-10,-1.79E-10,1.78E-10,6.66E-08,0.93658483,3.31E-11,1.90E-09,-2.99E-08,-96.65717316,-13.94838238,8.16E-08,-2.27E-11,0.651
1.69E-07,4.09E-06,3.84E-06,-3.07E-06,-3.20E-06,-0.000301482,0.00029986,0.000404003,-0.00040436,642.0770264,642.0770264,706.2479858,706.2479858,-0.000378907,-1.24E-10,-6.01E-10,5.91E-10,-1.70E-10,1.53E-10,6.66E-08,0.93658483,4.36E-11,1.03E-08,-2.12E-08,-96.65717316,-13.94838238,8.16E-08,-3.43E-11,0.661
1.70E-07,3.06E-06,2.98E-06,-1.58E-06,-1.69E-06,-0.000301747,0.000301601,0.000403513,-0.00040474,642.0770264,642.0770264,706.2479858,706.2479858,-0.000378907,-1.26E-10,-5.92E-10,5.67E-10,-1.56E-10,1.36E-10,6.68E-08,0.93658483,9.52E-13,1.53E-08,-3.40E-08,-96.65717316,-13.94838238,8.17E-08,-5.82E-11,0.671
1.71E-07,2.15E-06,1.97E-06,-2.42E-07,-4.63E-07,-0.000300348,0.000301174,0.00040313,-0.000402282,642.0770264,642.0770264,706.2479858,706.2479858,-0.000378907,-1.27E-10,-5.75E-10,5.50E-10,-1.45E-10,1.20E-10,6.69E-08,0.93658483,7.44E-11,1.09E-08,2.14E-08,-96.65717316,-13.94838238,8.18E-08,-5.66E-11,0.681
1.72E-07,1.37E-06,1.07E-06,7.82E-07,4.08E-07,-0.000301055,0.000301583,0.000401858,-0.000402933,642.0770264,642.0770264,706.2479858,706.2479858,-0.000378907,-1.27E-10,-5.53E-10,5.37E-10,-1.36E-10,1.12E-10,6.72E-08,0.93658483,8.20E-11,1.53E-08,-2.58E-08,-96.65717316,-13.94838238,8.20E-08,-5.19E-11,0.691
1.73E-07,8.15E-07,3.57E-07,1.68E-06,1.17E-06,-0.000303504,0.000301832,0.000402512,-0.00040162,642.0770264,642.0770264,706.2479858,706.2479858,-0.000378907,-1.26E-10,-5.37E-10,5.29E-10,-1.27E-10,1.01E-10,6.74E-08,0.93658483,6.44E-11,1.51E-08,-3.84E-09,-96.65717316,-13.94838238,8.21E-08,-6.33E-11,0.701
1.73E-07,-9.36E-10,-1.45E-07,2.01E-06,1.75E-06,-0.00030359,0.000304277,0.000402146,-0.000403358,642.0770264,642.0770264,706.2479858,706.2479858,-0.000378907,-1.26E-10,-5.35E-10,5.13E-10,-1.17E-10,9.63E-11,6.76E-08,0.93658483,2.42E-11,1.17E-08,-1.87E-08,-96.65717316,-13.94838238,8.22E-08,-9.96E-11,0.711
1.74E-07,-8.00E-07,-7.90E-07,2.00E-06,1.94E-06,-0.000301783,0.000300867,0.000402003,-0.000401269,642.0770264,642.0770264,706.2479858,706.2479858,-0.000378907,-1.26E-10,-5.31E-10,4.98E-10,-1.12E-10,9.11E-11,6.78E-08,0.93658483,-5.18E-11,3.36E-09,-2.16E-09,-96.65717316,-13.94838238,8.24E-08,-9.20E-11,0.721
1.75E-07,-1.57E-06,-1.13E-06,1.65E-06,2.07E-06,-0.000302955,0.000302166,0.000401538,-0.000401601,642.0770264,642.0770264,706.2479858,706.2479858,-0.000378907,-1.25E-10,-5.24E-10,4.88E-10,-9.89E-11,1.01E-10,6.79E-08,0.93658483,-1.42E-10,1.09E-08,-3.42E-08,-96.65717316,-13.94838238,8.24E-08,-5.39E-11,0.731
1.76E-07,-2.04E-06,-1.30E-06,1.33E-06,2.10E-06,-0.000303983,0.000303358,0.000401294,-0.000398864,642.0770264,642.0770264,706.2479858,706.2479858,-0.000378907,-1.23E-10,-5.22E-10,4.81E-10,-9.18E-11,1.05E-10,6.80E-08,0.93658483,-2.24E-10,-3.03E-09,3.56E-09,-96.65717316,-13.94838238,8.24E-08,-5.71E-11,0.741
1.77E-07,-2.01E-06,-1.53E-06,1.01E-06,1.73E-06,-0.000302202,0.000305136,0.000399484,-0.000401647,642.0770264,642.0770264,706.2479858,706.2479858,-0.000378907,-1.22E-10,-5.17E-10,4.86E-10,-9.50E-11,1.02E-10,6.79E-08,0.93658483,8.59E-12,9.40E-10,-4.62E-08,-96.65717316,-13.94838238,8.24E-08,-3.74E-11,0.751
1.77E-07,-1.63E-06,-1.82E-06,7.62E-07,8.46E-07,-0.000304298,0.000304853,0.000402001,-0.00040127,642.0770264,642.0770264,706.2479858,706.2479858,-0.000378907,-1.22E-10,-5.13E-10,4.95E-10,-1.12E-10,9.11E-11,6.79E-08,0.93658483,9.74E-11,1.31E-09,3.25E-08,-96.65717316,-13.94838238,8.24E-08,-3.37E-11,0.761
1.78E-07,-1.29E-06,-1.72E-06,3.48E-07,3.00E-08,-0.000304229,0.000304717,0.000401416,-0.000401261,642.0770264,642.0770264,706.2479858,706.2479858,-0.000378907,-1.23E-10,-5.15E-10,4.99E-10,-1.23E-10,9.09E-11,6.77E-08,0.93658483,1.02E-10,-5.15E-09,1.80E-08,-96.65717316,-13.94838238,8.23E-08,-3.57E-11,0.771
1.79E-07,-9.25E-07,-1.28E-06,-6.92E-08,-5.35E-07,-0.000304871,0.000304755,0.000402678,-0.000400385,642.0770264,642.0770264,706.2479858,706.2479858,-0.000378907,-1.26E-10,-5.25E-10,4.98E-10,-1.32E-10,9.33E-11,6.76E-08,0.93658483,6.01E-11,-1.60E-09,5.69E-08,-96.65717316,-13.94838238,8.22E-08,-4.72E-11,0.781
1.80E-07,-5.55E-07,-6.11E-07,-5.61E-07,-8.80E-07,-0.000305541,0.000304674,0.000402661,-0.000401752,642.0770264,642.0770264,706.2479858,706.2479858,-0.000378907,-1.28E-10,-5.34E-10,5.01E-10,-1.31E-10,1.05E-10,6.74E-08,0.93658483,-3.35E-11,5.54E-09,9.28E-09,-96.65717316,-13.94838238,8.21E-08,-2.89E-11,0.791
1.81E-07,-1.53E-07,5.45E-08,-1.13E-06,-1.16E-06,-0.000303458,0.000303376,0.000402477,-0.000401321,642.0770264,642.0770264,706.2479858,706.2479858,-0.000378907,-1.28E-10,-5.39E-10,5.11E-10,-1.26E-10,1.20E-10,6.72E-08,0.93658483,-5.89E-11,1.41E-09,3.16E-08,-96.65717316,-13.94838238,8.20E-08,-3.22E-11,0.801
1.82E-07,2.58E-07,5.58E-07,-1.75E-06,-1.51E-06,-0.000304434,0.000303943,0.000402351,-0.00040092,642.0770264,642.0770264,706.2479858,706.2479858,-0.000378907,-1.25E-10,-5.38E-10,5.24E-10,-1.22E-10,1.37E-10,6.71E-08,0.93658483,-8.77E-11,-9.23E-09,2.15E-08,-96.65717316,-13.94838238,8.19E-08,5.03E-12,0.811
1.82E-07,5.14E-07,1.11E-06,-2.32E-06,-1.67E-06,-0.000303243,0.000303835,0.00040227,-0.000401363,642.0770264,642.0770264,706.2479858,706.2479858,-0.000378907,-1.21E-10,-5.45E-10,5.27E-10,-1.20E-10,1.49E-10,6.70E-08,0.93658483,-1.48E-10,-1.02E-08,-1.12E-08,-96.65717316,-13.94838238,8.18E-08,8.90E-12,0.821
1.83E-07,9.99E-07,1.41E-06,-2.74E-06,-2.04E-06,-0.000303009,0.000301831,0.00040275,-0.000401287,642.0770264,642.0770264,706.2479858,706.2479858,-0.000378907,-1.19E-10,-5.53E-10,5.29E-10,-1.34E-10,1.47E-10,6.68E-08,0.93658483,-9.50E-11,-1.14E-08,2.25E-08,-96.65717316,-13.94838238,8.17E-08,-2.69E-11,0.831
1.84E-07,1.34E-06,1.74E-06,-2.94E-06,-2.26E-06,-0.000302647,0.000303878,0.000401257,-0.000401144,642.0770264,642.0770264,706.2479858,706.2479858,-0.000378907,-1.20E-10,-5.64E-10,5.26E-10,-1.46E-10,1.43E-10,6.67E-08,0.93658483,-8.27E-11,-7.92E-09,-3.53E-08,-96.65717316,-13.94838238,8.17E-08,-1.88E-11,0.841
1.85E-07,1.60E-06,2.03E-06,-2.97E-06,-2.46E-06,-0.000302337,0.000303889,0.000403435,-0.000402939,642.0770264,642.0770264,706.2479858,706.2479858,-0.000378907,-1.23E-10,-5.74E-10,5.25E-10,-1.54E-10,1.40E-10,6.66E-08,0.93658483,-6.67E-11,6.07E-09,2.67E-08,-96.65717316,-13.94838238,8.16E-08,-1.91E-11,0.851
1.86E-07,1.76E-06,2.01E-06,-2.87E-06,-2.73E-06,-0.000303343,0.000302719,0.000401657,-0.000402867,642.0770264,642.0770264,706.2479858,706.2479858,-0.000378907,-1.27E-10,-5.72E-10,5.32E-10,-1.58E-10,1.37E-10,6.65E-08,0.93658483,-4.53E-12,-1.16E-08,-7.92E-09,-96.65717316,-13.94838238,8.15E-08,8.38E-12,0.861
1.86E-07,1.79E-06,1.97E-06,-2.81E-06,-2.93E-06,-0.000301499,0.000302597,0.000401671,-0.000401008,642.0770264,642.0770264,706.2479858,706.2479858,-0.000378907,-1.30E-10,-5.70E-10,5.35E-10,-1.58E-10,1.39E-10,6.63E-08,0.93658483,-1.42E-11,-1.31E-08,2.35E-08,-96.65717316,-13.94838238,8.15E-08,-1.07E-11,0.871
1.87E-07,1.88E-06,1.85E-06,-2.64E-06,-2.93E-06,-0.000302734,0.000302356,0.00039962,-0.000403043,642.0770264,642.0770264,706.2479858,706.2479858,-0.000378907,-1.30E-10,-5.61E-10,5.43E-10,-1.55E-10,1.43E-10,6.62E-08,0.93658483,1.08E-10,-9.67E-09,-1.96E-08,-96.65717316,-13.94838238,8.14E-08,-5.31E-12,0.881
1.88E-07,1.97E-06,1.68E-06,-2.34E-06,-2.80E-06,-0.000300952,0.000301272,0.000401557,-0.000400039,642.0770264,642.0770264,706.2479858,706.2479858,-0.000378907,-1.29E-10,-5.57E-10,5.47E-10,-1.55E-10,1.39E-10,6.61E-08,0.93658483,5.92E-11,-1.57E-08,4.86E-08,-96.65717316,-13.94838238,8.13E-08,-3.58E-11,0.891
1.89E-07,1.99E-06,1.67E-06,-2.24E-06,-2.60E-06,-0.000300968,0.000303206,0.000401452,-0.000402947,642.0770264,642.0770264,706.2479858,706.2479858,-0.000378907,-1.27E-10,-5.56E-10,5.47E-10,-1.52E-10,1.40E-10,6.60E-08,0.93658483,6.92E-11,4.06E-10,-4.51E-08,-96.65717316,-13.94838238,8.13E-08,-6.07E-11,0.901
1.90E-07,1.99E-06,1.55E-06,-2.07E-06,-2.39E-06,-0.000302934,0.000303211,0.000401449,-0.00040091,642.0770264,642.0770264,706.2479858,706.2479858,-0.000378907,-1.25E-10,-5.55E-10,5.46E-10,-1.52E-10,1.36E-10,6.60E-08,0.93658483,4.89E-11,-6.86E-09,1.03E-08,-96.65717316,-13.94838238,8.12E-08,-6.54E-11,0.911
1.91E-07,1.78E-06,1.49E-06,-1.94E-06,-2.17E-06,-0.000302624,0.000303621,0.000400715,-0.000402465,642.0770264,642.0770264,706.2479858,706.2479858,-0.000378907,-1.25E-10,-5.65E-10,5.34E-10,-1.59E-10,1.26E-10,6.59E-08,0.93658483,8.00E-11,-5.26E-10,-2.16E-08,-96.65717316,-13.94838238,8.12E-08,-1.31E-10,0.921
1.91E-07,1.57E-06,1.35E-06,-1.78E-06,-1.97E-06,-0.000301558,0.000301903,0.000401743,-0.000400317,642.0770264,642.0770264,706.2479858,706.2479858,-0.000378907,-1.27E-10,-5.68E-10,5.27E-10,-1.60E-10,1.19E-10,6.59E-08,0.93658483,1.11E-11,-2.85E-09,4.55E-09,-96.65717316,-13.94838238,8.12E-08,-1.16E-10,0.931
1.92E-07,1.35E-06,1.18E-06,-1.65E-06,-1.80E-06,-0.000302744,0.000303766,0.000401478,-0.000402343,642.0770264,642.0770264,706.2479858,706.2479858,-0.000378907,-1.27E-10,-5.61E-10,5.29E-10,-1.53E-10,1.22E-10,6.58E-08,0.93658483,5.41E-11,-6.31E-10,-1.02E-08,-96.65717316,-13.94838238,8.11E-08,-9.87E-11,0.941
1.93E-07,1.26E-06,9.32E-07,-1.44E-06,-1.79E-06,-0.000302891,0.000302771,0.000399609,-0.000400229,642.0770264,642.0770264,706.2479858,706.2479858,-0.000378907,-1.27E-10,-5.56E-10,5.30E-10,-1.55E-10,1.17E-10,6.58E-08,0.93658483,1.02E-10,-7.29E-09,-1.08E-09,-96.65717316,-13.94838238,8.11E-08,-1.12E-10,0.951
1.94E-07,1.12E-06,8.42E-07,-1.39E-06,-1.73E-06,-0.000302903,0.000302882,0.000400526,-0.000401182,642.0770264,642.0770264,706.2479858,706.2479858,-0.000378907,-1.27E-10,-5.56E-10,5.27E-10,-1.53E-10,1.16E-10,6.57E-08,0.93658483,4.43E-11,9.50E-10,-8.39E-09,-96.65717316,-13.94838238,8.11E-08,-1.21E-10,0.961
1.95E-07,1.02E-06,8.05E-07,-1.30E-06,-1.54E-06,-0.00030195,0.000303911,0.000402312,-0.000402167,642.0770264,642.0770264,706.2479858,706.2479858,-0.000378907,-1.26E-10,-5.56E-10,5.25E-10,-1.49E-10,1.17E-10,6.57E-08,0.93658483,7.51E-11,-3.79E-09,1.63E-08,-96.65717316,-13.94838238,8.10E-08,-1.09E-10,0.971
1.95E-07,1.04E-06,5.96E-07,-1.07E-06,-1.47E-06,-0.000303116,0.000301819,0.000400355,-0.000402042,642.0770264,642.0770264,706.2479858,706.2479858,-0.000378907,-1.25E-10,-5.49E-10,5.29E-10,-1.48E-10,1.14E-10,6.56E-08,0.93658483,1.09E-10,-6.17E-09,-6.73E-09,-96.65717316,-13.94838238,8.10E-08,-9.85E-11,0.981
1.96E-07,9.15E-07,5.78E-07,-1.11E-06,-1.45E-06,-0.000303997,0.00030391,0.000401338,-0.000401999,642.0770264,642.0770264,706.2479858,706.2479858,-0.000378907,-1.25E-10,-5.52E-10,5.25E-10,-1.49E-10,1.12E-10,6.55E-08,0.93658483,6.84E-11,-1.24E-09,8.97E-09,-96.65717316,-13.94838238,8.10E-08,-1.13E-10,0.991
1.97E-07,8.64E-07,5.19E-07,-1.08E-06,-1.40E-06,-0.000302102,0.000303911,0.000401287,-0.00040199,642.0770264,642.0770264,706.2479858,706.2479858,-0.000378907,-1.24E-10,-5.51E-10,5.25E-10,-1.47E-10,1.12E-10,6.55E-08,0.93658483,4.25E-11,1.05E-09,-4.41E-08,-96.65717316,-13.94838238,8.09E-08,-9.37E-11,1.001
1.98E-07,7.31E-07,6.05E-07,-1.15E-06,-1.30E-06,-0.000302979,0.000303086,0.000401205,-0.000402058,642.0770264,642.0770264,706.2479858,706.2479858,-0.000378907,-1.24E-10,-5.54E-10,5.20E-10,-1.45E-10,1.14E-10,6.54E-08,0.93658483,1.39E-11,-2.51E-09,-7.84E-09,-96.65717316,-13.94838238,8.09E-08,-1.01E-10,1.011
1.99E-07,7.37E-07,6.65E-07,-1.20E-06,-1.29E-06,-0.000300966,0.000304126,0.000401266,-0.000400093,642.0770264,642.0770264,706.2479858,706.2479858,-0.000378907,-1.25E-10,-5.56E-10,5.18E-10,-1.47E-10,1.13E-10,6.53E-08,0.93658483,5.52E-11,-8.45E-09,2.74E-08,-96.65717316,-13.94838238,8.08E-08,-9.38E-11,1.021
1.99E-07,8.61E-07,6.02E-07,-1.14E-06,-1.38E-06,-0.000302119,0.000303928,0.000401285,-0.000402008,642.0770264,642.0770264,706.2479858,706.2479858,-0.000378907,-1.24E-10,-5.50E-10,5.24E-10,-1.47E-10,1.13E-10,6.53E-08,0.93658483,8.36E-11,-7.71E-10,-7.03E-09,-96.65717316,-13.94838238,8.08E-08,-7.91E-11,1.031
2.00E-07,9.30E-07,6.16E-07,-1.18E-06,-1.48E-06,-0.000303194,0.000303837,0.000401267,-0.000402105,642.0770264,642.0770264,706.2479858,706.2479858,-0.000378907,-1.24E-10,-5.47E-10,5.27E-10,-1.47E-10,1.15E-10,6.52E-08,0.93658483,7.73E-11,-1.17E-09,-9.70E-09,-96.65717316,-13.94838238,8.08E-08,-5.10E-11,1.041
2.01E-07,9.53E-07,7.46E-07,-1.23E-06,-1.47E-06,-0.000301229,0.000301902,0.000401185,-0.000400314,642.0770264,642.0770264,706.2479858,706.2479858,-0.000378907,-1.23E-10,-5.48E-10,5.27E-10,-1.44E-10,1.19E-10,6.52E-08,0.93658483,2.49E-11,-4.16E-09,7.98E-09,-96.65717316,-13.94838238,8.07E-08,-5.26E-11,1.051
2.02E-07,9.61E-07,8.81E-07,-1.34E-06,-1.48E-06,-0.000301999,0.000304014,0.000401316,-0.000402173,642.0770264,642.0770264,706.2479858,706.2479858,-0.000378907,-1.24E-10,-5.54E-10,5.21E-10,-1.48E-10,1.17E-10,6.51E-08,0.93658483,3.31E-11,1.31E-09,-4.27E-08,-96.65717316,-13.94838238,8.07E-08,-6.76E-11,1.061
2.03E-07,1.14E-06,7.70E-07,-1.29E-06,-1.64E-06,-0.000303088,0.000302863,0.000403386,-0.000400123,642.0770264,642.0770264,706.2479858,706.2479858,-0.000378907,-1.25E-10,-5.50E-10,5.27E-10,-1.53E-10,1.14E-10,6.50E-08,0.93658483,9.42E-11,1.30E-09,1.05E-07,-96.65717316,-13.94838238,8.06E-08,-5.26E-11,1.071
2.03E-07,1.08E-06,8.14E-07,-1.42E-06,-1.77E-06,-0.000303076,0.000303838,0.000401427,-0.000402162,642.0770264,642.0770264,706.2479858,706.2479858,-0.000378907,-1.25E-10,-5.51E-10,5.27E-10,-1.51E-10,1.17E-10,6.50E-08,0.93658483,4.13E-11,6.24E-09,-6.03E-09,-96.65717316,-13.94838238,8.06E-08,-4.61E-11,1.081
2.04E-07,1.07E-06,9.34E-07,-1.63E-06,-1.87E-06,-0.000304008,0.000303827,0.000401352,-0.000402363,642.0770264,642.0770264,706.2479858,706.2479858,-0.000378907,-1.25E-10,-5.52E-10,5.27E-10,-1.49E-10,1.23E-10,6.49E-08,0.93658483,2.57E-11,-4.40E-09,1.79E-09,-96.65717316,-13.94838238,8.06E-08,-3.15E-11,1.091
2.05E-07,1.07E-06,9.55E-07,-1.65E-06,-1.86E-06,-0.000301061,0.000301908,0.000399459,-0.000400414,642.0770264,642.0770264,706.2479858,706.2479858,-0.000378907,-1.25E-10,-5.53E-10,5.27E-10,-1.50E-10,1.22E-10,6.48E-08,0.93658483,7.38E-11,-1.60E-08,6.22E-09,-96.65717316,-13.94838238,8.05E-08,-4.44E-11,1.101
2.06E-07,1.29E-06,8.09E-07,-1.56E-06,-1.98E-06,-0.000303217,0.000301635,0.000403426,-0.000403171,642.0770264,642.0770264,706.2479858,706.2479858,-0.000378907,-1.25E-10,-5.46E-10,5.35E-10,-1.54E-10,1.19E-10,6.47E-08,0.93658483,9.84E-11,5.62E-09,-7.58E-09,-96.65717316,-13.94838238,8.04E-08,-3.76E-11,1.111
2.07E-07,1.21E-06,9.77E-07,-1.73E-06,-1.98E-06,-0.000302113,0.000301741,0.000399465,-0.000400481,642.0770264,642.0770264,706.2479858,706.2479858,-0.000378907,-1.24E-10,-5.51E-10,5.32E-10,-1.50E-10,1.24E-10,6.46E-08,0.93658483,3.26E-11,-1.02E-08,-1.96E-08,-96.65717316,-13.94838238,8.04E-08,-4.16E-11,1.121
2.08E-07,1.18E-06,1.14E-06,-1.82E-06,-1.91E-06,-0.000303844,0.000301908,0.000401394,-0.000402448,642.0770264,642.0770264,706.2479858,706.2479858,-0.000378907,-1.24E-10,-5.57E-10,5.27E-10,-1.50E-10,1.25E-10,6.45E-08,0.93658483,-1.76E-11,-6.65E-09,7.34E-09,-96.65717316,-13.94838238,8.03E-08,-4.67E-11,1.131
2.08E-07,1.12E-06,1.21E-06,-1.77E-06,-1.78E-06,-0.00030266,0.000304022,0.000401501,-0.000402259,642.0770264,642.0770264,706.2479858,706.2479858,-0.000378907,-1.26E-10,-5.64E-10,5.21E-10,-1.53E-10,1.20E-10,6.45E-08,0.93658483,3.37E-12,-4.61E-09,2.46E-09,-96.65717316,-13.94838238,8.03E-08,-6.90E-11,1.141
2.09E-07,1.18E-06,1.10E-06,-1.72E-06,-1.84E-06,-0.000302833,0.000302865,0.000401515,-0.000402224,642.0770264,642.0770264,706.2479858,706.2479858,-0.000378907,-1.26E-10,-5.58E-10,5.27E-10,-1.54E-10,1.19E-10,6.44E-08,0.93658483,4.41E-11,1.32E-09,2.84E-08,-96.65717316,-13.94838238,8.02E-08,-5.98E-11,1.151
2.10E-07,1.22E-06,9.78E-07,-1.66E-06,-1.94E-06,-0.000302965,0.000302756,0.000401575,-0.000402165,642.0770264,642.0770264,706.2479858,706.2479858,-0.000378907,-1.27E-10,-5.54E-10,5.30E-10,-1.56E-10,1.17E-10,6.43E-08,0.93658483,8.09E-11,-6.63E-09,3.44E-09,-96.65717316,-13.94838238,8.02E-08,-5.21E-11,1.161
2.11E-07,1.18E-06,1.00E-06,-1.66E-06,-1.94E-06,-0.000302923,0.000303772,0.000402469,-0.00040223,642.0770264,642.0770264,706.2479858,706.2479858,-0.000378907,-1.27E-10,-5.55E-10,5.29E-10,-1.54E-10,1.19E-10,6.42E-08,0.93658483,3.03E-11,-9.23E-10,1.75E-08,-96.65717316,-13.94838238,8.01E-08,-6.47E-11,1.171
2.12E-07,1.22E-06,9.80E-07,-1.62E-06,-1.93E-06,-0.000302896,0.000302807,0.00040153,-0.000402179,642.0770264,642.0770264,706.2479858,706.2479858,-0.000378907,-1.27E-10,-5.56E-10,5.29E-10,-1.54E-10,1.18E-10,6.42E-08,0.93658483,6.32E-11,-6.41E-09,3.51E-09,-96.65717316,-13.94838238,8.01E-08,-7.35E-11,1.181
2.12E-07,1.26E-06,9.30E-07,-1.59E-06,-1.94E-06,-0.000302938,0.000303739,0.000401583,-0.00040308,642.0770264,642.0770264,706.2479858,706.2479858,-0.000378907,-1.26E-10,-5.55E-10,5.30E-10,-1.56E-10,1.16E-10,6.41E-08,0.93658483,7.91E-11,-2.03E-09,-2.25E-08,-96.65717316,-13.94838238,8.00E-08,-8.33E-11,1.191
2.13E-07,1.23E-06,9.38E-07,-1.55E-06,-1.87E-06,-0.000302915,0.000302824,0.000401587,-0.000400181,642.0770264,642.0770264,706.2479858,706.2479858,-0.000378907,-1.26E-10,-5.56E-10,5.28E-10,-1.56E-10,1.15E-10,6.40E-08,0.93658483,1.72E-11,-3.05E-09,8.24E-09,-96.65717316,-13.94838238,8.00E-08,-8.36E-11,1.201
2.14E-07,1.23E-06,9.62E-07,-1.52E-06,-1.75E-06,-0.000302,0.000303744,0.00040146,-0.000402186,642.0770264,642.0770264,706.2479858,706.2479858,-0.000378907,-1.25E-10,-5.54E-10,5.30E-10,-1.52E-10,1.18E-10,6.39E-08,0.93658483,7.82E-11,-7.23E-09,-1.67E-08,-96.65717316,-13.94838238,8.00E-08,-7.08E-11,1.211
2.15E-07,1.15E-06,1.02E-06,-1.55E-06,-1.64E-06,-0.000302938,0.000301845,0.000403271,-0.000402263,642.0770264,642.0770264,706.2479858,706.2479858,-0.000378907,-1.24E-10,-5.55E-10,5.29E-10,-1.49E-10,1.20E-10,6.39E-08,0.93658483,5.28E-13,-3.45E-09,4.00E-08,-96.65717316,-13.94838238,7.99E-08,-5.85E-11,1.221
2.16E-07,1.14E-06,9.67E-07,-1.53E-06,-1.65E-06,-0.000300995,0.000300908,0.00040145,-0.000401202,642.0770264,642.0770264,706.2479858,706.2479858,-0.000378907,-1.24E-10,-5.55E-10,5.27E-10,-1.52E-10,1.17E-10,6.38E-08,0.93658483,3.07E-11,-9.37E-09,7.13E-10,-96.65717316,-13.94838238,7.99E-08,-6.32E-11,1.231
2.16E-07,1.21E-06,9.28E-07,-1.53E-06,-1.70E-06,-0.000301122,0.000301771,0.000399528,-0.000401231,642.0770264,642.0770264,706.2479858,706.2479858,-0.000378907,-1.23E-10,-5.51E-10,5.31E-10,-1.52E-10,1.18E-10,6.37E-08,0.93658483,1.08E-10,-4.64E-09,-1.58E-08,-96.65717316,-13.94838238,7.98E-08,-3.56E-11,1.241
2.17E-07,1.30E-06,8.44E-07,-1.38E-06,-1.76E-06,-0.000303143,0.000303612,0.000401549,-0.000402059,642.0770264,642.0770264,706.2479858,706.2479858,-0.000378907,-1.23E-10,-5.49E-10,5.34E-10,-1.55E-10,1.14E-10,6.37E-08,0.93658483,1.21E-10,-2.02E-09,1.60E-08,-96.65717316,-13.94838238,7.98E-08,-3.28E-11,1.251
2.18E-07,1.17E-06,8.61E-07,-1.39E-06,-1.76E-06,-0.000303094,0.000302733,0.000400497,-0.00040118,642.0770264,642.0770264,706.2479858,706.2479858,-0.000378907,-1.23E-10,-5.50E-10,5.31E-10,-1.52E-10,1.16E-10,6.36E-08,0.93658483,1.55E-11,-5.87E-09,-1.00E-08,-96.65717316,-13.94838238,7.98E-08,-2.33E-11,1.261
2.19E-07,1.08E-06,9.27E-07,-1.47E-06,-1.72E-06,-0.000303879,0.000300972,0.000402461,-0.000401138,642.0770264,642.0770264,706.2479858,706.2479858,-0.000378907,-1.25E-10,-5.56E-10,5.25E-10,-1.53E-10,1.15E-10,6.36E-08,0.93658483,-5.89E-12,-2.21E-09,4.12E-08,-96.65717316,-13.94838238,7.97E-08,-2.90E-11,1.271
2.20E-07,1.03E-06,9.77E-07,-1.58E-06,-1.71E-06,-0.000302027,0.000303798,0.000402287,-0.000403254,642.0770264,642.0770264,706.2479858,706.2479858,-0.000378907,-1.25E-10,-5.53E-10,5.28E-10,-1.48E-10,1.21E-10,6.35E-08,0.93658483,2.61E-11,2.81E-10,-3.28E-08,-96.65717316,-13.94838238,7.97E-08,-1.06E-12,1.281
2.20E-07,9.46E-07,9.63E-07,-1.55E-06,-1.63E-06,-0.000302989,0.000301866,0.000401269,-0.000400364,642.0770264,642.0770264,706.2479858,706.2479858,-0.000378907,-1.25E-10,-5.53E-10,5.28E-10,-1.47E-10,1.20E-10,6.34E-08,0.93658483,-3.10E-11,-1.12E-08,1.88E-08,-96.65717316,-13.94838238,7.96E-08,-2.04E-11,1.291
2.21E-07,9.60E-07,9.77E-07,-1.66E-06,-1.69E-06,-0.000302981,0.000301891,0.000400361,-0.000402299,642.0770264,642.0770264,706.2479858,706.2479858,-0.000378907,-1.25E-10,-5.54E-10,5.27E-10,-1.48E-10,1.21E-10,6.33E-08,0.93658483,1.73E-11,-8.14E-09,-1.80E-08,-96.65717316,-13.94838238,7.96E-08,-2.02E-11,1.301
2.22E-07,1.16E-06,8.93E-07,-1.55E-06,-1.78E-06,-0.000303122,0.00030175,0.00040149,-0.000401216,642.0770264,642.0770264,706.2479858,706.2479858,-0.000378907,-1.25E-10,-5.49E-10,5.32E-10,-1.53E-10,1.17E-10,6.33E-08,0.93658483,5.60E-11,-6.17E-09,1.14E-08,-96.65717316,-13.94838238,7.95E-08,-2.76E-11,1.311
2.23E-07,1.24E-06,8.83E-07,-1.38E-06,-1.74E-06,-0.000303149,0.000302679,0.000401506,-0.000402103,642.0770264,642.0770264,706.2479858,706.2479858,-0.000378907,-1.25E-10,-5.48E-10,5.33E-10,-1.54E-10,1.15E-10,6.32E-08,0.93658483,8.25E-11,-5.22E-09,2.37E-09,-96.65717316,-13.94838238,7.95E-08,-2.48E-11,1.321
2.23E-07,1.09E-06,1.07E-06,-1.49E-06,-1.66E-06,-0.000304846,0.000303882,0.000400447,-0.000403182,642.0770264,642.0770264,706.2479858,706.2479858,-0.000378907,-1.26E-10,-5.56E-10,5.25E-10,-1.51E-10,1.19E-10,6.31E-08,0.93658483,-5.02E-11,5.14E-09,-7.26E-08,-96.65717316,-13.94838238,7.95E-08,-3.67E-11,1.331
2.24E-07,1.02E-06,1.16E-06,-1.63E-06,-1.59E-06,-0.000302831,0.000302036,0.000400376,-0.000400416,642.0770264,642.0770264,706.2479858,706.2479858,-0.000378907,-1.26E-10,-5.58E-10,5.23E-10,-1.49E-10,1.22E-10,6.31E-08,0.93658483,-3.06E-11,-2.22E-09,2.38E-08,-96.65717316,-13.94838238,7.94E-08,-2.80E-11,1.341
2.25E-07,1.13E-06,1.09E-06,-1.61E-06,-1.64E-06,-0.000302993,0.000303799,0.000401375,-0.000402314,642.0770264,642.0770264,706.2479858,706.2479858,-0.000378907,-1.26E-10,-5.53E-10,5.28E-10,-1.50E-10,1.21E-10,6.30E-08,0.93658483,6.09E-11,-3.95E-09,5.08E-10,-96.65717316,-13.94838238,7.94E-08,-2.11E-11,1.351
2.26E-07,1.22E-06,9.12E-07,-1.48E-06,-1.72E-06,-0.000303157,0.000303622,0.000402438,-0.000402156,642.0770264,642.0770264,706.2479858,706.2479858,-0.000378907,-1.25E-10,-5.48E-10,5.34E-10,-1.53E-10,1.17E-10,6.30E-08,0.93658483,8.39E-11,4.22E-10,1.79E-08,-96.65717316,-13.94838238,7.93E-08,-3.35E-11,1.361
2.27E-07,1.12E-06,9.02E-07,-1.57E-06,-1.79E-06,-0.000303084,0.000303731,0.000402429,-0.000402202,642.0770264,642.0770264,706.2479858,706.2479858,-0.000378907,-1.25E-10,-5.50E-10,5.30E-10,-1.53E-10,1.18E-10,6.29E-08,0.93658483,3.25E-11,8.48E-10,2.32E-08,-96.65717316,-13.94838238,7.93E-08,-3.26E-11,1.371
2.27E-07,1.11E-06,8.83E-07,-1.60E-06,-1.83E-06,-0.000303026,0.000302782,0.000401483,-0.00040217,642.0770264,642.0770264,706.2479858,706.2479858,-0.000378907,-1.25E-10,-5.52E-10,5.30E-10,-1.53E-10,1.17E-10,6.28E-08,0.93658483,5.10E-11,-3.93E-09,3.07E-09,-96.65717316,-13.94838238,7.93E-08,-3.16E-11,1.381
2.28E-07,1.24E-06,7.08E-07,-1.51E-06,-1.97E-06,-0.00030322,0.000303548,0.000401589,-0.0004011,642.0770264,642.0770264,706.2479858,706.2479858,-0.000378907,-1.24E-10,-5.46E-10,5.36E-10,-1.56E-10,1.14E-10,6.27E-08,0.93658483,1.28E-10,-7.25E-09,1.81E-08,-96.65717316,-13.94838238,7.92E-08,-7.73E-12,1.391
2.29E-07,1.18E-06,7.81E-07,-1.55E-06,-1.94E-06,-0.00030133,0.000301557,0.000401395,-0.000400342,642.0770264,642.0770264,706.2479858,706.2479858,-0.000378907,-1.23E-10,-5.45E-10,5.38E-10,-1.50E-10,1.20E-10,6.26E-08,0.93658483,4.02E-11,-1.58E-08,2.72E-08,-96.65717316,-13.94838238,7.91E-08,6.44E-12,1.401
2.30E-07,1.08E-06,9.65E-07,-1.61E-06,-1.85E-06,-0.000301995,0.000302816,0.000399541,-0.000401236,642.0770264,642.0770264,706.2479858,706.2479858,-0.000378907,-1.24E-10,-5.54E-10,5.29E-10,-1.53E-10,1.18E-10,6.26E-08,0.93658483,1.44E-11,-1.16E-08,-1.39E-08,-96.65717316,-13.94838238,7.91E-08,-4.35E-11,1.411
2.31E-07,1.02E-06,1.06E-06,-1.61E-06,-1.66E-06,-0.000302835,0.000303906,0.000401427,-0.000402188,642.0770264,642.0770264,706.2479858,706.2479858,-0.000378907,-1.25E-10,-5.58E-10,5.25E-10,-1.51E-10,1.18E-10,6.25E-08,0.93658483,6.13E-12,-1.62E-09,-9.83E-09,-96.65717316,-13.94838238,7.90E-08,-1.88E-11,1.421
2.31E-07,1.13E-06,9.57E-07,-1.48E-06,-1.72E-06,-0.000301088,0.000301773,0.000401502,-0.00040208,642.0770264,642.0770264,706.2479858,706.2479858,-0.000378907,-1.26E-10,-5.52E-10,5.31E-10,-1.54E-10,1.15E-10,6.24E-08,0.93658483,7.92E-11,-6.16E-09,1.02E-09,-96.65717316,-13.94838238,7.90E-08,-1.55E-11,1.431
2.32E-07,1.22E-06,9.13E-07,-1.43E-06,-1.82E-06,-0.000303103,0.000303648,0.000401598,-0.000402981,642.0770264,642.0770264,706.2479858,706.2479858,-0.000378907,-1.26E-10,-5.50E-10,5.33E-10,-1.56E-10,1.13E-10,6.23E-08,0.93658483,6.56E-11,-1.21E-09,-2.37E-08,-96.65717316,-13.94838238,7.90E-08,-2.18E-11,1.441
2.33E-07,1.21E-06,9.74E-07,-1.48E-06,-1.79E-06,-0.000303054,0.000301743,0.000401517,-0.00040212,642.0770264,642.0770264,706.2479858,706.2479858,-0.000378907,-1.26E-10,-5.51E-10,5.32E-10,-1.54E-10,1.16E-10,6.23E-08,0.93658483,6.45E-11,-6.97E-09,-3.59E-09,-96.65717316,-13.94838238,7.89E-08,-2.35E-11,1.451
2.34E-07,1.14E-06,9.79E-07,-1.43E-06,-1.70E-06,-0.000302017,0.000304756,0.000401516,-0.000402087,642.0770264,642.0770264,706.2479858,706.2479858,-0.000378907,-1.27E-10,-5.54E-10,5.28E-10,-1.54E-10,1.15E-10,6.22E-08,0.93658483,3.42E-11,-5.92E-09,-4.06E-08,-96.65717316,-13.94838238,7.89E-08,-4.73E-11,1.461
2.35E-07,1.09E-06,1.06E-06,-1.56E-06,-1.67E-06,-0.000301957,0.00030385,0.000399522,-0.00040027,642.0770264,642.0770264,706.2479858,706.2479858,-0.000378907,-1.26E-10,-5.55E-10,5.27E-10,-1.52E-10,1.18E-10,6.22E-08,0.93658483,2.01E-11,-1.03E-08,1.35E-08,-96.65717316,-13.94838238,7.88E-08,-5.62E-11,1.471
2.35E-07,1.05E-06,1.12E-06,-1.61E-06,-1.61E-06,-0.000302883,0.000303925,0.000400479,-0.000402232,642.0770264,642.0770264,706.2479858,706.2479858,-0.000378907,-1.26E-10,-5.57E-10,5.24E-10,-1.52E-10,1.19E-10,6.21E-08,0.93658483,-2.39E-11,-6.24E-09,-5.84E-08,-96.65717316,-13.94838238,7.88E-08,-5.69E-11,1.481
2.36E-07,1.07E-06,1.14E-06,-1.64E-06,-1.56E-06,-0.000302865,0.000303918,0.000401451,-0.000402209,642.0770264,642.0770264,706.2479858,706.2479858,-0.000378907,-1.26E-10,-5.57E-10,5.24E-10,-1.52E-10,1.18E-10,6.20E-08,0.93658483,3.39E-11,-2.11E-09,1.70E-08,-96.65717316,-13.94838238,7.88E-08,-5.42E-11,1.491
2.37E-07,1.07E-06,1.02E-06,-1.57E-06,-1.58E-06,-0.000302934,0.000303821,0.000401464,-0.000401167,642.0770264,642.0770264,706.2479858,706.2479858,-0.000378907,-1.26E-10,-5.55E-10,5.27E-10,-1.52E-10,1.16E-10,6.20E-08,0.93658483,-6.24E-12,3.95E-09,-1.26E-08,-96.65717316,-13.94838238,7.87E-08,-3.99E-11,1.501
2.38E-07,1.00E-06,1.04E-06,-1.77E-06,-1.67E-06,-0.000301034,0.000302867,0.000401376,-0.000402316,642.0770264,642.0770264,706.2479858,706.2479858,-0.000378907,-1.25E-10,-5.54E-10,5.27E-10,-1.50E-10,1.21E-10,6.19E-08,0.93658483,2.47E-11,-7.82E-09,-4.72E-08,-96.65717316,-13.94838238,7.87E-08,-2.10E-11,1.511
2.38E-07,1.14E-06,9.06E-07,-1.62E-06,-1.76E-06,-0.000301132,0.000300831,0.000401566,-0.000400199,642.0770264,642.0770264,706.2479858,706.2479858,-0.000378907,-1.24E-10,-5.51E-10,5.30E-10,-1.55E-10,1.16E-10,6.18E-08,0.93658483,3.49E-11,-5.56E-09,1.82E-08,-96.65717316,-13.94838238,7.86E-08,-3.97E-11,1.521
2.39E-07,1.12E-06,9.98E-07,-1.61E-06,-1.72E-06,-0.000302948,0.000303846,0.000400603,-0.000402117,642.0770264,642.0770264,706.2479858,706.2479858,-0.000378907,-1.25E-10,-5.55E-10,5.27E-10,-1.55E-10,1.16E-10,6.18E-08,0.93658483,4.41E-11,-3.18E-09,-2.52E-08,-96.65717316,-13.94838238,7.86E-08,-2.69E-11,1.531
2.40E-07,1.20E-06,9.48E-07,-1.53E-06,-1.78E-06,-0.000303058,0.000302745,0.000400604,-0.000400187,642.0770264,642.0770264,706.2479858,706.2479858,-0.000378907,-1.25E-10,-5.51E-10,5.31E-10,-1.55E-10,1.15E-10,6.17E-08,0.93658483,3.58E-11,3.23E-10,5.60E-09,-96.65717316,-13.94838238,7.85E-08,-1.94E-11,1.541
2.41E-07,1.11E-06,1.03E-06,-1.56E-06,-1.72E-06,-0.000302965,0.000303809,0.000401497,-0.000402167,642.0770264,642.0770264,706.2479858,706.2479858,-0.000378907,-1.25E-10,-5.54E-10,5.28E-10,-1.53E-10,1.17E-10,6.16E-08,0.93658483,1.99E-11,-4.43E-09,9.59E-10,-96.65717316,-13.94838238,7.85E-08,-1.88E-11,1.551
2.42E-07,1.10E-06,9.71E-07,-1.52E-06,-1.73E-06,-0.000302937,0.000302853,0.000401575,-0.000402041,642.0770264,642.0770264,706.2479858,706.2479858,-0.000378907,-1.26E-10,-5.55E-10,5.27E-10,-1.56E-10,1.13E-10,6.16E-08,0.93658483,5.46E-11,-4.44E-09,-6.46E-10,-96.65717316,-13.94838238,7.85E-08,-4.01E-11,1.561
2.42E-07,1.12E-06,8.88E-07,-1.54E-06,-1.83E-06,-0.000303018,0.000301837,0.000399711,-0.00040202,642.0770264,642.0770264,706.2479858,706.2479858,-0.000378907,-1.27E-10,-5.53E-10,5.29E-10,-1.57E-10,1.13E-10,6.15E-08,0.93658483,6.38E-11,1.25E-09,-3.86E-08,-96.65717316,-13.94838238,7.84E-08,-1.26E-11,1.571
2.43E-07,1.20E-06,8.76E-07,-1.49E-06,-1.87E-06,-0.000303106,0.000303662,0.000401625,-0.000402029,642.0770264,642.0770264,706.2479858,706.2479858,-0.000378907,-1.26E-10,-5.50E-10,5.32E-10,-1.57E-10,1.13E-10,6.14E-08,0.93658483,1.05E-10,-1.75E-09,2.19E-08,-96.65717316,-13.94838238,7.84E-08,-3.52E-11,1.581
2.44E-07,1.15E-06,9.42E-07,-1.52E-06,-1.83E-06,-0.000302982,0.000303752,0.000401609,-0.00040203,642.0770264,642.0770264,706.2479858,706.2479858,-0.000378907,-1.27E-10,-5.54E-10,5.30E-10,-1.57E-10,1.13E-10,6.13E-08,0.93658483,4.00E-11,-3.07E-09,-1.44E-08,-96.65717316,-13.94838238,7.83E-08,-4.86E-11,1.591
2.45E-07,1.13E-06,8.97E-07,-1.53E-06,-1.76E-06,-0.000301119,0.000300777,0.000401492,-0.000401156,642.0770264,642.0770264,706.2479858,706.2479858,-0.000378907,-1.26E-10,-5.51E-10,5.32E-10,-1.53E-10,1.16E-10,6.13E-08,0.93658483,7.29E-11,-1.17E-08,2.68E-08,-96.65717316,-13.94838238,7.83E-08,-2.91E-11,1.601
2.46E-07,1.19E-06,8.35E-07,-1.50E-06,-1.84E-06,-0.000304088,0.00030365,0.000401621,-0.000402011,642.0770264,642.0770264,706.2479858,706.2479858,-0.000378907,-1.25E-10,-5.49E-10,5.33E-10,-1.57E-10,1.13E-10,6.12E-08,0.93658483,7.03E-11,1.05E-09,6.97E-09,-96.65717316,-13.94838238,7.82E-08,-5.63E-11,1.611
2.46E-07,1.20E-06,8.80E-07,-1.50E-06,-1.80E-06,-0.000303031,0.00030079,0.000401637,-0.000401014,642.0770264,642.0770264,706.2479858,706.2479858,-0.000378907,-1.25E-10,-5.52E-10,5.31E-10,-1.57E-10,1.12E-10,6.11E-08,0.93658483,2.61E-11,-8.50E-09,4.06E-08,-96.65717316,-13.94838238,7.82E-08,-4.31E-11,1.621
2.47E-07,1.16E-06,9.56E-07,-1.56E-06,-1.76E-06,-0.000302965,0.000301838,0.000400641,-0.000400116,642.0770264,642.0770264,706.2479858,706.2479858,-0.000378907,-1.25E-10,-5.54E-10,5.29E-10,-1.56E-10,1.13E-10,6.11E-08,0.93658483,1.53E-11,-3.83E-09,1.83E-08,-96.65717316,-13.94838238,7.81E-08,-3.85E-11,1.631
2.48E-07,1.03E-06,1.14E-06,-1.64E-06,-1.60E-06,-0.000301886,0.000302957,0.000401451,-0.00040029,642.0770264,642.0770264,706.2479858,706.2479858,-0.000378907,-1.25E-10,-5.58E-10,5.24E-10,-1.52E-10,1.18E-10,6.10E-08,0.93658483,-3.86E-11,-1.05E-08,-4.64E-09,-96.65717316,-13.94838238,7.81E-08,-3.31E-11,1.641
2.49E-07,1.06E-06,1.16E-06,-1.60E-06,-1.50E-06,-0.000302874,0.000303904,0.000401455,-0.000402175,642.0770264,642.0770264,706.2479858,706.2479858,-0.000378907,-1.25E-10,-5.57E-10,5.25E-10,-1.52E-10,1.17E-10,6.09E-08,0.93658483,1.62E-11,-7.02E-09,-2.83E-08,-96.65717316,-13.94838238,7.81E-08,-2.81E-11,1.651
2.49E-07,1.21E-06,9.85E-07,-1.45E-06,-1.65E-06,-0.000303063,0.000303676,0.000401594,-0.000401996,642.0770264,642.0770264,706.2479858,706.2479858,-0.000378907,-1.25E-10,-5.51E-10,5.32E-10,-1.56E-10,1.12E-10,6.09E-08,0.93658483,5.91E-11,-2.28E-09,-2.52E-08,-96.65717316,-13.94838238,7.80E-08,-2.51E-11,1.661
2.50E-07,1.22E-06,8.81E-07,-1.50E-06,-1.81E-06,-0.00030218,0.000302632,0.000399689,-0.000402016,642.0770264,642.0770264,706.2479858,706.2479858,-0.000378907,-1.25E-10,-5.48E-10,5.34E-10,-1.57E-10,1.13E-10,6.08E-08,0.93658483,1.18E-10,-2.89E-09,-1.88E-08,-96.65717316,-13.94838238,7.80E-08,-1.77E-11,1.671
2.51E-07,1.20E-06,8.39E-07,-1.49E-06,-1.88E-06,-0.000303128,0.000301732,0.000401679,-0.000401992,642.0770264,642.0770264,706.2479858,706.2479858,-0.000378907,-1.25E-10,-5.49E-10,5.32E-10,-1.59E-10,1.12E-10,6.08E-08,0.93658483,3.60E-11,1.33E-10,8.93E-09,-96.65717316,-13.94838238,7.79E-08,-1.76E-11,1.681
2.52E-07,1.13E-06,9.87E-07,-1.57E-06,-1.83E-06,-0.000302997,0.000302816,0.000400609,-0.000402121,642.0770264,642.0770264,706.2479858,706.2479858,-0.000378907,-1.26E-10,-5.53E-10,5.29E-10,-1.56E-10,1.16E-10,6.07E-08,0.93658483,7.11E-12,-4.93E-09,-2.63E-08,-96.65717316,-13.94838238,7.79E-08,-1.83E-11,1.691
2.53E-07,1.05E-06,1.09E-06,-1.61E-06,-1.70E-06,-0.00030191,0.000301967,0.000399604,-0.000401184,642.0770264,642.0770264,706.2479858,706.2479858,-0.000378907,-1.26E-10,-5.57E-10,5.25E-10,-1.54E-10,1.16E-10,6.06E-08,0.93658483,-1.73E-11,-7.01E-09,-5.58E-08,-96.65717316,-13.94838238,7.79E-08,-2.32E-11,1.701
2.53E-07,1.07E-06,1.11E-06,-1.63E-06,-1.65E-06,-0.000300975,0.000301931,0.000401531,-0.000402152,642.0770264,642.0770264,706.2479858,706.2479858,-0.000378907,-1.27E-10,-5.56E-10,5.26E-10,-1.54E-10,1.17E-10,6.05E-08,0.93658483,2.72E-11,-6.41E-09,-2.85E-08,-96.65717316,-13.94838238,7.78E-08,-1.99E-11,1.711
2.54E-07,1.20E-06,9.74E-07,-1.51E-06,-1.69E-06,-0.00030121,0.000301663,0.000401526,-0.000401145,642.0770264,642.0770264,706.2479858,706.2479858,-0.000378907,-1.26E-10,-5.48E-10,5.34E-10,-1.54E-10,1.15E-10,6.05E-08,0.93658483,6.70E-11,-8.02E-09,1.77E-08,-96.65717316,-13.94838238,7.78E-08,-5.52E-12,1.721
2.55E-07,1.11E-06,9.91E-07,-1.58E-06,-1.68E-06,-0.000302162,0.00030172,0.000401433,-0.000400296,642.0770264,642.0770264,706.2479858,706.2479858,-0.000378907,-1.25E-10,-5.49E-10,5.33E-10,-1.51E-10,1.19E-10,6.04E-08,0.93658483,1.36E-11,-1.03E-08,4.26E-08,-96.65717316,-13.94838238,7.77E-08,-5.50E-13,1.731
2.56E-07,1.09E-06,1.02E-06,-1.62E-06,-1.67E-06,-0.000302067,0.000303747,0.000401478,-0.000400259,642.0770264,642.0770264,706.2479858,706.2479858,-0.000378907,-1.24E-10,-5.52E-10,5.30E-10,-1.53E-10,1.17E-10,6.04E-08,0.93658483,2.48E-11,-9.13E-09,3.36E-08,-96.65717316,-13.94838238,7.77E-08,-2.07E-11,1.741
2.56E-07,1.13E-06,9.32E-07,-1.55E-06,-1.70E-06,-0.00030305,0.000302748,0.000400593,-0.000401097,642.0770264,642.0770264,706.2479858,706.2479858,-0.000378907,-1.24E-10,-5.52E-10,5.31E-10,-1.55E-10,1.14E-10,6.03E-08,0.93658483,4.09E-11,-1.24E-08,-2.61E-08,-96.65717316,-13.94838238,7.76E-08,-7.88E-12,1.751
2.57E-07,1.02E-06,1.01E-06,-1.66E-06,-1.72E-06,-0.000302867,0.000303923,0.000401623,-0.000402039,642.0770264,642.0770264,706.2479858,706.2479858,-0.000378907,-1.26E-10,-5.57E-10,5.24E-10,-1.57E-10,1.13E-10,6.02E-08,0.93658483,-2.82E-11,9.48E-10,-4.93E-08,-96.65717316,-13.94838238,7.76E-08,-2.05E-11,1.761
2.58E-07,9.80E-07,1.09E-06,-1.71E-06,-1.66E-06,-0.000304875,0.000301933,0.000401443,-0.000402251,642.0770264,642.0770264,706.2479858,706.2479858,-0.000378907,-1.26E-10,-5.55E-10,5.26E-10,-1.52E-10,1.20E-10,6.01E-08,0.93658483,-2.72E-11,2.66E-09,3.57E-08,-96.65717316,-13.94838238,7.76E-08,4.62E-12,1.771
2.59E-07,1.02E-06,1.10E-06,-1.59E-06,-1.57E-06,-0.000301986,0.000303817,0.000402397,-0.000402174,642.0770264,642.0770264,706.2479858,706.2479858,-0.000378907,-1.26E-10,-5.55E-10,5.28E-10,-1.52E-10,1.17E-10,6.01E-08,0.93658483,-2.32E-11,-2.33E-09,-2.05E-08,-96.65717316,-13.94838238,7.75E-08,-8.37E-13,1.781
2.60E-07,1.05E-06,1.05E-06,-1.61E-06,-1.63E-06,-0.000303025,0.000301811,0.000401456,-0.000402172,642.0770264,642.0770264,706.2479858,706.2479858,-0.000378907,-1.26E-10,-5.52E-10,5.30E-10,-1.52E-10,1.17E-10,6.00E-08,0.93658483,1.96E-11,-5.43E-09,2.04E-08,-96.65717316,-13.94838238,7.75E-08,-3.60E-12,1.791
2.60E-07,1.08E-06,1.02E-06,-1.62E-06,-1.68E-06,-0.000303063,0.000303726,0.000401479,-0.000402184,642.0770264,642.0770264,706.2479858,706.2479858,-0.000378907,-1.26E-10,-5.51E-10,5.30E-10,-1.53E-10,1.18E-10,6.00E-08,0.93658483,4.82E-11,-1.75E-09,4.45E-10,-96.65717316,-13.94838238,7.74E-08,5.73E-13,1.801
2.61E-07,1.16E-06,9.56E-07,-1.51E-06,-1.71E-06,-0.000303098,0.000303686,0.000401573,-0.000402064,642.0770264,642.0770264,706.2479858,706.2479858,-0.000378907,-1.26E-10,-5.50E-10,5.32E-10,-1.56E-10,1.14E-10,5.99E-08,0.93658483,7.22E-11,1.56E-09,1.61E-09,-96.65717316,-13.94838238,7.74E-08,-1.82E-11,1.811
2.62E-07,1.11E-06,9.64E-07,-1.53E-06,-1.70E-06,-0.000301077,0.000303754,0.000401562,-0.00040013,642.0770264,642.0770264,706.2479858,706.2479858,-0.000378907,-1.26E-10,-5.53E-10,5.29E-10,-1.55E-10,1.14E-10,5.98E-08,0.93658483,2.69E-11,9.29E-10,2.50E-08,-96.65717316,-13.94838238,7.73E-08,-2.00E-11,1.821
2.63E-07,1.05E-06,1.01E-06,-1.62E-06,-1.68E-06,-0.000301102,0.000300819,0.000400447,-0.000400306,642.0770264,642.0770264,706.2479858,706.2479858,-0.000378907,-1.25E-10,-5.52E-10,5.30E-10,-1.51E-10,1.19E-10,5.98E-08,0.93658483,2.57E-12,-1.34E-08,3.08E-08,-96.65717316,-13.94838238,7.73E-08,-5.21E-13,1.831
2.63E-07,1.08E-06,9.77E-07,-1.62E-06,-1.72E-06,-0.000303019,0.000303752,0.000400576,-0.000401145,642.0770264,642.0770264,706.2479858,706.2479858,-0.000378907,-1.25E-10,-5.52E-10,5.30E-10,-1.55E-10,1.15E-10,5.97E-08,0.93658483,2.94E-11,-2.77E-10,-2.37E-08,-96.65717316,-13.94838238,7.73E-08,-6.77E-12,1.841
2.64E-07,1.09E-06,9.70E-07,-1.60E-06,-1.71E-06,-0.000302046,0.000303757,0.000401576,-0.000402059,642.0770264,642.0770264,706.2479858,706.2479858,-0.000378907,-1.25E-10,-5.53E-10,5.29E-10,-1.56E-10,1.14E-10,5.96E-08,0.93658483,7.54E-11,-6.69E-09,-1.91E-08,-96.65717316,-13.94838238,7.72E-08,-6.00E-12,1.851
2.65E-07,1.17E-06,8.84E-07,-1.50E-06,-1.75E-06,-0.00030321,0.000301626,0.000401513,-0.000400179,642.0770264,642.0770264,706.2479858,706.2479858,-0.000378907,-1.25E-10,-5.47E-10,5.35E-10,-1.54E-10,1.15E-10,5.95E-08,0.93658483,3.44E-11,-1.04E-08,3.96E-08,-96.65717316,-13.94838238,7.72E-08,1.13E-11,1.861
2.66E-07,9.71E-07,1.12E-06,-1.68E-06,-1.60E-06,-0.000302962,0.000303819,0.000401337,-0.000402301,642.0770264,642.0770264,706.2479858,706.2479858,-0.000378907,-1.25E-10,-5.54E-10,5.27E-10,-1.49E-10,1.21E-10,5.95E-08,0.93658483,-2.27E-11,3.20E-09,5.36E-09,-96.65717316,-13.94838238,7.71E-08,4.18E-12,1.871
2.67E-07,1.10E-06,1.08E-06,-1.63E-06,-1.68E-06,-0.000302937,0.000303814,0.000400611,-0.000402088,642.0770264,642.0770264,706.2479858,706.2479858,-0.000378907,-1.25E-10,-5.55E-10,5.28E-10,-1.56E-10,1.15E-10,5.94E-08,0.93658483,2.27E-11,3.68E-10,-5.70E-08,-96.65717316,-13.94838238,7.71E-08,-1.19E-11,1.881
2.67E-07,1.03E-06,1.17E-06,-1.68E-06,-1.63E-06,-0.000302827,0.000303908,0.000401549,-0.000402112,642.0770264,642.0770264,706.2479858,706.2479858,-0.000378907,-1.27E-10,-5.58E-10,5.25E-10,-1.55E-10,1.16E-10,5.94E-08,0.93658483,-4.78E-11,3.64E-09,-5.50E-08,-96.65717316,-13.94838238,7.70E-08,-1.68E-11,1.891
2.68E-07,1.06E-06,1.13E-06,-1.67E-06,-1.62E-06,-0.000302954,0.000301865,0.000402419,-0.000402213,642.0770264,642.0770264,706.2479858,706.2479858,-0.000378907,-1.27E-10,-5.55E-10,5.28E-10,-1.52E-10,1.18E-10,5.93E-08,0.93658483,5.90E-12,3.87E-09,-5.46E-09,-96.65717316,-13.94838238,7.70E-08,1.34E-11,1.901
2.69E-07,1.14E-06,1.01E-06,-1.54E-06,-1.67E-06,-0.000301201,0.000301687,0.000400509,-0.000402163,642.0770264,642.0770264,706.2479858,706.2479858,-0.000378907,-1.26E-10,-5.49E-10,5.34E-10,-1.53E-10,1.17E-10,5.92E-08,0.93658483,2.88E-11,-1.17E-08,-6.01E-08,-96.65717316,-13.94838238,7.70E-08,-3.66E-13,1.911
2.70E-07,9.72E-07,1.13E-06,-1.66E-06,-1.59E-06,-0.000302938,0.000302893,0.000401405,-0.000402245,642.0770264,642.0770264,706.2479858,706.2479858,-0.000378907,-1.26E-10,-5.55E-10,5.26E-10,-1.51E-10,1.19E-10,5.92E-08,0.93658483,-7.43E-11,4.48E-10,-3.96E-08,-96.65717316,-13.94838238,7.69E-08,-1.82E-11,1.921
2.70E-07,1.07E-06,1.05E-06,-1.66E-06,-1.64E-06,-0.000301076,0.000302804,0.000401467,-0.000402197,642.0770264,642.0770264,706.2479858,706.2479858,-0.000378907,-1.26E-10,-5.53E-10,5.29E-10,-1.52E-10,1.18E-10,5.91E-08,0.93658483,3.97E-11,-5.71E-09,-1.40E-09,-96.65717316,-13.94838238,7.69E-08,-9.29E-12,1.931
