Car.Distance,Car.FxFL,Car.FxFR,Car.FxRL,Car.FxRR,Car.FyFL,Car.FyFR,Car.FyRL,Car.FyRR,Car.FzFL,Car.FzFR,Car.FzRL,Car.FzRR,Car.Pitch,Car.Roll,Car.SlipAngleFL,Car.SlipAngleFR,Car.SlipAngleRL,Car.SlipAngleRR,Car.TrackRadius,Car.Yaw,Car.YawRate,Car.ax,Car.ay,Car.tx,Car.ty,Car.vx,Car.vy,Time
m,N,N,N,N,N,N,N,N,N,N,N,N,rad,rad,rad,rad,rad,rad,m,rad,rad/s,m/s^2,m/s^2,m,m,m/s,m/s,s
1.62E-10,0.007831318,0.00783141,0.009245999,0.009245937,-0.000325769,0.000324436,0.000326859,-0.000329264,642.0627441,642.0627441,706.2649536,706.2650146,-0.000379072,3.39E-10,-1.82E-09,1.81E-09,2.37E-09,-2.38E-09,2.63E-07,0.93658483,3.76E-11,0.000117795,1.69E-08,-96.65717316,-13.94838238,1.62E-07,1.43E-11,0.001
4.72E-09,0.000776373,0.000776655,-0.000846225,-0.000846264,0.001056695,-0.001049702,-0.001231129,0.001242653,642.0696411,642.0696411,706.2580566,706.2581177,-0.000379053,2.60E-10,-4.15E-08,4.12E-08,4.39E-08,-4.42E-08,1.34E-06,0.93658483,-1.27E-11,2.74E-06,1.27E-07,-96.65717316,-13.94838238,4.07E-07,4.37E-10,0.011
1.05E-08,-0.000495007,-0.000494688,-0.000164686,-0.000164966,0.000903624,-0.000888989,-0.000840015,0.000854617,642.0776978,642.0776978,706.2503052,706.2503052,-0.000378997,1.24E-10,-3.38E-08,3.33E-08,3.01E-08,-3.06E-08,2.57E-06,0.93658483,-1.31E-10,4.17E-07,9.83E-08,-96.65717316,-13.94838238,5.07E-07,1.46E-09,0.021
1.72E-08,-0.000124725,-0.000124747,-0.000372007,-0.000372437,-0.000323855,0.000332137,0.00047021,-0.000461387,642.0826416,642.0826416,706.2446289,706.2446289,-0.000378922,-1.35E-11,3.95E-09,-4.31E-09,-7.38E-09,7.08E-09,1.72E-06,0.93658483,-3.77E-10,-2.44E-07,1.74E-08,-96.65717316,-13.94838238,4.15E-07,2.47E-09,0.031
2.54E-08,0.00171429,0.001716239,-0.000658256,-0.000658622,-0.001167478,0.001169246,0.001673004,-0.001671559,642.0844727,642.0844727,706.2420654,706.2420654,-0.000378853,-1.21E-10,2.79E-08,-2.80E-08,-3.94E-08,3.93E-08,1.02E-06,0.93658483,-1.01E-10,1.08E-05,1.83E-09,-96.65717316,-13.94838238,3.20E-07,2.91E-09,0.041
3.53E-08,0.001794152,0.0017972,-0.000920359,-0.000925341,-0.001417558,0.001411688,0.002142347,-0.002148665,642.0836792,642.0836792,706.2420044,706.2420044,-0.000378809,-1.79E-10,3.30E-08,-3.28E-08,-4.95E-08,4.96E-08,6.43E-07,0.93658483,2.28E-10,3.56E-06,2.97E-07,-96.65717316,-13.94838238,4.20E-07,2.73E-09,0.051
4.56E-08,-0.000620915,-0.000622271,-0.002552262,-0.002545074,-0.001222383,0.001205362,0.001862941,-0.001874961,642.081665,642.081665,706.2428589,706.2428589,-0.000378793,-1.33E-10,2.50E-08,-2.45E-08,-3.87E-08,3.91E-08,1.05E-06,0.93658483,4.03E-10,-2.65E-05,-1.54E-07,-96.65717316,-13.94838238,3.25E-07,1.57E-09,0.061
5.47E-08,-0.001565224,-0.001567264,-0.002685428,-0.002673807,-0.000828557,0.000808483,0.001260436,-0.001272971,642.0792847,642.0792847,706.2438354,706.2438354,-0.000378801,-3.96E-11,1.20E-08,-1.14E-08,-2.01E-08,2.05E-08,1.52E-08,0.93658483,2.62E-10,-3.36E-05,-1.24E-07,-96.65717316,-13.94838238,3.93E-08,3.61E-10,0.071
6.22E-08,-0.001420483,-0.001423217,-0.001941721,-0.001933104,-0.000402447,0.000387212,0.000720934,-0.000729955,642.0770874,642.0770874,706.244873,706.244873,-0.000378822,5.76E-11,-1.05E-09,1.51E-09,-4.27E-09,4.61E-09,5.99E-07,0.93658483,-5.34E-11,-2.64E-05,-5.79E-08,-96.65717316,-13.94838238,-2.44E-07,-7.59E-10,0.081
6.88E-08,-0.000749461,-0.000753227,-0.001187271,-0.001181606,1.37E-05,-2.18E-05,0.000403137,-0.00041227,642.0755615,642.0756226,706.2460938,706.2460938,-0.000378851,1.43E-10,-1.30E-08,1.32E-08,4.48E-09,-4.25E-09,1.92E-06,0.93658483,-1.59E-10,-1.53E-05,-1.38E-07,-96.65717316,-13.94838238,-4.38E-07,-1.52E-09,0.091
7.48E-08,-6.80E-05,-7.22E-05,-0.000461946,-0.000456691,0.000297692,-0.000296626,0.000236329,-0.000238681,642.0748291,642.0748291,706.2473145,706.2473145,-0.00037888,2.12E-10,-2.03E-08,2.03E-08,8.71E-09,-8.64E-09,2.77E-06,0.93658483,-6.55E-11,-4.48E-06,-2.29E-08,-96.65717316,-13.94838238,-5.26E-07,-1.86E-09,0.101
8.03E-08,0.000385932,0.000382285,0.000256588,0.000261737,0.000382721,-0.000382205,0.0001266,-0.000123413,642.074585,642.074585,706.248291,706.248291,-0.000378906,2.59E-10,-2.14E-08,2.13E-08,1.11E-08,-1.11E-08,2.70E-06,0.93658483,2.38E-12,4.52E-06,2.14E-08,-96.65717316,-13.94838238,-5.20E-07,-1.80E-09,0.111
8.52E-08,0.000612943,0.000610617,0.000844449,0.000848754,0.000318062,-0.000316362,6.63E-05,-6.09E-05,642.074646,642.074646,706.2489624,706.2489624,-0.000378926,2.86E-10,-1.81E-08,1.80E-08,1.20E-08,-1.21E-08,1.93E-06,0.93658483,8.82E-11,1.08E-05,5.90E-08,-96.65717316,-13.94838238,-4.39E-07,-1.48E-09,0.121
8.95E-08,0.000685276,0.000683939,0.001213934,0.001217181,0.000179867,-0.000179484,5.72E-05,-5.00E-05,642.0748291,642.0748291,706.2493286,706.2492676,-0.000378939,2.95E-10,-1.29E-08,1.27E-08,1.14E-08,-1.16E-08,9.76E-07,0.93658483,2.66E-12,1.43E-05,5.52E-08,-96.65717316,-13.94838238,-3.13E-07,-1.09E-09,0.131
9.36E-08,0.000659267,0.000661808,0.001357291,0.001350656,2.29E-05,-1.44E-05,9.43E-05,-8.82E-05,642.0751343,642.0751953,706.2493286,706.2493286,-0.000378945,2.60E-10,-7.50E-09,7.23E-09,9.67E-09,-9.87E-09,2.73E-07,0.93658483,-2.53E-10,1.53E-05,7.81E-08,-96.65717316,-13.94838238,-1.65E-07,-3.69E-10,0.141
9.75E-08,0.000566312,0.000569947,0.001301777,0.001291154,-0.000129265,0.000137938,0.000164651,-0.000156451,642.0756226,642.0756226,706.2490845,706.2490845,-0.000378945,1.86E-10,-2.74E-09,2.38E-09,7.13E-09,-7.34E-09,4.00E-09,0.93658483,-3.62E-10,1.44E-05,7.91E-08,-96.65717316,-13.94838238,-2.02E-08,2.06E-10,0.151
1.02E-07,0.000434478,0.000437936,0.001089197,0.00108118,-0.000243776,0.000252408,0.000247063,-0.000241167,642.0761719,642.0761719,706.2487793,706.2487793,-0.000378941,1.11E-10,6.61E-10,-9.75E-10,4.44E-09,-4.61E-09,1.14E-07,0.93658483,-2.42E-10,1.17E-05,6.88E-08,-96.65717316,-13.94838238,1.07E-07,7.96E-10,0.161
1.06E-07,0.00025582,0.00025947,0.000790766,0.000784646,-0.000333839,0.00033628,0.000324544,-0.000319696,642.0767212,642.0767212,706.2484131,706.2484131,-0.000378933,4.05E-11,3.01E-09,-3.21E-09,2.02E-09,-2.13E-09,4.10E-07,0.93658483,-1.68E-10,8.09E-06,8.14E-08,-96.65717316,-13.94838238,2.02E-07,1.22E-09,0.171
1.11E-07,4.31E-05,4.69E-05,0.000476227,0.000471004,-0.000401878,0.0004047,0.000384219,-0.000382122,642.0772705,642.0772705,706.2481079,706.2481079,-0.000378925,-1.95E-11,4.78E-09,-4.87E-09,1.79E-10,-2.12E-10,6.77E-07,0.93658483,-1.26E-10,3.99E-06,2.99E-08,-96.65717316,-13.94838238,2.60E-07,1.48E-09,0.181
1.15E-07,-0.000155426,-0.000151983,0.000184623,0.000179104,-0.000453789,0.000454485,0.000432442,-0.000433341,642.0776367,642.0776367,706.2478638,706.2478638,-0.000378917,-6.49E-11,5.91E-09,-5.90E-09,-1.13E-09,1.19E-09,7.80E-07,0.93658483,-1.20E-11,2.92E-07,4.76E-08,-96.65717316,-13.94838238,2.79E-07,1.50E-09,0.191
1.20E-07,-0.000304536,-0.000301639,-3.33E-05,-3.78E-05,-0.000483816,0.000481748,0.000456285,-0.000458758,642.0778198,642.0778198,706.2478027,706.2478027,-0.00037891,-9.65E-11,6.25E-09,-6.19E-09,-1.74E-09,1.84E-09,7.09E-07,0.93658483,-1.14E-10,-2.51E-06,-1.53E-08,-96.65717316,-13.94838238,2.66E-07,1.29E-09,0.201
1.24E-07,-0.000391166,-0.000388823,-0.000152535,-0.000155489,-0.000485381,0.000480935,0.000452029,-0.000455778,642.0778809,642.0778809,706.2478027,706.2478027,-0.000378905,-1.17E-10,5.84E-09,-5.76E-09,-1.56E-09,1.67E-09,5.39E-07,0.93658483,-1.20E-10,-4.10E-06,-4.99E-08,-96.65717316,-13.94838238,2.32E-07,1.01E-09,0.211
1.27E-07,-0.000414808,-0.000413247,-0.00018876,-0.000190167,-0.00046933,0.000467899,0.000429782,-0.000433473,642.0778198,642.0778198,706.2478027,706.2478027,-0.000378903,-1.27E-10,4.89E-09,-4.82E-09,-8.90E-10,9.97E-10,3.56E-07,0.93658483,-4.57E-11,-4.58E-06,-3.71E-08,-96.65717316,-13.94838238,1.89E-07,7.50E-10,0.221
1.29E-07,-0.000384416,-0.000383509,-0.000174782,-0.000175401,-0.000437873,0.000435406,0.000403496,-0.000406685,642.0776978,642.0776978,706.2479248,706.2479248,-0.000378902,-1.30E-10,3.60E-09,-3.53E-09,-1.00E-10,1.93E-10,2.11E-07,0.93658483,-5.36E-11,-4.28E-06,-1.41E-08,-96.65717316,-13.94838238,1.45E-07,5.01E-10,0.231
1.31E-07,-0.000313743,-0.000313176,-0.000139965,-0.000140143,-0.000401698,0.000400138,0.000382608,-0.000384647,642.0775146,642.0775146,706.2480469,706.2480469,-0.000378902,-1.32E-10,2.23E-09,-2.19E-09,4.50E-10,-3.91E-10,1.16E-07,0.93658483,-3.98E-11,-3.46E-06,-2.01E-08,-96.65717316,-13.94838238,1.07E-07,2.92E-10,0.241
1.32E-07,-0.000222265,-0.000222057,-9.00E-05,-9.01E-05,-0.000365215,0.000363161,0.000368153,-0.000370498,642.0773315,642.0773315,706.2481079,706.2481079,-0.000378903,-1.31E-10,1.01E-09,-9.71E-10,7.86E-10,-7.46E-10,6.27E-08,0.93658483,2.71E-12,-2.39E-06,-4.52E-08,-96.65717316,-13.94838238,7.92E-08,1.81E-10,0.251
1.33E-07,-0.00012915,-0.000128901,-3.44E-05,-3.43E-05,-0.000336564,0.000336235,0.000359456,-0.000362314,642.0772095,642.0772095,706.24823,706.24823,-0.000378905,-1.31E-10,2.41E-11,-1.38E-11,9.54E-10,-9.27E-10,3.82E-08,0.93658483,-3.92E-11,-1.24E-06,-2.60E-08,-96.65717316,-13.94838238,6.18E-08,7.08E-11,0.261
1.33E-07,-4.57E-05,-4.54E-05,1.09E-05,1.11E-05,-0.000310664,0.000311114,0.000357598,-0.000359899,642.0770874,642.0770874,706.24823,706.24823,-0.000378906,-1.32E-10,-7.28E-10,7.14E-10,9.51E-10,-9.41E-10,3.02E-08,0.93658483,-3.10E-11,-2.47E-07,-4.03E-08,-96.65717316,-13.94838238,5.49E-08,4.72E-12,0.271
1.34E-07,1.89E-05,1.90E-05,3.55E-05,3.56E-05,-0.000292797,0.000290339,0.000363212,-0.00036311,642.0770874,642.0770264,706.24823,706.24823,-0.000378907,-1.32E-10,-1.26E-09,1.25E-09,7.88E-10,-7.91E-10,3.15E-08,0.93658483,-3.50E-11,4.20E-07,2.21E-08,-96.65717316,-13.94838238,5.62E-08,-4.29E-11,0.281
1.35E-07,5.73E-05,5.74E-05,4.06E-05,4.07E-05,-0.000280673,0.000281674,0.000371336,-0.000368834,642.0770264,642.0770264,706.24823,706.24823,-0.000378908,-1.33E-10,-1.49E-09,1.46E-09,4.96E-10,-5.11E-10,3.86E-08,0.93658483,-2.55E-11,7.37E-07,5.62E-08,-96.65717316,-13.94838238,6.22E-08,-1.08E-10,0.291
1.36E-07,7.38E-05,7.38E-05,3.07E-05,3.08E-05,-0.000279827,0.000279458,0.000381568,-0.000384251,642.0770264,642.0770264,706.2481689,706.2481689,-0.000378909,-1.32E-10,-1.46E-09,1.44E-09,1.42E-10,-1.50E-10,4.88E-08,0.93658483,4.48E-11,7.99E-07,-3.34E-08,-96.65717316,-13.94838238,6.99E-08,-7.97E-11,0.301
1.37E-07,7.79E-05,7.79E-05,9.14E-06,9.22E-06,-0.00028152,0.00028278,0.000397286,-0.00039526,642.0770264,642.0770264,706.2481079,706.2481079,-0.000378909,-1.29E-10,-1.31E-09,1.31E-09,-2.57E-10,2.55E-10,5.93E-08,0.93658483,-1.53E-11,6.55E-07,5.40E-08,-96.65717316,-13.94838238,7.71E-08,-8.64E-11,0.311
1.38E-07,7.77E-05,7.78E-05,-1.83E-05,-1.80E-05,-0.000286965,0.00028652,0.000411435,-0.000412587,642.0770264,642.0769653,706.2480469,706.2480469,-0.000378908,-1.26E-10,-1.17E-09,1.16E-09,-6.67E-10,6.72E-10,6.79E-08,0.93658483,-3.09E-11,4.63E-07,4.95E-09,-96.65717316,-13.94838238,8.24E-08,-1.21E-10,0.321
1.39E-07,7.47E-05,7.48E-05,-3.98E-05,-3.95E-05,-0.000288068,0.000289234,0.000426076,-0.00042558,642.0769653,642.0769653,706.2479858,706.2479858,-0.000378908,-1.26E-10,-1.08E-09,1.04E-09,-9.78E-10,9.64E-10,7.37E-08,0.93658483,-5.06E-11,2.81E-07,5.79E-09,-96.65717316,-13.94838238,8.59E-08,-1.70E-10,0.331
1.41E-07,6.83E-05,6.85E-05,-5.19E-05,-5.15E-05,-0.000289235,0.000289479,0.000432037,-0.000432387,642.0769653,642.0769653,706.2479248,706.2479248,-0.000378908,-1.26E-10,-1.01E-09,9.76E-10,-1.12E-09,1.11E-09,7.70E-08,0.93658483,-5.35E-11,1.44E-07,-4.54E-08,-96.65717316,-13.94838238,8.78E-08,-1.26E-10,0.341
1.42E-07,5.87E-05,5.88E-05,-5.68E-05,-5.64E-05,-0.00028992,0.000288837,0.000435171,-0.000433896,642.0769653,642.0769653,706.2478638,706.2478638,-0.000378907,-1.24E-10,-9.62E-10,9.35E-10,-1.13E-09,1.12E-09,7.82E-08,0.93658483,-4.21E-11,2.29E-08,1.57E-08,-96.65717316,-13.94838238,8.84E-08,-9.07E-11,0.351
1.43E-07,4.68E-05,4.68E-05,-5.66E-05,-5.65E-05,-0.000291182,0.000289984,0.000435417,-0.000433953,642.0769653,642.0769653,706.2478638,706.2478638,-0.000378907,-1.24E-10,-9.22E-10,8.99E-10,-1.05E-09,1.04E-09,7.76E-08,0.93658483,-9.10E-12,-7.45E-08,2.15E-08,-96.65717316,-13.94838238,8.81E-08,-9.20E-11,0.361
1.44E-07,3.39E-05,3.40E-05,-5.30E-05,-5.28E-05,-0.000290365,0.000292219,0.000433476,-0.000431274,642.0769653,642.0769653,706.2478638,706.2478638,-0.000378906,-1.24E-10,-8.87E-10,8.60E-10,-9.15E-10,9.06E-10,7.57E-08,0.93658483,-4.27E-11,-1.37E-07,2.14E-08,-96.65717316,-13.94838238,8.70E-08,-7.54E-11,0.371
1.45E-07,2.18E-05,2.18E-05,-4.59E-05,-4.58E-05,-0.000289811,0.000290371,0.000427565,-0.000427359,642.0769653,642.0769653,706.2478638,706.2478638,-0.000378906,-1.23E-10,-8.44E-10,8.26E-10,-7.43E-10,7.37E-10,7.28E-08,0.93658483,2.43E-11,-1.84E-07,1.81E-08,-96.65717316,-13.94838238,8.54E-08,-4.74E-11,0.381
1.46E-07,1.12E-05,1.10E-05,-3.57E-05,-3.58E-05,-0.000293247,0.000291596,0.000422975,-0.000420724,642.0769653,642.0769653,706.2478638,706.2478638,-0.000378906,-1.22E-10,-7.97E-10,7.88E-10,-5.55E-10,5.45E-10,6.97E-08,0.93658483,1.82E-11,-1.95E-07,2.21E-08,-96.65717316,-13.94838238,8.35E-08,-3.50E-11,0.391
1.47E-07,2.34E-06,2.25E-06,-2.34E-05,-2.35E-05,-0.000292762,0.000293231,0.000416254,-0.000414978,642.0769653,642.0769653,706.2478638,706.2478638,-0.000378906,-1.22E-10,-7.52E-10,7.37E-10,-3.60E-10,3.51E-10,6.69E-08,0.93658483,2.12E-12,-1.69E-07,1.98E-08,-96.65717316,-13.94838238,8.18E-08,-2.94E-11,0.401
1.48E-07,-4.49E-06,-4.53E-06,-1.06E-05,-1.06E-05,-0.000294633,0.00029499,0.000409936,-0.000409891,642.0769653,642.0769653,706.2478638,706.2478638,-0.000378907,-1.21E-10,-6.93E-10,6.82E-10,-1.77E-10,1.76E-10,6.46E-08,0.93658483,-2.53E-13,-1.25E-07,1.09E-09,-96.65717316,-13.94838238,8.04E-08,7.07E-12,0.411
1.48E-07,-8.78E-06,-8.66E-06,6.49E-07,7.89E-07,-0.000296788,0.000297099,0.000403326,-0.000405542,642.0769653,642.0769653,706.2479248,706.2479248,-0.000378907,-1.21E-10,-6.26E-10,6.16E-10,-4.03E-11,4.97E-11,6.32E-08,0.93658483,-3.17E-11,-6.70E-08,-6.08E-08,-96.65717316,-13.94838238,7.95E-08,2.03E-11,0.421
1.49E-07,-1.09E-05,-1.08E-05,1.16E-05,1.17E-05,-0.000299812,0.000299405,0.00039996,-0.000399779,642.0769653,642.0769653,706.2479248,706.2479248,-0.000378907,-1.22E-10,-5.62E-10,5.44E-10,5.73E-11,-6.26E-11,6.28E-08,0.93658483,-5.38E-12,1.66E-09,-9.06E-09,-96.65717316,-13.94838238,7.92E-08,-7.33E-12,0.431
1.50E-07,-1.18E-05,-1.18E-05,2.13E-05,2.13E-05,-0.000298844,0.00030124,0.000396091,-0.000397766,642.0769653,642.0769653,706.2479858,706.2479858,-0.000378907,-1.23E-10,-5.00E-10,4.87E-10,1.42E-10,-1.48E-10,6.34E-08,0.93658483,5.00E-11,6.45E-08,-2.25E-08,-96.65717316,-13.94838238,7.96E-08,2.11E-11,0.441
1.51E-07,-1.26E-05,-1.27E-05,2.85E-05,2.85E-05,-0.000302877,0.000300975,0.000392862,-0.000394936,642.0770264,642.0770264,706.2479858,706.2479858,-0.000378907,-1.23E-10,-4.35E-10,4.34E-10,2.08E-10,-2.03E-10,6.50E-08,0.93658483,1.71E-11,1.16E-07,-2.63E-10,-96.65717316,-13.94838238,8.06E-08,4.96E-11,0.451
1.52E-07,-1.37E-05,-1.36E-05,3.23E-05,3.23E-05,-0.000302565,0.000306846,0.000391877,-0.000392952,642.0770264,642.0770264,706.2479858,706.2479858,-0.000378907,-1.23E-10,-3.84E-10,3.72E-10,2.37E-10,-2.33E-10,6.71E-08,0.93658483,3.68E-11,1.39E-07,1.26E-08,-96.65717316,-13.94838238,8.19E-08,1.46E-11,0.461
1.53E-07,-1.46E-05,-1.47E-05,3.27E-05,3.26E-05,-0.000307973,0.000308296,0.000390151,-0.00039273,642.0770264,642.0770264,706.2479858,706.2480469,-0.000378908,-1.24E-10,-3.37E-10,3.27E-10,2.31E-10,-2.39E-10,6.94E-08,0.93658483,4.35E-11,1.37E-07,-7.69E-08,-96.65717316,-13.94838238,8.33E-08,1.30E-12,0.471
1.54E-07,-1.52E-05,-1.54E-05,3.00E-05,2.97E-05,-0.000309007,0.000309365,0.000391214,-0.000392582,642.0770264,642.0770264,706.2480469,706.2480469,-0.000378908,-1.26E-10,-3.05E-10,2.94E-10,2.00E-10,-2.16E-10,7.15E-08,0.93658483,6.55E-11,1.20E-07,-3.25E-08,-96.65717316,-13.94838238,8.45E-08,-6.93E-12,0.481
1.55E-07,-1.52E-05,-1.53E-05,2.52E-05,2.49E-05,-0.000310467,0.000308808,0.000390778,-0.0003904,642.0770874,642.0770264,706.2480469,706.2480469,-0.000378907,-1.26E-10,-2.89E-10,2.81E-10,1.57E-10,-1.68E-10,7.30E-08,0.93658483,6.52E-12,7.28E-08,-2.40E-08,-96.65717316,-13.94838238,8.54E-08,-5.74E-12,0.491
1.56E-07,-1.45E-05,-1.45E-05,1.93E-05,1.92E-05,-0.000308236,0.000309798,0.000392629,-0.000392362,642.0770874,642.0770874,706.2480469,706.2480469,-0.000378907,-1.26E-10,-2.98E-10,2.80E-10,1.04E-10,-1.12E-10,7.39E-08,0.93658483,-7.30E-12,3.69E-08,-2.15E-08,-96.65717316,-13.94838238,8.60E-08,-3.57E-11,0.501
1.57E-07,-1.30E-05,-1.29E-05,1.29E-05,1.30E-05,-0.000310581,0.00031096,0.000394502,-0.000394589,642.0770874,642.0770874,706.2479858,706.2480469,-0.000378907,-1.25E-10,-3.16E-10,3.04E-10,4.95E-11,-4.70E-11,7.42E-08,0.93658483,-1.02E-11,1.85E-09,-8.95E-09,-96.65717316,-13.94838238,8.62E-08,-1.32E-11,0.511
1.57E-07,-1.09E-05,-1.08E-05,6.96E-06,7.01E-06,-0.000309499,0.000307998,0.000396598,-0.000398452,642.0770874,642.0770874,706.2479858,706.2479858,-0.000378907,-1.24E-10,-3.50E-10,3.36E-10,-1.13E-11,9.43E-12,7.40E-08,0.93658483,-1.78E-11,-1.90E-08,-1.39E-08,-96.65717316,-13.94838238,8.60E-08,-5.67E-11,0.521
1.58E-07,-8.26E-06,-8.12E-06,1.61E-06,1.74E-06,-0.000307845,0.000308904,0.000398735,-0.000398121,642.0770874,642.0770874,706.2479858,706.2479858,-0.000378907,-1.25E-10,-4.02E-10,3.69E-10,-7.33E-11,5.55E-11,7.33E-08,0.93658483,-3.61E-11,-4.75E-08,-6.23E-09,-96.65717316,-13.94838238,8.56E-08,-9.29E-11,0.531
1.59E-07,-5.32E-06,-5.25E-06,-2.86E-06,-2.70E-06,-0.000307529,0.000307215,0.000400189,-0.00039901,642.0770264,642.0770264,706.2479858,706.2479858,-0.000378907,-1.25E-10,-4.42E-10,4.21E-10,-1.15E-10,1.09E-10,7.24E-08,0.93658483,9.00E-12,-5.61E-08,5.97E-08,-96.65717316,-13.94838238,8.51E-08,-2.79E-11,0.541
1.60E-07,-2.19E-06,-2.10E-06,-6.65E-06,-6.46E-06,-0.000307254,0.000305553,0.000399595,-0.00040183,642.0770264,642.0770264,706.2479858,706.2479858,-0.000378907,-1.23E-10,-4.80E-10,4.73E-10,-1.54E-10,1.63E-10,7.13E-08,0.93658483,-3.99E-11,-7.61E-08,-3.67E-08,-96.65717316,-13.94838238,8.45E-08,-1.50E-12,0.551
1.61E-07,9.86E-07,9.55E-07,-9.20E-06,-9.14E-06,-0.000305811,0.000304306,0.000403115,-0.000404817,642.0770264,642.0770264,706.2479858,706.2479858,-0.000378907,-1.22E-10,-5.25E-10,5.12E-10,-2.00E-10,1.94E-10,7.03E-08,0.93658483,1.21E-11,-5.29E-08,-2.78E-08,-96.65717316,-13.94838238,8.38E-08,-3.21E-11,0.561
1.62E-07,3.86E-06,3.90E-06,-1.06E-05,-1.06E-05,-0.000302362,0.000303173,0.000404132,-0.000405558,642.0770264,642.0770264,706.2479858,706.2479858,-0.000378907,-1.24E-10,-5.73E-10,5.48E-10,-2.30E-10,2.15E-10,6.93E-08,0.93658483,2.89E-12,-3.92E-08,-5.16E-08,-96.65717316,-13.94838238,8.33E-08,-3.77E-11,0.571
1.63E-07,6.04E-06,6.17E-06,-1.12E-05,-1.11E-05,-0.00029923,0.000300976,0.000404428,-0.000405156,642.0770264,642.0770264,706.2479858,706.2479858,-0.000378907,-1.25E-10,-6.10E-10,5.86E-10,-2.38E-10,2.32E-10,6.86E-08,0.93658483,-1.16E-11,-4.25E-08,-7.95E-09,-96.65717316,-13.94838238,8.29E-08,-1.01E-11,0.581
1.63E-07,7.28E-06,7.21E-06,-1.11E-05,-1.11E-05,-0.000300774,0.00030078,0.000404302,-0.000405493,642.0770264,642.0770264,706.2479858,706.2479858,-0.000378907,-1.23E-10,-6.23E-10,6.22E-10,-2.35E-10,2.41E-10,6.81E-08,0.93658483,2.27E-11,-2.44E-08,-3.92E-08,-96.65717316,-13.94838238,8.25E-08,4.59E-11,0.591
1.64E-07,7.62E-06,7.49E-06,-1.07E-05,-1.08E-05,-0.000300398,0.000298429,0.000404334,-0.000406299,642.0770264,642.0770264,706.2479858,706.2479858,-0.000378907,-1.22E-10,-6.34E-10,6.35E-10,-2.36E-10,2.37E-10,6.77E-08,0.93658483,4.29E-11,-1.81E-08,-2.97E-08,-96.65717316,-13.94838238,8.23E-08,6.26E-12,0.601
1.65E-07,7.41E-06,7.36E-06,-1.02E-05,-1.02E-05,-0.00030005,0.000299575,0.000406296,-0.000404988,642.0770264,642.0770264,706.2479858,706.2479858,-0.000378907,-1.23E-10,-6.45E-10,6.30E-10,-2.37E-10,2.27E-10,6.73E-08,0.93658483,-1.86E-11,-2.45E-08,2.25E-08,-96.65717316,-13.94838238,8.20E-08,-1.68E-11,0.611
1.66E-07,6.87E-06,7.19E-06,-9.33E-06,-9.15E-06,-0.000300814,0.000300851,0.000404907,-0.000405773,642.0770264,642.0770264,706.2479858,706.2479858,-0.000378907,-1.24E-10,-6.52E-10,6.20E-10,-2.24E-10,2.22E-10,6.70E-08,0.93658483,-6.85E-11,-1.41E-08,1.83E-08,-96.65717316,-13.94838238,8.19E-08,-1.99E-11,0.621
1.67E-07,6.38E-06,6.59E-06,-7.99E-06,-7.87E-06,-0.000298156,0.000299904,0.000405443,-0.000403361,642.0770264,642.0770264,706.2479858,706.2479858,-0.000378907,-1.26E-10,-6.44E-10,6.20E-10,-2.12E-10,2.07E-10,6.68E-08,0.93658483,-1.92E-11,-1.72E-08,3.07E-08,-96.65717316,-13.94838238,8.17E-08,-5.91E-12,0.631
1.67E-07,5.72E-06,5.78E-06,-6.47E-06,-6.43E-06,-0.000300641,0.000300874,0.000406717,-0.000404869,642.0770264,642.0770264,706.2479858,706.2479858,-0.000378907,-1.25E-10,-6.27E-10,6.20E-10,-1.94E-10,1.96E-10,6.66E-08,0.93658483,-2.52E-12,9.29E-11,4.67E-08,-96.65717316,-13.94838238,8.16E-08,2.85E-11,0.641
1.68E-07,4.80E-06,4.92E-06,-4.93E-06,-4.84E-06,-0.000301016,0.00030035,0.000404219,-0.000404367,642.0770264,642.0770264,706.2479858,706.2479858,-0.000378907,-1.24E-10,-6.15E-10,6.06E-10,-1.77E-10,1.81E-10,6.66E-08,0.93658483,-1.61E-11,-1.14E-09,2.72E-08,-96.65717316,-13.94838238,8.16E-08,-8.44E-12,0.651
1.69E-07,3.98E-06,3.88E-06,-3.20E-06,-3.31E-06,-0.000301427,0.000299938,0.000403956,-0.000404458,642.0770264,642.0770264,706.2479858,706.2479858,-0.000378907,-1.25E-10,-6.02E-10,5.88E-10,-1.69E-10,1.56E-10,6.66E-08,0.93658483,5.02E-11,1.24E-08,2.10E-08,-96.65717316,-13.94838238,8.16E-08,-3.03E-11,0.661
1.70E-07,3.04E-06,2.96E-06,-1.62E-06,-1.77E-06,-0.000300827,0.000300597,0.000403518,-0.000404754,642.0770264,642.0770264,706.2479858,706.2479858,-0.000378907,-1.27E-10,-5.91E-10,5.68E-10,-1.56E-10,1.37E-10,6.68E-08,0.93658483,1.44E-11,1.52E-08,-1.40E-08,-96.65717316,-13.94838238,8.17E-08,-4.64E-11,0.671
1.71E-07,2.13E-06,2.04E-06,-3.01E-07,-4.78E-07,-0.000301357,0.000301115,0.000403037,-0.000403344,642.0770264,642.0770264,706.2479858,706.2479858,-0.000378907,-1.28E-10,-5.74E-10,5.51E-10,-1.42E-10,1.24E-10,6.69E-08,0.93658483,2.81E-11,9.39E-09,9.34E-09,-96.65717316,-13.94838238,8.18E-08,-4.70E-11,0.681
1.72E-07,1.34E-06,1.12E-06,7.43E-07,4.66E-07,-0.0003011,0.000301487,0.00040265,-0.000402096,642.0770264,642.0770264,706.2479858,706.2479858,-0.000378907,-1.27E-10,-5.52E-10,5.40E-10,-1.31E-10,1.15E-10,6.72E-08,0.93658483,5.63E-11,1.55E-08,-3.16E-09,-96.65717316,-13.94838238,8.19E-08,-4.80E-11,0.691
1.72E-07,6.86E-07,4.75E-07,1.51E-06,1.23E-06,-0.000301454,0.000300925,0.000402359,-0.000401753,642.0770264,642.0770264,706.2479858,706.2479858,-0.000378907,-1.27E-10,-5.41E-10,5.27E-10,-1.23E-10,1.05E-10,6.74E-08,0.93658483,2.18E-11,7.63E-09,4.55E-09,-96.65717316,-13.94838238,8.21E-08,-6.54E-11,0.701
1.73E-07,-3.43E-08,-1.45E-07,1.90E-06,1.77E-06,-0.000303655,0.000302288,0.000403014,-0.000403461,642.0770264,642.0770264,706.2479858,706.2479858,-0.000378907,-1.26E-10,-5.33E-10,5.15E-10,-1.14E-10,9.93E-11,6.76E-08,0.93658483,3.40E-11,1.79E-08,5.09E-08,-96.65717316,-13.94838238,8.22E-08,-8.79E-11,0.711
1.74E-07,-7.21E-07,-8.13E-07,2.05E-06,1.95E-06,-0.000300918,0.000302688,0.000400061,-0.000399338,642.0770264,642.0770264,706.2479858,706.2479858,-0.000378907,-1.26E-10,-5.27E-10,5.02E-10,-1.12E-10,9.08E-11,6.78E-08,0.93658483,3.84E-12,-7.88E-10,1.06E-08,-96.65717316,-13.94838238,8.23E-08,-9.49E-11,0.721
1.75E-07,-1.32E-06,-1.29E-06,1.84E-06,1.94E-06,-0.00030421,0.000302817,0.000401617,-0.000400538,642.0770264,642.0770264,706.2479858,706.2479858,-0.000378907,-1.24E-10,-5.15E-10,4.98E-10,-1.01E-10,9.77E-11,6.79E-08,0.93658483,-4.09E-11,2.55E-09,3.53E-08,-96.65717316,-13.94838238,8.24E-08,-3.15E-11,0.731
1.76E-07,-1.83E-06,-1.44E-06,1.48E-06,1.96E-06,-0.000304334,0.000302004,0.000403113,-0.000400866,642.0770264,642.0770264,706.2479858,706.2479858,-0.000378907,-1.21E-10,-5.11E-10,4.93E-10,-8.92E-11,1.07E-10,6.80E-08,0.93658483,-1.75E-10,8.85E-09,1.39E-08,-96.65717316,-13.94838238,8.24E-08,-4.96E-12,0.741
1.77E-07,-1.95E-06,-1.55E-06,1.06E-06,1.65E-06,-0.000304204,0.000305044,0.000399464,-0.000401657,642.0770264,642.0770264,706.2479858,706.2479858,-0.000378907,-1.20E-10,-5.15E-10,4.89E-10,-9.44E-11,1.02E-10,6.79E-08,0.93658483,-1.77E-12,-2.71E-09,-4.34E-10,-96.65717316,-13.94838238,8.24E-08,-3.59E-11,0.751
1.77E-07,-1.61E-06,-1.79E-06,7.43E-07,7.57E-07,-0.000303228,0.000303045,0.000400266,-0.000402106,642.0770264,642.0770264,706.2479858,706.2479858,-0.000378907,-1.22E-10,-5.16E-10,4.91E-10,-1.18E-10,8.77E-11,6.79E-08,0.93658483,9.41E-11,-4.86E-09,-3.87E-08,-96.65717316,-13.94838238,8.24E-08,-5.38E-11,0.761
1.78E-07,-1.29E-06,-1.61E-06,4.13E-07,9.98E-08,-0.000304094,0.000304865,0.000402464,-0.000400203,642.0770264,642.0770264,706.2479858,706.2479858,-0.000378907,-1.26E-10,-5.19E-10,4.95E-10,-1.26E-10,8.80E-11,6.77E-08,0.93658483,5.11E-11,-1.08E-08,2.37E-08,-96.65717316,-13.94838238,8.23E-08,-2.16E-11,0.771
1.79E-07,-8.39E-07,-1.28E-06,1.87E-08,-5.34E-07,-0.000304224,0.000304409,0.000401462,-0.000399648,642.0770264,642.0770264,706.2479858,706.2479858,-0.000378907,-1.26E-10,-5.15E-10,5.09E-10,-1.24E-10,9.97E-11,6.76E-08,0.93658483,7.34E-11,-6.37E-09,1.44E-08,-96.65717316,-13.94838238,8.22E-08,1.32E-12,0.781
1.80E-07,-5.64E-07,-5.85E-07,-6.05E-07,-8.98E-07,-0.000302907,0.000304406,0.000401421,-0.000400123,642.0770264,642.0770264,706.2479858,706.2479858,-0.000378907,-1.27E-10,-5.26E-10,5.09E-10,-1.23E-10,1.14E-10,6.74E-08,0.93658483,-6.21E-12,-1.13E-08,3.15E-08,-96.65717316,-13.94838238,8.21E-08,-2.02E-11,0.791
1.81E-07,-1.58E-07,8.10E-08,-1.25E-06,-1.17E-06,-0.000305566,0.000304177,0.00040227,-0.000402542,642.0770264,642.0770264,706.2479858,706.2479858,-0.000378907,-1.25E-10,-5.33E-10,5.16E-10,-1.20E-10,1.28E-10,6.73E-08,0.93658483,-8.75E-11,3.30E-09,-6.90E-09,-96.65717316,-13.94838238,8.20E-08,-1.49E-12,0.801
1.81E-07,8.04E-08,7.16E-07,-1.92E-06,-1.37E-06,-0.000303254,0.000303196,0.000402273,-0.000401956,642.0770264,642.0770264,706.2479858,706.2479858,-0.000378907,-1.24E-10,-5.45E-10,5.17E-10,-1.20E-10,1.39E-10,6.71E-08,0.93658483,-1.64E-10,-8.96E-09,-1.01E-08,-96.65717316,-13.94838238,8.19E-08,-1.87E-11,0.811
1.82E-07,6.10E-07,1.02E-06,-2.34E-06,-1.77E-06,-0.000305123,0.000303882,0.000403546,-0.000402992,642.0770264,642.0770264,706.2479858,706.2479858,-0.000378907,-1.22E-10,-5.47E-10,5.25E-10,-1.29E-10,1.41E-10,6.70E-08,0.93658483,-8.73E-11,1.37E-09,-1.75E-08,-96.65717316,-13.94838238,8.18E-08,-7.09E-12,0.821
1.83E-07,9.80E-07,1.42E-06,-2.74E-06,-2.10E-06,-0.000302981,0.000302837,0.000400903,-0.000401227,642.0770264,642.0770264,706.2479858,706.2479858,-0.000378907,-1.21E-10,-5.54E-10,5.28E-10,-1.36E-10,1.46E-10,6.68E-08,0.93658483,-1.14E-10,-5.72E-09,-1.27E-08,-96.65717316,-13.94838238,8.17E-08,-1.43E-11,0.831
1.84E-07,1.29E-06,1.87E-06,-2.99E-06,-2.29E-06,-0.000303589,0.000302896,0.000403039,-0.000401302,642.0770264,642.0770264,706.2479858,706.2479858,-0.000378907,-1.22E-10,-5.65E-10,5.26E-10,-1.42E-10,1.48E-10,6.67E-08,0.93658483,-1.46E-10,-7.62E-09,1.47E-08,-96.65717316,-13.94838238,8.17E-08,-5.42E-12,0.841
1.85E-07,1.53E-06,2.11E-06,-3.03E-06,-2.42E-06,-0.000301485,0.000302811,0.00040317,-0.000401291,642.0770264,642.0770264,706.2479858,706.2479858,-0.000378907,-1.24E-10,-5.70E-10,5.29E-10,-1.46E-10,1.47E-10,6.66E-08,0.93658483,-8.25E-11,-1.09E-08,1.54E-08,-96.65717316,-13.94838238,8.16E-08,-4.43E-12,0.851
1.86E-07,1.68E-06,2.15E-06,-2.95E-06,-2.61E-06,-0.00030236,0.000301791,0.000400541,-0.000403028,642.0770264,642.0770264,706.2479858,706.2479858,-0.000378907,-1.27E-10,-5.73E-10,5.30E-10,-1.54E-10,1.42E-10,6.65E-08,0.93658483,-6.50E-11,-4.45E-09,-4.16E-08,-96.65717316,-13.94838238,8.15E-08,-2.68E-11,0.861
1.86E-07,1.74E-06,2.07E-06,-2.84E-06,-2.75E-06,-0.000302299,0.000302745,0.000400729,-0.000402848,642.0770264,642.0770264,706.2479858,706.2479858,-0.000378907,-1.31E-10,-5.75E-10,5.31E-10,-1.59E-10,1.37E-10,6.63E-08,0.93658483,-1.47E-11,-1.53E-08,-6.40E-08,-96.65717316,-13.94838238,8.15E-08,-3.99E-11,0.871
1.87E-07,1.85E-06,1.87E-06,-2.70E-06,-2.89E-06,-0.000302597,0.00030347,0.00040168,-0.00040291,642.0770264,642.0770264,706.2479858,706.2479858,-0.000378907,-1.32E-10,-5.66E-10,5.38E-10,-1.59E-10,1.39E-10,6.62E-08,0.93658483,6.39E-11,-6.89E-09,-7.63E-10,-96.65717316,-13.94838238,8.14E-08,-3.84E-11,0.881
1.88E-07,1.95E-06,1.75E-06,-2.45E-06,-2.79E-06,-0.000302857,0.000302261,0.000399578,-0.000402997,642.0770264,642.0770264,706.2479858,706.2479858,-0.000378907,-1.30E-10,-5.58E-10,5.46E-10,-1.54E-10,1.41E-10,6.61E-08,0.93658483,6.01E-11,-1.07E-08,-7.84E-08,-96.65717316,-13.94838238,8.13E-08,-5.31E-11,0.891
1.89E-07,1.96E-06,1.66E-06,-2.23E-06,-2.59E-06,-0.000301835,0.000303315,0.000402513,-0.000402819,642.0770264,642.0770264,706.2479858,706.2479858,-0.000378907,-1.29E-10,-5.59E-10,5.43E-10,-1.55E-10,1.36E-10,6.61E-08,0.93658483,9.72E-11,-4.28E-09,1.29E-08,-96.65717316,-13.94838238,8.13E-08,-9.94E-11,0.901
1.90E-07,2.01E-06,1.48E-06,-2.07E-06,-2.47E-06,-0.000302904,0.000303252,0.000401592,-0.000402682,642.0770264,642.0770264,706.2479858,706.2479858,-0.000378907,-1.27E-10,-5.56E-10,5.45E-10,-1.56E-10,1.32E-10,6.60E-08,0.93658483,1.13E-10,5.20E-10,1.51E-09,-96.65717316,-13.94838238,8.12E-08,-1.21E-10,0.911
1.90E-07,1.94E-06,1.27E-06,-1.82E-06,-2.30E-06,-0.000302937,0.000303316,0.000401687,-0.000402425,642.0770264,642.0770264,706.2479858,706.2479858,-0.000378907,-1.25E-10,-5.55E-10,5.43E-10,-1.59E-10,1.25E-10,6.59E-08,0.93658483,1.41E-10,-1.81E-09,1.44E-08,-96.65717316,-13.94838238,8.12E-08,-1.32E-10,0.921
1.91E-07,1.74E-06,1.15E-06,-1.67E-06,-2.13E-06,-0.000300873,0.000302573,0.000402687,-0.000400303,642.0770264,642.0770264,706.2479858,706.2479858,-0.000378907,-1.25E-10,-5.59E-10,5.36E-10,-1.60E-10,1.19E-10,6.59E-08,0.93658483,8.88E-11,-4.40E-09,1.58E-08,-96.65717316,-13.94838238,8.12E-08,-1.33E-10,0.931
1.92E-07,1.50E-06,1.03E-06,-1.58E-06,-1.95E-06,-0.000302875,0.000303626,0.000401569,-0.000402258,642.0770264,642.0770264,706.2479858,706.2479858,-0.000378907,-1.24E-10,-5.57E-10,5.33E-10,-1.55E-10,1.20E-10,6.58E-08,0.93658483,1.03E-10,-4.00E-09,-8.29E-09,-96.65717316,-13.94838238,8.11E-08,-1.10E-10,0.941
1.93E-07,1.31E-06,9.07E-07,-1.42E-06,-1.80E-06,-0.000302958,0.000303654,0.000401452,-0.000402213,642.0770264,642.0770264,706.2479858,706.2479858,-0.000378907,-1.24E-10,-5.54E-10,5.33E-10,-1.52E-10,1.18E-10,6.58E-08,0.93658483,6.66E-11,-4.51E-09,-4.11E-08,-96.65717316,-13.94838238,8.11E-08,-9.94E-11,0.951
1.94E-07,1.17E-06,7.81E-07,-1.33E-06,-1.73E-06,-0.000303004,0.000301785,0.000400501,-0.000402111,642.0770264,642.0770264,706.2479858,706.2479858,-0.000378907,-1.24E-10,-5.53E-10,5.30E-10,-1.52E-10,1.16E-10,6.57E-08,0.93658483,9.18E-11,-1.03E-08,-2.68E-08,-96.65717316,-13.94838238,8.11E-08,-1.03E-10,0.961
1.94E-07,1.07E-06,7.11E-07,-1.22E-06,-1.61E-06,-0.000303031,0.000302826,0.000400451,-0.000402065,642.0770264,642.0770264,706.2479858,706.2479858,-0.000378907,-1.24E-10,-5.52E-10,5.28E-10,-1.51E-10,1.14E-10,6.56E-08,0.93658483,6.83E-11,-8.98E-09,-3.95E-08,-96.65717316,-13.94838238,8.10E-08,-8.41E-11,0.971
1.95E-07,1.05E-06,6.04E-07,-1.04E-06,-1.53E-06,-0.000303128,0.000303767,0.000401401,-0.000400051,642.0770264,642.0770264,706.2479858,706.2479858,-0.000378907,-1.24E-10,-5.49E-10,5.29E-10,-1.51E-10,1.11E-10,6.56E-08,0.93658483,8.50E-11,-4.90E-09,2.05E-08,-96.65717316,-13.94838238,8.10E-08,-9.14E-11,0.981
1.96E-07,9.22E-07,6.85E-07,-1.08E-06,-1.39E-06,-0.00030113,0.000303857,0.00040123,-0.000400168,642.0770264,642.0770264,706.2479858,706.2479858,-0.000378907,-1.24E-10,-5.51E-10,5.26E-10,-1.46E-10,1.15E-10,6.55E-08,0.93658483,6.20E-11,-1.08E-08,1.51E-08,-96.65717316,-13.94838238,8.09E-08,-7.79E-11,0.991
1.97E-07,8.76E-07,6.56E-07,-1.08E-06,-1.34E-06,-0.000305084,0.000302855,0.000401144,-0.000402154,642.0770264,642.0770264,706.2479858,706.2479858,-0.000378907,-1.24E-10,-5.48E-10,5.27E-10,-1.43E-10,1.17E-10,6.55E-08,0.93658483,5.11E-11,2.99E-09,3.18E-08,-96.65717316,-13.94838238,8.09E-08,-8.19E-11,1.001
1.98E-07,9.28E-07,5.46E-07,-9.80E-07,-1.41E-06,-0.000303082,0.000302006,0.000401457,-0.000401821,642.0770264,642.0770264,706.2479858,706.2479858,-0.000378907,-1.25E-10,-5.50E-10,5.24E-10,-1.52E-10,1.07E-10,6.54E-08,0.93658483,7.85E-11,3.93E-09,-4.16E-09,-96.65717316,-13.94838238,8.09E-08,-1.12E-10,1.011
1.99E-07,8.10E-07,6.47E-07,-1.06E-06,-1.32E-06,-0.000301999,0.000302162,0.000399437,-0.000399992,642.0770264,642.0770264,706.2479858,706.2479858,-0.000378907,-1.26E-10,-5.54E-10,5.19E-10,-1.50E-10,1.10E-10,6.54E-08,0.93658483,4.16E-11,-1.24E-08,-1.24E-09,-96.65717316,-13.94838238,8.09E-08,-1.01E-10,1.021
1.99E-07,8.88E-07,6.83E-07,-1.13E-06,-1.44E-06,-0.000302031,0.000304049,0.000399493,-0.000400014,642.0770264,642.0770264,706.2479858,706.2479858,-0.000378907,-1.27E-10,-5.53E-10,5.20E-10,-1.51E-10,1.10E-10,6.53E-08,0.93658483,5.60E-11,-5.08E-09,-4.26E-08,-96.65717316,-13.94838238,8.08E-08,-1.05E-10,1.031
2.00E-07,9.99E-07,6.38E-07,-1.12E-06,-1.54E-06,-0.000305083,0.0003029,0.000401411,-0.000401979,642.0770264,642.0770264,706.2479858,706.2479858,-0.000378907,-1.27E-10,-5.48E-10,5.26E-10,-1.51E-10,1.12E-10,6.53E-08,0.93658483,5.81E-11,5.71E-09,-1.86E-08,-96.65717316,-13.94838238,8.08E-08,-1.00E-10,1.041
2.01E-07,8.61E-07,8.04E-07,-1.32E-06,-1.49E-06,-0.000302008,0.000302099,0.000401296,-0.00040022,642.0770264,642.0770264,706.2479858,706.2479858,-0.000378907,-1.26E-10,-5.54E-10,5.21E-10,-1.48E-10,1.16E-10,6.52E-08,0.93658483,-7.10E-12,-7.03E-09,4.36E-08,-96.65717316,-13.94838238,8.07E-08,-1.10E-10,1.051
2.02E-07,8.76E-07,8.49E-07,-1.46E-06,-1.51E-06,-0.000302958,0.000304045,0.000403226,-0.000401236,642.0770264,642.0770264,706.2479858,706.2479858,-0.000378907,-1.25E-10,-5.54E-10,5.20E-10,-1.48E-10,1.18E-10,6.51E-08,0.93658483,1.01E-11,3.26E-09,7.30E-08,-96.65717316,-13.94838238,8.07E-08,-1.26E-10,1.061
2.03E-07,9.60E-07,8.81E-07,-1.55E-06,-1.60E-06,-0.000302915,0.000300133,0.000401409,-0.00040023,642.0770264,642.0770264,706.2479858,706.2479858,-0.000378907,-1.25E-10,-5.56E-10,5.21E-10,-1.51E-10,1.17E-10,6.50E-08,0.93658483,-9.18E-12,-1.39E-08,2.64E-08,-96.65717316,-13.94838238,8.07E-08,-1.19E-10,1.071
2.03E-07,1.02E-06,9.12E-07,-1.65E-06,-1.68E-06,-0.000302929,0.000303974,0.000402396,-0.000402199,642.0770264,642.0770264,706.2479858,706.2479858,-0.000378907,-1.24E-10,-5.55E-10,5.23E-10,-1.52E-10,1.18E-10,6.50E-08,0.93658483,4.35E-11,1.08E-09,1.41E-08,-96.65717316,-13.94838238,8.06E-08,-1.02E-10,1.081
2.04E-07,1.11E-06,9.24E-07,-1.69E-06,-1.78E-06,-0.000302959,0.000303875,0.000403395,-0.000401245,642.0770264,642.0770264,706.2479858,706.2479858,-0.000378907,-1.24E-10,-5.54E-10,5.26E-10,-1.53E-10,1.18E-10,6.49E-08,0.93658483,2.61E-11,4.12E-09,2.76E-08,-96.65717316,-13.94838238,8.05E-08,-9.11E-11,1.091
2.05E-07,1.10E-06,9.70E-07,-1.74E-06,-1.83E-06,-0.000301965,0.000301944,0.000401451,-0.000403228,642.0770264,642.0770264,706.2479858,706.2479858,-0.000378907,-1.24E-10,-5.55E-10,5.25E-10,-1.52E-10,1.20E-10,6.48E-08,0.93658483,3.63E-11,-6.77E-09,-1.95E-08,-96.65717316,-13.94838238,8.05E-08,-7.84E-11,1.101
2.06E-07,1.17E-06,9.26E-07,-1.65E-06,-1.91E-06,-0.000302866,0.000301985,0.000401669,-0.000402045,642.0770264,642.0770264,706.2479858,706.2479858,-0.000378907,-1.25E-10,-5.57E-10,5.24E-10,-1.58E-10,1.14E-10,6.47E-08,0.93658483,2.66E-11,-8.59E-09,-3.37E-08,-96.65717316,-13.94838238,8.04E-08,-9.86E-11,1.111
2.07E-07,1.19E-06,9.95E-07,-1.68E-06,-1.95E-06,-0.000302822,0.000301975,0.000402589,-0.000402106,642.0770264,642.0770264,706.2479858,706.2479858,-0.000378907,-1.26E-10,-5.59E-10,5.25E-10,-1.57E-10,1.15E-10,6.46E-08,0.93658483,3.32E-11,-4.92E-09,1.02E-08,-96.65717316,-13.94838238,8.04E-08,-7.79E-11,1.121
2.07E-07,1.19E-06,1.05E-06,-1.73E-06,-1.96E-06,-0.000300964,0.000301834,0.000401442,-0.000400382,642.0770264,642.0770264,706.2479858,706.2479858,-0.000378907,-1.26E-10,-5.56E-10,5.29E-10,-1.52E-10,1.21E-10,6.45E-08,0.93658483,-2.46E-13,-1.73E-08,4.40E-09,-96.65717316,-13.94838238,8.03E-08,-4.16E-11,1.131
2.08E-07,1.19E-06,1.03E-06,-1.76E-06,-1.92E-06,-0.000303077,0.000301655,0.000403174,-0.00040344,642.0770264,642.0770264,706.2479858,706.2479858,-0.000378907,-1.24E-10,-5.51E-10,5.35E-10,-1.46E-10,1.26E-10,6.44E-08,0.93658483,3.09E-11,2.25E-09,2.08E-08,-96.65717316,-13.94838238,8.03E-08,-3.31E-11,1.141
2.09E-07,1.23E-06,9.71E-07,-1.70E-06,-1.92E-06,-0.000301116,0.000301672,0.000401405,-0.000400384,642.0770264,642.0770264,706.2479858,706.2479858,-0.000378907,-1.23E-10,-5.51E-10,5.34E-10,-1.51E-10,1.21E-10,6.44E-08,0.93658483,5.92E-11,-7.49E-09,4.41E-08,-96.65717316,-13.94838238,8.02E-08,-5.53E-11,1.151
2.10E-07,1.20E-06,1.09E-06,-1.74E-06,-1.88E-06,-0.000302816,0.000300979,0.00040158,-0.000400277,642.0770264,642.0770264,706.2479858,706.2479858,-0.000378907,-1.24E-10,-5.59E-10,5.25E-10,-1.56E-10,1.18E-10,6.43E-08,0.93658483,6.80E-12,-1.06E-08,6.01E-08,-96.65717316,-13.94838238,8.02E-08,-8.18E-11,1.161
2.11E-07,1.22E-06,1.13E-06,-1.62E-06,-1.76E-06,-0.000301797,0.000303916,0.000401566,-0.000402137,642.0770264,642.0770264,706.2479858,706.2479858,-0.000378907,-1.25E-10,-5.60E-10,5.24E-10,-1.55E-10,1.16E-10,6.42E-08,0.93658483,5.45E-11,-3.85E-09,-5.69E-09,-96.65717316,-13.94838238,8.01E-08,-5.61E-11,1.171
2.11E-07,1.29E-06,1.02E-06,-1.49E-06,-1.80E-06,-0.000301026,0.000301763,0.000401518,-0.000402125,642.0770264,642.0770264,706.2479858,706.2479858,-0.000378907,-1.26E-10,-5.54E-10,5.31E-10,-1.54E-10,1.16E-10,6.42E-08,0.93658483,9.83E-11,-5.73E-09,3.13E-08,-96.65717316,-13.94838238,8.01E-08,-4.80E-11,1.181
2.12E-07,1.24E-06,1.01E-06,-1.51E-06,-1.85E-06,-0.000301963,0.00030377,0.000401559,-0.000402111,642.0770264,642.0770264,706.2479858,706.2479858,-0.000378907,-1.26E-10,-5.55E-10,5.29E-10,-1.55E-10,1.16E-10,6.41E-08,0.93658483,6.52E-11,-4.08E-09,-7.59E-09,-96.65717316,-13.94838238,8.01E-08,-5.75E-11,1.191
2.13E-07,1.14E-06,1.04E-06,-1.59E-06,-1.76E-06,-0.000302988,0.000301783,0.000401295,-0.000402357,642.0770264,642.0770264,706.2479858,706.2479858,-0.000378907,-1.25E-10,-5.53E-10,5.31E-10,-1.47E-10,1.23E-10,6.40E-08,0.93658483,-5.78E-12,-5.34E-09,-1.18E-08,-96.65717316,-13.94838238,8.00E-08,-3.72E-11,1.201
2.14E-07,1.17E-06,9.64E-07,-1.59E-06,-1.79E-06,-0.000303033,0.000302731,0.000401386,-0.000402272,642.0770264,642.0770264,706.2479858,706.2479858,-0.000378907,-1.25E-10,-5.52E-10,5.31E-10,-1.50E-10,1.20E-10,6.40E-08,0.93658483,8.04E-11,-3.25E-09,1.41E-08,-96.65717316,-13.94838238,8.00E-08,-4.43E-11,1.211
2.15E-07,1.26E-06,8.40E-07,-1.52E-06,-1.86E-06,-0.000303221,0.00030449,0.000401415,-0.000402236,642.0770264,642.0770264,706.2479858,706.2479858,-0.000378907,-1.23E-10,-5.46E-10,5.37E-10,-1.51E-10,1.19E-10,6.39E-08,0.93658483,9.19E-11,-2.01E-10,2.58E-08,-96.65717316,-13.94838238,7.99E-08,-2.78E-11,1.221
2.15E-07,1.18E-06,9.23E-07,-1.56E-06,-1.80E-06,-0.000303113,0.000302696,0.000401387,-0.000402284,642.0770264,642.0770264,706.2479858,706.2479858,-0.000378907,-1.23E-10,-5.50E-10,5.32E-10,-1.50E-10,1.21E-10,6.38E-08,0.93658483,2.33E-11,3.42E-09,-1.01E-08,-96.65717316,-13.94838238,7.99E-08,-3.62E-11,1.231
2.16E-07,1.15E-06,9.99E-07,-1.54E-06,-1.70E-06,-0.000301032,0.000301876,0.000400471,-0.000402217,642.0770264,642.0770264,706.2479858,706.2479858,-0.000378907,-1.23E-10,-5.54E-10,5.28E-10,-1.52E-10,1.19E-10,6.37E-08,0.93658483,4.15E-11,-8.15E-09,-3.75E-08,-96.65717316,-13.94838238,7.98E-08,-3.26E-11,1.241
2.17E-07,1.17E-06,1.00E-06,-1.48E-06,-1.65E-06,-0.000301086,0.000301844,0.000401417,-0.000400295,642.0770264,642.0770264,706.2479858,706.2479858,-0.000378907,-1.24E-10,-5.52E-10,5.29E-10,-1.51E-10,1.19E-10,6.37E-08,0.93658483,3.37E-11,3.27E-10,3.60E-08,-96.65717316,-13.94838238,7.98E-08,-1.65E-11,1.251
2.18E-07,1.20E-06,1.00E-06,-1.43E-06,-1.69E-06,-0.000303029,0.000303754,0.000401473,-0.000402149,642.0770264,642.0770264,706.2479858,706.2479858,-0.000378907,-1.25E-10,-5.52E-10,5.30E-10,-1.53E-10,1.17E-10,6.36E-08,0.93658483,3.92E-11,4.60E-09,-2.59E-08,-96.65717316,-13.94838238,7.98E-08,-2.23E-11,1.261
2.19E-07,1.18E-06,9.20E-07,-1.39E-06,-1.74E-06,-0.000303058,0.000301809,0.000401531,-0.000402076,642.0770264,642.0770264,706.2479858,706.2479858,-0.000378907,-1.26E-10,-5.51E-10,5.30E-10,-1.54E-10,1.14E-10,6.36E-08,0.93658483,4.24E-11,-1.78E-09,-2.08E-10,-96.65717316,-13.94838238,7.97E-08,-3.32E-11,1.271
2.19E-07,1.15E-06,9.16E-07,-1.48E-06,-1.81E-06,-0.000302123,0.00030276,0.00040147,-0.000401222,642.0770264,642.0770264,706.2479858,706.2479858,-0.000378907,-1.26E-10,-5.50E-10,5.30E-10,-1.53E-10,1.18E-10,6.35E-08,0.93658483,3.53E-11,-1.21E-09,-1.89E-08,-96.65717316,-13.94838238,7.97E-08,-1.55E-11,1.281
2.20E-07,1.09E-06,9.52E-07,-1.53E-06,-1.76E-06,-0.000302205,0.000301716,0.000400308,-0.000400458,642.0770264,642.0770264,706.2479858,706.2479858,-0.000378907,-1.25E-10,-5.48E-10,5.33E-10,-1.47E-10,1.23E-10,6.34E-08,0.93658483,1.50E-11,-1.54E-08,3.03E-09,-96.65717316,-13.94838238,7.97E-08,-9.83E-12,1.291
2.21E-07,1.06E-06,9.61E-07,-1.59E-06,-1.70E-06,-0.000303127,0.000302725,0.000401259,-0.000402375,642.0770264,642.0770264,706.2479858,706.2479858,-0.000378907,-1.24E-10,-5.49E-10,5.31E-10,-1.46E-10,1.23E-10,6.34E-08,0.93658483,5.11E-11,-4.91E-09,7.29E-09,-96.65717316,-13.94838238,7.96E-08,-9.81E-12,1.301
2.22E-07,1.11E-06,9.01E-07,-1.60E-06,-1.76E-06,-0.000303158,0.000301735,0.000401373,-0.000402286,642.0770264,642.0770264,706.2479858,706.2479858,-0.000378907,-1.24E-10,-5.48E-10,5.32E-10,-1.50E-10,1.21E-10,6.33E-08,0.93658483,4.14E-11,-1.82E-09,1.37E-08,-96.65717316,-13.94838238,7.96E-08,-2.42E-11,1.311
2.23E-07,1.11E-06,9.02E-07,-1.55E-06,-1.74E-06,-0.000303043,0.000302811,0.000400533,-0.000400217,642.0770264,642.0770264,706.2479858,706.2479858,-0.000378907,-1.24E-10,-5.52E-10,5.29E-10,-1.53E-10,1.16E-10,6.32E-08,0.93658483,2.55E-11,-3.18E-09,-1.51E-08,-96.65717316,-13.94838238,7.95E-08,-3.00E-11,1.321
2.23E-07,1.01E-06,1.02E-06,-1.62E-06,-1.66E-06,-0.000301954,0.000303892,0.000401386,-0.00040224,642.0770264,642.0770264,706.2479858,706.2479858,-0.000378907,-1.25E-10,-5.56E-10,5.25E-10,-1.50E-10,1.19E-10,6.31E-08,0.93658483,-7.45E-12,-6.86E-09,-4.35E-08,-96.65717316,-13.94838238,7.95E-08,-2.86E-11,1.331
2.24E-07,1.04E-06,9.67E-07,-1.58E-06,-1.71E-06,-0.000302961,0.000301887,0.000400479,-0.000402157,642.0770264,642.0770264,706.2479858,706.2479858,-0.000378907,-1.26E-10,-5.54E-10,5.27E-10,-1.52E-10,1.17E-10,6.31E-08,0.93658483,2.43E-11,-7.76E-09,-1.76E-08,-96.65717316,-13.94838238,7.94E-08,-3.10E-11,1.341
2.25E-07,1.07E-06,9.81E-07,-1.63E-06,-1.80E-06,-0.00030196,0.00030385,0.000401529,-0.000402126,642.0770264,642.0770264,706.2479858,706.2479858,-0.000378907,-1.27E-10,-5.55E-10,5.26E-10,-1.54E-10,1.16E-10,6.30E-08,0.93658483,6.49E-11,-4.91E-09,1.41E-08,-96.65717316,-13.94838238,7.94E-08,-3.82E-11,1.351
2.26E-07,1.17E-06,8.77E-07,-1.51E-06,-1.86E-06,-0.00030117,0.000303659,0.00040057,-0.000402099,642.0770264,642.0770264,706.2479858,706.2479858,-0.000378907,-1.27E-10,-5.50E-10,5.32E-10,-1.54E-10,1.15E-10,6.29E-08,0.93658483,9.95E-11,-1.63E-09,-5.82E-08,-96.65717316,-13.94838238,7.93E-08,-3.51E-11,1.361
2.27E-07,1.18E-06,8.93E-07,-1.49E-06,-1.86E-06,-0.000303029,0.000302747,0.000401578,-0.000401077,642.0770264,642.0770264,706.2479858,706.2479858,-0.000378907,-1.27E-10,-5.52E-10,5.31E-10,-1.56E-10,1.13E-10,6.28E-08,0.93658483,7.33E-11,-2.81E-09,5.64E-08,-96.65717316,-13.94838238,7.93E-08,-5.76E-11,1.371
2.27E-07,1.07E-06,1.02E-06,-1.59E-06,-1.77E-06,-0.000302898,0.000302901,0.000402424,-0.000401219,642.0770264,642.0770264,706.2479858,706.2479858,-0.000378907,-1.27E-10,-5.56E-10,5.26E-10,-1.52E-10,1.17E-10,6.28E-08,0.93658483,-5.34E-11,3.06E-09,6.55E-09,-96.65717316,-13.94838238,7.92E-08,-5.82E-11,1.381
2.28E-07,1.13E-06,9.84E-07,-1.58E-06,-1.72E-06,-0.00030103,0.000301878,0.000400529,-0.000400232,642.0770264,642.0770264,706.2479858,706.2479858,-0.000378907,-1.26E-10,-5.54E-10,5.28E-10,-1.53E-10,1.17E-10,6.27E-08,0.93658483,6.92E-11,-1.06E-08,-2.59E-08,-96.65717316,-13.94838238,7.92E-08,-5.23E-11,1.391
2.29E-07,1.22E-06,1.00E-06,-1.55E-06,-1.74E-06,-0.000303069,0.000303716,0.000399579,-0.00040217,642.0770264,642.0770264,706.2479858,706.2479858,-0.000378907,-1.25E-10,-5.51E-10,5.31E-10,-1.54E-10,1.17E-10,6.26E-08,0.93658483,2.58E-11,-1.04E-09,-7.77E-08,-96.65717316,-13.94838238,7.91E-08,-5.40E-11,1.401
2.30E-07,1.16E-06,1.12E-06,-1.61E-06,-1.61E-06,-0.000301005,0.0003038,0.000403314,-0.00040226,642.0770264,642.0770264,706.2479858,706.2479858,-0.000378907,-1.24E-10,-5.55E-10,5.28E-10,-1.50E-10,1.20E-10,6.26E-08,0.93658483,1.28E-11,4.58E-09,-5.25E-09,-96.65717316,-13.94838238,7.91E-08,-4.77E-11,1.411
2.30E-07,1.21E-06,1.03E-06,-1.56E-06,-1.66E-06,-0.000302054,0.000301809,0.000401487,-0.000400254,642.0770264,642.0770264,706.2479858,706.2479858,-0.000378907,-1.24E-10,-5.52E-10,5.30E-10,-1.53E-10,1.17E-10,6.25E-08,0.93658483,2.15E-11,-3.24E-09,3.04E-09,-96.65717316,-13.94838238,7.91E-08,-4.51E-11,1.421
2.31E-07,1.18E-06,1.05E-06,-1.60E-06,-1.67E-06,-0.000301028,0.000301864,0.000401513,-0.000399275,642.0770264,642.0770264,706.2479858,706.2479858,-0.000378907,-1.24E-10,-5.54E-10,5.28E-10,-1.54E-10,1.17E-10,6.25E-08,0.93658483,2.70E-11,-1.11E-08,7.47E-08,-96.65717316,-13.94838238,7.90E-08,-3.61E-11,1.431
2.32E-07,1.09E-06,1.06E-06,-1.65E-06,-1.68E-06,-0.000302937,0.000301911,0.000401463,-0.000402217,642.0770264,642.0770264,706.2479858,706.2479858,-0.000378907,-1.24E-10,-5.55E-10,5.27E-10,-1.52E-10,1.19E-10,6.24E-08,0.93658483,-1.57E-11,-4.36E-09,-5.48E-09,-96.65717316,-13.94838238,7.90E-08,-3.35E-11,1.441
2.33E-07,1.04E-06,1.04E-06,-1.67E-06,-1.69E-06,-0.000302923,0.000301908,0.000401434,-0.000400294,642.0770264,642.0770264,706.2479858,706.2479858,-0.000378907,-1.25E-10,-5.55E-10,5.27E-10,-1.52E-10,1.18E-10,6.23E-08,0.93658483,-5.91E-12,-4.14E-09,2.13E-08,-96.65717316,-13.94838238,7.89E-08,-1.95E-11,1.451
2.34E-07,1.04E-06,9.88E-07,-1.68E-06,-1.78E-06,-0.000301971,0.000301899,0.000401526,-0.000400223,642.0770264,642.0770264,706.2479858,706.2479858,-0.000378907,-1.25E-10,-5.55E-10,5.27E-10,-1.54E-10,1.16E-10,6.23E-08,0.93658483,2.15E-11,-6.21E-09,1.91E-08,-96.65717316,-13.94838238,7.89E-08,-2.64E-11,1.461
2.34E-07,1.01E-06,9.94E-07,-1.66E-06,-1.78E-06,-0.000301957,0.000301928,0.000399582,-0.000400234,642.0770264,642.0770264,706.2479858,706.2479858,-0.000378907,-1.26E-10,-5.55E-10,5.26E-10,-1.54E-10,1.17E-10,6.22E-08,0.93658483,-3.10E-11,-9.85E-09,-4.84E-08,-96.65717316,-13.94838238,7.88E-08,-2.69E-11,1.471
2.35E-07,1.09E-06,1.03E-06,-1.68E-06,-1.79E-06,-0.00030104,0.00030282,0.000399535,-0.000401268,642.0770264,642.0770264,706.2479858,706.2479858,-0.000378907,-1.26E-10,-5.54E-10,5.28E-10,-1.52E-10,1.19E-10,6.21E-08,0.93658483,1.02E-10,-7.72E-09,2.28E-08,-96.65717316,-13.94838238,7.88E-08,-1.98E-11,1.481
2.36E-07,1.07E-06,1.04E-06,-1.59E-06,-1.67E-06,-0.000303047,0.000301743,0.000401295,-0.000402304,642.0770264,642.0770264,706.2479858,706.2479858,-0.000378907,-1.25E-10,-5.52E-10,5.32E-10,-1.48E-10,1.21E-10,6.20E-08,0.93658483,-3.69E-11,-5.91E-09,-2.37E-08,-96.65717316,-13.94838238,7.88E-08,-1.16E-11,1.491
2.37E-07,1.05E-06,1.02E-06,-1.68E-06,-1.70E-06,-0.000302959,0.000301834,0.000399451,-0.000401283,642.0770264,642.0770264,706.2479858,706.2479858,-0.000378907,-1.25E-10,-5.54E-10,5.29E-10,-1.50E-10,1.19E-10,6.19E-08,0.93658483,3.01E-11,-4.75E-09,-4.69E-08,-96.65717316,-13.94838238,7.87E-08,-3.37E-11,1.501
2.38E-07,1.11E-06,9.75E-07,-1.61E-06,-1.76E-06,-0.00030287,0.000301939,0.000400683,-0.00040199,642.0770264,642.0770264,706.2479858,706.2479858,-0.000378907,-1.26E-10,-5.57E-10,5.26E-10,-1.58E-10,1.12E-10,6.19E-08,0.93658483,5.07E-11,-1.16E-09,-1.35E-08,-96.65717316,-13.94838238,7.87E-08,-4.81E-11,1.511
2.38E-07,1.16E-06,9.37E-07,-1.53E-06,-1.75E-06,-0.000303024,0.000303701,0.0004015,-0.000403047,642.0770264,642.0770264,706.2479858,706.2479858,-0.000378907,-1.26E-10,-5.52E-10,5.31E-10,-1.53E-10,1.15E-10,6.18E-08,0.93658483,3.77E-11,1.76E-09,-4.40E-08,-96.65717316,-13.94838238,7.86E-08,-2.26E-11,1.521
2.39E-07,1.11E-06,9.82E-07,-1.60E-06,-1.75E-06,-0.000303025,0.000302746,0.000400448,-0.000402212,642.0770264,642.0770264,706.2479858,706.2479858,-0.000378907,-1.25E-10,-5.52E-10,5.31E-10,-1.51E-10,1.18E-10,6.17E-08,0.93658483,3.23E-11,-7.63E-09,-1.54E-08,-96.65717316,-13.94838238,7.86E-08,-2.71E-11,1.531
2.40E-07,1.15E-06,9.70E-07,-1.56E-06,-1.74E-06,-0.000303043,0.000303724,0.000401478,-0.000402161,642.0770264,642.0770264,706.2479858,706.2479858,-0.000378907,-1.25E-10,-5.52E-10,5.30E-10,-1.53E-10,1.17E-10,6.17E-08,0.93658483,6.30E-11,-4.53E-09,5.72E-10,-96.65717316,-13.94838238,7.85E-08,-3.24E-11,1.541
2.41E-07,1.24E-06,9.42E-07,-1.48E-06,-1.74E-06,-0.000301166,0.00030267,0.000401516,-0.0004021,642.0770264,642.0770264,706.2479858,706.2479858,-0.000378907,-1.24E-10,-5.50E-10,5.33E-10,-1.54E-10,1.15E-10,6.16E-08,0.93658483,7.81E-11,-6.60E-09,-7.87E-09,-96.65717316,-13.94838238,7.85E-08,-2.60E-11,1.551
2.42E-07,1.16E-06,1.04E-06,-1.56E-06,-1.67E-06,-0.000303044,0.000303719,0.000401407,-0.000402233,642.0770264,642.0770264,706.2479858,706.2479858,-0.000378907,-1.24E-10,-5.52E-10,5.31E-10,-1.51E-10,1.19E-10,6.15E-08,0.93658483,3.03E-11,-2.52E-09,-5.67E-09,-96.65717316,-13.94838238,7.84E-08,-1.60E-11,1.561
2.42E-07,1.25E-06,9.48E-07,-1.47E-06,-1.74E-06,-0.000303089,0.000302696,0.000399643,-0.000400136,642.0770264,642.0770264,706.2479858,706.2479858,-0.000378907,-1.24E-10,-5.50E-10,5.32E-10,-1.56E-10,1.14E-10,6.15E-08,0.93658483,7.24E-11,-6.67E-09,-3.19E-08,-96.65717316,-13.94838238,7.84E-08,-1.63E-11,1.571
2.43E-07,1.15E-06,1.01E-06,-1.52E-06,-1.68E-06,-0.000303082,0.000303692,0.000401414,-0.00040221,642.0770264,642.0770264,706.2479858,706.2479858,-0.000378907,-1.24E-10,-5.50E-10,5.31E-10,-1.51E-10,1.18E-10,6.14E-08,0.93658483,2.33E-11,-5.62E-09,-5.92E-09,-96.65717316,-13.94838238,7.84E-08,-2.80E-12,1.581
2.44E-07,1.17E-06,9.56E-07,-1.51E-06,-1.76E-06,-0.00030498,0.000304671,0.000401551,-0.000402072,642.0770264,642.0770264,706.2479858,706.2479858,-0.000378907,-1.25E-10,-5.51E-10,5.31E-10,-1.55E-10,1.14E-10,6.14E-08,0.93658483,5.36E-11,-1.96E-09,-1.15E-08,-96.65717316,-13.94838238,7.83E-08,-1.40E-11,1.591
2.45E-07,1.13E-06,9.66E-07,-1.56E-06,-1.83E-06,-0.000301038,0.000303816,0.000401644,-0.000402036,642.0770264,642.0770264,706.2479858,706.2479858,-0.000378907,-1.26E-10,-5.54E-10,5.28E-10,-1.58E-10,1.13E-10,6.13E-08,0.93658483,6.48E-11,-6.07E-09,1.18E-08,-96.65717316,-13.94838238,7.83E-08,-2.21E-11,1.601
2.45E-07,1.17E-06,9.62E-07,-1.52E-06,-1.81E-06,-0.000302111,0.000301791,0.000401576,-0.000400187,642.0770264,642.0770264,706.2479858,706.2479858,-0.000378907,-1.26E-10,-5.51E-10,5.30E-10,-1.56E-10,1.15E-10,6.12E-08,0.93658483,3.95E-11,-7.03E-09,6.28E-08,-96.65717316,-13.94838238,7.82E-08,-1.18E-11,1.611
2.46E-07,1.08E-06,1.14E-06,-1.60E-06,-1.68E-06,-0.000303973,0.000301847,0.000402329,-0.000403277,642.0770264,642.0770264,706.2479858,706.2479858,-0.000378907,-1.26E-10,-5.53E-10,5.29E-10,-1.50E-10,1.22E-10,6.12E-08,0.93658483,-3.78E-11,2.55E-09,-2.91E-08,-96.65717316,-13.94838238,7.82E-08,-4.54E-12,1.621
2.47E-07,1.19E-06,1.01E-06,-1.52E-06,-1.71E-06,-0.00030309,0.000303676,0.00040343,-0.000402137,642.0770264,642.0770264,706.2479858,706.2479858,-0.000378907,-1.26E-10,-5.50E-10,5.32E-10,-1.54E-10,1.16E-10,6.11E-08,0.93658483,8.13E-11,2.62E-09,6.67E-08,-96.65717316,-13.94838238,7.82E-08,-3.13E-11,1.631
2.48E-07,1.14E-06,9.65E-07,-1.55E-06,-1.74E-06,-0.000303043,0.000301811,0.000401585,-0.00040015,642.0770264,642.0770264,706.2479858,706.2479858,-0.000378907,-1.26E-10,-5.52E-10,5.30E-10,-1.56E-10,1.14E-10,6.10E-08,0.93658483,-1.36E-11,-1.17E-09,1.00E-08,-96.65717316,-13.94838238,7.81E-08,-2.85E-11,1.641
2.49E-07,1.03E-06,1.12E-06,-1.72E-06,-1.67E-06,-0.00030296,0.000304842,0.000400456,-0.000402314,642.0770264,642.0770264,706.2479858,706.2479858,-0.000378907,-1.25E-10,-5.54E-10,5.26E-10,-1.51E-10,1.21E-10,6.10E-08,0.93658483,1.64E-11,-3.68E-09,-1.38E-08,-96.65717316,-13.94838238,7.81E-08,-9.44E-12,1.651
2.49E-07,1.14E-06,1.01E-06,-1.55E-06,-1.62E-06,-0.000304095,0.000303667,0.000401387,-0.000402242,642.0770264,642.0770264,706.2479858,706.2479858,-0.000378907,-1.24E-10,-5.49E-10,5.32E-10,-1.50E-10,1.19E-10,6.09E-08,0.93658483,1.60E-11,-6.24E-09,-2.82E-08,-96.65717316,-13.94838238,7.80E-08,-6.09E-12,1.661
2.50E-07,1.09E-06,9.86E-07,-1.62E-06,-1.64E-06,-0.000303122,0.000303629,0.000401316,-0.00040228,642.0770264,642.0770264,706.2479858,706.2479858,-0.000378907,-1.23E-10,-5.49E-10,5.33E-10,-1.48E-10,1.20E-10,6.08E-08,0.93658483,3.40E-11,-9.98E-09,-6.37E-09,-96.65717316,-13.94838238,7.80E-08,2.24E-13,1.671
2.51E-07,1.06E-06,9.53E-07,-1.75E-06,-1.79E-06,-0.000303112,0.000303693,0.000399504,-0.000402273,642.0770264,642.0770264,706.2479858,706.2479858,-0.000378907,-1.23E-10,-5.50E-10,5.31E-10,-1.51E-10,1.20E-10,6.08E-08,0.93658483,6.45E-11,-4.42E-09,-8.19E-09,-96.65717316,-13.94838238,7.79E-08,4.65E-12,1.681
2.52E-07,1.09E-06,9.66E-07,-1.65E-06,-1.76E-06,-0.000302034,0.000302818,0.000401573,-0.000402094,642.0770264,642.0770264,706.2479858,706.2479858,-0.000378907,-1.24E-10,-5.53E-10,5.29E-10,-1.56E-10,1.15E-10,6.07E-08,0.93658483,3.29E-11,-7.93E-09,1.26E-09,-96.65717316,-13.94838238,7.79E-08,-6.22E-12,1.691
2.52E-07,1.09E-06,9.55E-07,-1.57E-06,-1.73E-06,-0.00030306,0.000303698,0.000401465,-0.000402136,642.0770264,642.0770264,706.2479858,706.2479858,-0.000378907,-1.25E-10,-5.51E-10,5.31E-10,-1.52E-10,1.16E-10,6.06E-08,0.93658483,4.13E-11,-6.48E-09,-1.46E-08,-96.65717316,-13.94838238,7.78E-08,2.41E-11,1.701
2.53E-07,1.07E-06,9.18E-07,-1.53E-06,-1.78E-06,-0.000303084,0.000303672,0.00040148,-0.000402101,642.0770264,642.0770264,706.2479858,706.2479858,-0.000378907,-1.26E-10,-5.50E-10,5.32E-10,-1.53E-10,1.15E-10,6.05E-08,0.93658483,5.26E-11,-3.53E-09,5.69E-09,-96.65717316,-13.94838238,7.78E-08,7.33E-12,1.711
2.54E-07,1.04E-06,9.47E-07,-1.61E-06,-1.76E-06,-0.000303172,0.000303593,0.000401306,-0.000402298,642.0770264,642.0770264,706.2479858,706.2479858,-0.000378907,-1.25E-10,-5.48E-10,5.35E-10,-1.48E-10,1.21E-10,6.05E-08,0.93658483,3.33E-11,-2.06E-09,7.81E-09,-96.65717316,-13.94838238,7.78E-08,2.51E-11,1.721
2.55E-07,1.13E-06,9.55E-07,-1.60E-06,-1.79E-06,-0.000301314,0.000303501,0.000401311,-0.000402327,642.0770264,642.0770264,706.2479858,706.2479858,-0.000378907,-1.24E-10,-5.45E-10,5.37E-10,-1.48E-10,1.22E-10,6.04E-08,0.93658483,7.97E-11,-4.82E-09,4.28E-09,-96.65717316,-13.94838238,7.77E-08,3.32E-11,1.731
2.56E-07,1.16E-06,9.99E-07,-1.53E-06,-1.75E-06,-0.00030313,0.000303627,0.00040146,-0.000402172,642.0770264,642.0770264,706.2479858,706.2479858,-0.000378907,-1.24E-10,-5.49E-10,5.33E-10,-1.52E-10,1.17E-10,6.03E-08,0.93658483,-1.97E-12,3.48E-09,-3.76E-08,-96.65717316,-13.94838238,7.77E-08,-7.46E-13,1.741
2.56E-07,1.15E-06,1.05E-06,-1.51E-06,-1.63E-06,-0.000303037,0.000303709,0.000401445,-0.000402152,642.0770264,642.0770264,706.2479858,706.2479858,-0.000378907,-1.25E-10,-5.52E-10,5.31E-10,-1.52E-10,1.17E-10,6.03E-08,0.93658483,5.76E-11,-2.14E-09,6.76E-09,-96.65717316,-13.94838238,7.76E-08,1.55E-12,1.751
2.57E-07,1.13E-06,1.06E-06,-1.51E-06,-1.63E-06,-0.000303023,0.000301812,0.000400524,-0.000402126,642.0770264,642.0770264,706.2479858,706.2479858,-0.000378907,-1.26E-10,-5.52E-10,5.30E-10,-1.53E-10,1.16E-10,6.02E-08,0.93658483,2.16E-12,-8.60E-09,-5.40E-08,-96.65717316,-13.94838238,7.76E-08,7.45E-12,1.761
2.58E-07,1.14E-06,1.08E-06,-1.54E-06,-1.66E-06,-0.000303015,0.000303759,0.000400549,-0.00040117,642.0770264,642.0770264,706.2479858,706.2479858,-0.000378907,-1.26E-10,-5.53E-10,5.29E-10,-1.54E-10,1.16E-10,6.01E-08,0.93658483,1.75E-11,-5.43E-09,-5.46E-09,-96.65717316,-13.94838238,7.76E-08,-7.72E-12,1.771
2.59E-07,1.15E-06,1.09E-06,-1.55E-06,-1.69E-06,-0.000303022,0.000303743,0.000401523,-0.000402135,642.0770264,642.0770264,706.2479858,706.2479858,-0.000378907,-1.27E-10,-5.52E-10,5.30E-10,-1.54E-10,1.16E-10,6.01E-08,0.93658483,2.55E-11,-7.27E-09,-2.97E-08,-96.65717316,-13.94838238,7.75E-08,-1.17E-11,1.781
2.59E-07,1.15E-06,1.00E-06,-1.51E-06,-1.72E-06,-0.000303061,0.000302753,0.000400611,-0.000402065,642.0770264,642.0770264,706.2479858,706.2479858,-0.000378907,-1.27E-10,-5.51E-10,5.31E-10,-1.56E-10,1.14E-10,6.00E-08,0.93658483,4.94E-11,-2.80E-09,-5.99E-08,-96.65717316,-13.94838238,7.75E-08,-1.80E-11,1.791
2.60E-07,1.14E-06,9.60E-07,-1.54E-06,-1.75E-06,-0.000303097,0.000303698,0.000401558,-0.000402086,642.0770264,642.0770264,706.2479858,706.2479858,-0.000378907,-1.27E-10,-5.50E-10,5.31E-10,-1.55E-10,1.15E-10,6.00E-08,0.93658483,4.65E-11,-1.57E-09,-1.13E-08,-96.65717316,-13.94838238,7.74E-08,-3.24E-11,1.801
2.61E-07,1.13E-06,1.01E-06,-1.63E-06,-1.80E-06,-0.000303045,0.000301809,0.0004006,-0.00040118,642.0770264,642.0770264,706.2479858,706.2479858,-0.000378907,-1.26E-10,-5.52E-10,5.30E-10,-1.55E-10,1.16E-10,5.99E-08,0.93658483,1.38E-11,-1.40E-08,-2.46E-08,-96.65717316,-13.94838238,7.74E-08,-3.25E-11,1.811
2.62E-07,1.11E-06,1.04E-06,-1.66E-06,-1.75E-06,-0.000302978,0.000301858,0.000401558,-0.000402133,642.0770264,642.0770264,706.2479858,706.2479858,-0.000378907,-1.26E-10,-5.54E-10,5.28E-10,-1.55E-10,1.16E-10,5.98E-08,0.93658483,1.14E-11,-1.38E-09,-1.46E-08,-96.65717316,-13.94838238,7.73E-08,-4.36E-11,1.821
2.63E-07,1.16E-06,9.34E-07,-1.57E-06,-1.71E-06,-0.000301188,0.000301719,0.000400561,-0.000401153,642.0770264,642.0770264,706.2479858,706.2479858,-0.000378907,-1.25E-10,-5.49E-10,5.33E-10,-1.54E-10,1.16E-10,5.98E-08,0.93658483,8.18E-11,-1.03E-08,1.21E-08,-96.65717316,-13.94838238,7.73E-08,-1.76E-11,1.831
2.63E-07,1.12E-06,9.94E-07,-1.64E-06,-1.72E-06,-0.000303098,0.000302709,0.000401481,-0.000401222,642.0770264,642.0770264,706.2479858,706.2479858,-0.000378907,-1.24E-10,-5.50E-10,5.32E-10,-1.53E-10,1.18E-10,5.97E-08,0.93658483,-1.27E-11,-3.08E-09,-7.13E-09,-96.65717316,-13.94838238,7.73E-08,-2.94E-11,1.841
2.64E-07,1.01E-06,1.12E-06,-1.74E-06,-1.63E-06,-0.000301927,0.000303876,0.000400484,-0.000402226,642.0770264,642.0770264,706.2479858,706.2479858,-0.000378907,-1.24E-10,-5.56E-10,5.26E-10,-1.52E-10,1.19E-10,5.96E-08,0.93658483,-2.01E-11,1.43E-09,-4.97E-08,-96.65717316,-13.94838238,7.72E-08,-2.02E-11,1.851
2.65E-07,1.10E-06,1.08E-06,-1.70E-06,-1.66E-06,-0.000303011,0.000301799,0.000399531,-0.000402212,642.0770264,642.0770264,706.2479858,706.2479858,-0.000378907,-1.24E-10,-5.53E-10,5.30E-10,-1.52E-10,1.18E-10,5.96E-08,0.93658483,9.61E-12,-5.55E-09,-3.54E-08,-96.65717316,-13.94838238,7.72E-08,-1.11E-11,1.861
2.66E-07,1.04E-06,1.09E-06,-1.66E-06,-1.62E-06,-0.000302912,0.000301926,0.000399615,-0.00040019,642.0770264,642.0770264,706.2479858,706.2479858,-0.000378907,-1.25E-10,-5.56E-10,5.26E-10,-1.55E-10,1.15E-10,5.95E-08,0.93658483,-2.84E-11,-8.78E-09,-2.95E-08,-96.65717316,-13.94838238,7.71E-08,-1.63E-11,1.871
2.66E-07,1.04E-06,1.09E-06,-1.63E-06,-1.62E-06,-0.000302896,0.000303903,0.000401579,-0.000401113,642.0770264,642.0770264,706.2479858,706.2479858,-0.000378907,-1.26E-10,-5.56E-10,5.25E-10,-1.56E-10,1.14E-10,5.94E-08,0.93658483,1.51E-12,8.44E-09,4.73E-09,-96.65717316,-13.94838238,7.71E-08,-2.04E-11,1.881
2.67E-07,1.05E-06,1.13E-06,-1.61E-06,-1.63E-06,-0.000300927,0.000301974,0.000402542,-0.000402066,642.0770264,642.0770264,706.2479858,706.2479858,-0.000378907,-1.27E-10,-5.57E-10,5.25E-10,-1.56E-10,1.14E-10,5.94E-08,0.93658483,1.55E-11,-8.03E-09,2.00E-08,-96.65717316,-13.94838238,7.70E-08,-2.56E-11,1.891
2.68E-07,1.06E-06,1.11E-06,-1.61E-06,-1.63E-06,-0.000302957,0.000301854,0.000401463,-0.000400241,642.0770264,642.0770264,706.2479858,706.2479858,-0.000378907,-1.27E-10,-5.54E-10,5.28E-10,-1.52E-10,1.17E-10,5.93E-08,0.93658483,-2.19E-11,-5.35E-09,1.49E-08,-96.65717316,-13.94838238,7.70E-08,-1.46E-11,1.901
2.69E-07,1.04E-06,1.05E-06,-1.65E-06,-1.67E-06,-0.000302081,0.000302736,0.000403314,-0.000402232,642.0770264,642.0770264,706.2479858,706.2479858,-0.000378907,-1.26E-10,-5.52E-10,5.31E-10,-1.50E-10,1.19E-10,5.92E-08,0.93658483,3.98E-12,-5.67E-09,2.89E-08,-96.65717316,-13.94838238,7.70E-08,-9.64E-12,1.911
2.69E-07,1.10E-06,9.33E-07,-1.64E-06,-1.76E-06,-0.000302206,0.000303595,0.000401439,-0.000402205,642.0770264,642.0770264,706.2479858,706.2479858,-0.000378907,-1.25E-10,-5.48E-10,5.34E-10,-1.52E-10,1.18E-10,5.92E-08,0.93658483,5.46E-11,-6.61E-09,-3.40E-09,-96.65717316,-13.94838238,7.69E-08,-9.92E-12,1.921
2.70E-07,1.09E-06,9.17E-07,-1.65E-06,-1.74E-06,-0.000303221,0.000302599,0.000402315,-0.00040133,642.0770264,642.0770264,706.2479858,706.2479858,-0.000378907,-1.23E-10,-5.46E-10,5.35E-10,-1.49E-10,1.21E-10,5.91E-08,0.93658483,-4.29E-12,-8.17E-10,3.55E-08,-96.65717316,-13.94838238,7.69E-08,4.94E-12,1.931
